atracao_id,nome,endereco,cidade,nota,qtd_avaliacoes,latitude,longitude,fonte
313966,Museu da Inconfidência - Ouro Preto,"Praca Tiradentes 139, Ouro Preto, Minas Gerais 35400-000 Brasil",Ouro Preto,4.5,3395,-20.3858642578125,-43.503719329833984,https://www.tripadvisor.com.br/Attraction_Review-g303389-d313966-Reviews-Museu_da_Inconfidencia-Ouro_Preto_State_of_Minas_Gerais.html
4601254,Centro Histórico de Ouro Preto,indef,Ouro Preto,4.5,5031,-20.38504981994629,-43.50366973876953,https://www.tripadvisor.com.br/Attraction_Review-g303389-d4601254-Reviews-Centro_Historico_de_Ouro_Preto-Ouro_Preto_State_of_Minas_Gerais.html
2389271,Casa dos Contos - Ouro Preto,"Rua Sao Jose 12, Ouro Preto, Minas Gerais 35400-000 Brasil",Ouro Preto,4.5,2096,-20.38436508178711,-43.506107330322266,https://www.tripadvisor.com.br/Attraction_Review-g303389-d2389271-Reviews-Casa_dos_Contos-Ouro_Preto_State_of_Minas_Gerais.html
313967,Basílica de Nossa Senhora do Pilar - Ouro Preto,"Travessa Lauro Barbosa, 16 Bairro do Pilar, Ouro Preto, Minas Gerais 35400-000 Brasil",Ouro Preto,4.5,2388,-20.386329650878906,-43.507850646972656,https://www.tripadvisor.com.br/Attraction_Review-g303389-d313967-Reviews-Basilica_of_Nossa_Senhora_do_Pilar-Ouro_Preto_State_of_Minas_Gerais.html
555145,Igreja de São Francisco de Assis - Ouro Preto,"Largo de Coimbra, Ouro Preto, Minas Gerais 35400-000 Brasil",Ouro Preto,4.5,2067,-20.38641357421875,-43.502777099609375,https://www.tripadvisor.com.br/Attraction_Review-g303389-d555145-Reviews-Church_of_Sao_Francisco_de_Assis-Ouro_Preto_State_of_Minas_Gerais.html
2389356,Trem da Vale – Ouro Preto e Mariana,indef,Ouro Preto ,4.0,928,-20.38249969482422,-43.484535217285156,https://www.tripadvisor.com.br/Attraction_Review-g303389-d2389356-Reviews-Trem_da_Vale_Ouro_Preto_e_Mariana-Ouro_Preto_State_of_Minas_Gerais.html
7655323,Mina Du Veloso - Ouro Preto,"Rua Levindo Inácio André, 400, Ouro Preto, Minas Gerais 35400-000 Brasil",Ouro Preto,4.5,772,-20.376314163208008,-43.51600646972656,https://www.tripadvisor.com.br/Attraction_Review-g303389-d7655323-Reviews-Mina_Du_Veloso-Ouro_Preto_State_of_Minas_Gerais.html
2389353,Parque Estadual do Itacolomi - Ouro Preto,"Rodovia BR 356, Km 98, Ouro Preto, Minas Gerais 35400-000 Brasil",Ouro Preto,4.5,266,-20.388370513916016,-43.498008728027344,https://www.tripadvisor.com.br/Attraction_Review-g303389-d2389353-Reviews-Parque_Estadual_do_Itacolomi-Ouro_Preto_State_of_Minas_Gerais.html
12389108,Minas do Palácio Velho - Ouro Preto,"Rua Dom Silvério 159 Ponte da 'Encardideira', Ouro Preto, Minas Gerais 35400-000 Brasil",Ouro Preto,4.5,214,-20.386127471923828,-43.49897766113281,https://www.tripadvisor.com.br/Attraction_Review-g303389-d12389108-Reviews-Minas_do_Palacio_Velho-Ouro_Preto_State_of_Minas_Gerais.html
2389280,Feira De Pedra Sabão Do Largo De Coimbra - Ouro Preto,"Largo do Coimbra, Ouro Preto, Minas Gerais 35400-000 Brasil",Ouro Preto,4.5,437,-20.385942459106445,-43.50276184082031,https://www.tripadvisor.com.br/Attraction_Review-g303389-d2389280-Reviews-Feira_De_Pedra_Sabao_Do_Largo_De_Coimbra-Ouro_Preto_State_of_Minas_Gerais.html
555142,Praça Tiradentes - Ouro Preto,"Praca Tiradentes, Ouro Preto, Minas Gerais 35400-000 Brasil",Ouro Preto,4.5,2469,-20.385499954223633,-43.503700256347656,https://www.tripadvisor.com.br/Attraction_Review-g303389-d555142-Reviews-Praca_Tiradentes-Ouro_Preto_State_of_Minas_Gerais.html
313965,Museu da Mineralogia - Ouro Preto,"Praca Tiradentes, 20, Ouro Preto, Minas Gerais 35400-000 Brasil",Ouro Preto,4.5,862,-20.384689331054688,-43.503604888916016,https://www.tripadvisor.com.br/Attraction_Review-g303389-d313965-Reviews-Museum_of_Mineralogy-Ouro_Preto_State_of_Minas_Gerais.html
2389297,Igreja Nossa Senhora do Carmo - Ouro Preto,"Rua Brigadeiro Musqueira, s/n, Ouro Preto, Minas Gerais 35400-000 Brasil",Ouro Preto,4.5,875,-20.385910034179688,-43.50444030761719,https://www.tripadvisor.com.br/Attraction_Review-g303389-d2389297-Reviews-Igreja_Nossa_Senhora_do_Carmo-Ouro_Preto_State_of_Minas_Gerais.html
2389163,Cachoeira das Andorinhas - Ouro Preto,"R. Rio Piracicaba, Ouro Preto, Minas Gerais 35400-000 Brasil",Ouro Preto,4.5,193,-20.37447738647461,-41.85930252075195,https://www.tripadvisor.com.br/Attraction_Review-g303389-d2389163-Reviews-Andorinhas_Waterfall-Ouro_Preto_State_of_Minas_Gerais.html
7296997,Casa de Aleijadinho - Ouro Preto,"Praca Antonio Dias 18, Ouro Preto, Minas Gerais 35400-000 Brasil",Ouro Preto,4.5,181,-20.3799991607666,-43.4900016784668,https://www.tripadvisor.com.br/Attraction_Review-g303389-d7296997-Reviews-Casa_de_Aleijadinho-Ouro_Preto_State_of_Minas_Gerais.html
4451825,Museu Casa dos Inconfidentes - Ouro Preto,"Rua Engenheiro Correa Vila Aparecida, Ouro Preto, Minas Gerais 35400-000 Brasil",Ouro Preto,4.5,273,-20.392335891723633,-43.506649017333984,https://www.tripadvisor.com.br/Attraction_Review-g303389-d4451825-Reviews-Casa_dos_Inconfidentes_Museum-Ouro_Preto_State_of_Minas_Gerais.html
4597983,Igreja Nossa Senhora do Rosário - Ouro Preto,"Largo do Rosário, Ouro Preto, Minas Gerais 35400-000 Brasil",Ouro Preto,4.5,701,-20.383939743041992,-43.509849548339844,https://www.tripadvisor.com.br/Attraction_Review-g303389-d4597983-Reviews-Igreja_Nossa_Senhora_do_Rosario-Ouro_Preto_State_of_Minas_Gerais.html
2389321,Igreja Sta Efigênia dos Pretos - Ouro Preto,"Rua Santa Efigênia, s/n Alto da Cruz, Ouro Preto, Minas Gerais 35400-000 Brasil",Ouro Preto,4.5,360,-20.387266159057617,-43.5002555847168,https://www.tripadvisor.com.br/Attraction_Review-g303389-d2389321-Reviews-Santa_Efigenia_dos_Pretos_church-Ouro_Preto_State_of_Minas_Gerais.html
555144,Museu do Oratório - Ouro Preto,"At St. Carmel Novitiate, Ouro Preto, Minas Gerais 35400-000 Brasil",Ouro Preto,4.5,661,-20.386098861694336,-43.50430679321289,https://www.tripadvisor.com.br/Attraction_Review-g303389-d555144-Reviews-Oratory_Museum_Museu_Do_Oratorio-Ouro_Preto_State_of_Minas_Gerais.html
7675995,Mirante Morro São Sebastião - Ouro Preto,"Ladeira João de Paiva, Ouro Preto, Minas Gerais 35400-000 Brasil",Ouro Preto,4.5,166,-20.381229400634766,-43.502525329589844,https://www.tripadvisor.com.br/Attraction_Review-g303389-d7675995-Reviews-Mirante_Morro_Sao_Sebastiao-Ouro_Preto_State_of_Minas_Gerais.html
555141,Rua Conde de Bobadela - Ouro Preto,indef,Ouro Preto,4.5,564,-20.3854923248291,-43.50383377075195,https://www.tripadvisor.com.br/Attraction_Review-g303389-d555141-Reviews-Rua_Conde_de_Bobadela-Ouro_Preto_State_of_Minas_Gerais.html
2389359,Teatro Municipal - Ouro Preto,"Rua Brigadeiro Musqueira, s/n, Ouro Preto, Minas Gerais 35400-000 Brasil",Ouro Preto,4.5,286,-20.385910034179688,-43.50444030761719,https://www.tripadvisor.com.br/Attraction_Review-g303389-d2389359-Reviews-Teatro_Municipal-Ouro_Preto_State_of_Minas_Gerais.html
2324602,Museu de Ciência e Técnica da Escola de Minas/UFOP - Ouro Preto,"Praca Tiradentes, 20 - Centro, Ouro Preto, Minas Gerais 35400-000 Brasil",Ouro Preto,4.5,358,-20.384435653686523,-43.50362014770508,https://www.tripadvisor.com.br/Attraction_Review-g303389-d2324602-Reviews-Museu_de_Ciencia_e_Tecnica_da_Escola_de_Minas_UFOP-Ouro_Preto_State_of_Minas_Gera.html
313968,Minas de Chico Rei - Ouro Preto,indef,Ouro Preto,4.0,672,-20.417720794677734,-43.613040924072266,https://www.tripadvisor.com.br/Attraction_Review-g303389-d313968-Reviews-Minas_de_Chico_Rei-Ouro_Preto_State_of_Minas_Gerais.html
7087841,Mina de Ouro Santa Rita - Ouro Preto,"Rua Santa Rita, 171 Bairro Padre Faria, Ouro Preto, Minas Gerais 35400-000 Brasil",Ouro Preto,4.5,92,-20.386560440063477,-43.4930305480957,https://www.tripadvisor.com.br/Attraction_Review-g303389-d7087841-Reviews-Mina_de_Ouro_Santa_Rita-Ouro_Preto_State_of_Minas_Gerais.html
10083060,Monumento a Tiradentes - Ouro Preto,"Praca Tiradentes, Ouro Preto, Minas Gerais 35400-000 Brasil",Ouro Preto,4.5,153,-20.385499954223633,-43.503700256347656,https://www.tripadvisor.com.br/Attraction_Review-g303389-d10083060-Reviews-Monumento_a_Tiradentes-Ouro_Preto_State_of_Minas_Gerais.html
9801110,Mina do Chico Rei - Ouro Preto,indef,Ouro Preto,4.0,104,-20.38627052307129,-43.49919509887695,https://www.tripadvisor.com.br/Attraction_Review-g303389-d9801110-Reviews-Chico_Rei_Mine-Ouro_Preto_State_of_Minas_Gerais.html
4740694,Estação Ferroviária de Ouro Preto,indef,Ouro Preto,4.0,255,-20.3907470703125,-43.50685119628906,https://www.tripadvisor.com.br/Attraction_Review-g303389-d4740694-Reviews-Estacao_Ferroviaria_de_Ouro_Preto-Ouro_Preto_State_of_Minas_Gerais.html
10194968,Rua dos Bancos - Ouro Preto,"Rua Sao Jose sn, Ouro Preto, Minas Gerais 35400-000 Brasil",Ouro Preto,4.5,116,-20.38513946533203,-43.50730895996094,https://www.tripadvisor.com.br/Attraction_Review-g303389-d10194968-Reviews-Rua_dos_Bancos-Ouro_Preto_State_of_Minas_Gerais.html
7296806,Casa de Tomás Antônio Gonzaga - Ouro Preto,"Rua Claudio Manoel 61, Ouro Preto, Minas Gerais 35400-000 Brasil",Ouro Preto,4.5,111,-20.385570526123047,-43.50301742553711,https://www.tripadvisor.com.br/Attraction_Review-g303389-d7296806-Reviews-Casa_de_Tomas_Antonio_Gonzaga-Ouro_Preto_State_of_Minas_Gerais.html
2389273,Museu Casa Guignard - Ouro Preto,"Rua Conde de Bobadela (Rua Direita), 110, Ouro Preto, Minas Gerais 35400-000 Brasil",Ouro Preto,4.0,92,-20.385278701782227,-43.50483322143555,https://www.tripadvisor.com.br/Attraction_Review-g303389-d2389273-Reviews-Guignard_House_Museum-Ouro_Preto_State_of_Minas_Gerais.html
10108779,Ponte de Antonio Dias - Ouro Preto,"Rua da Conceicao 133, Ouro Preto, Minas Gerais 35400-000 Brasil",Ouro Preto,5.0,17,-20.386606216430664,-43.50065231323242,https://www.tripadvisor.com.br/Attraction_Review-g303389-d10108779-Reviews-Ponte_de_Antonio_Dias-Ouro_Preto_State_of_Minas_Gerais.html
2389334,Museu da Pharmacia - Ouro Preto,"Rua Costa Sena, 171, Ouro Preto, Minas Gerais 35400-000 Brasil",Ouro Preto,4.5,62,-20.386829376220703,-43.50413131713867,https://www.tripadvisor.com.br/Attraction_Review-g303389-d2389334-Reviews-Museu_da_Pharmacia-Ouro_Preto_State_of_Minas_Gerais.html
2389349,Museu do Aleijadinho - Ouro Preto,"Praça Antônio Dias - sacristia da Matriz N.S. da Conceição, Ouro Preto, Minas Gerais 35400-000 Brasil",Ouro Preto,4.0,255,-20.386980056762695,-43.5004997253418,https://www.tripadvisor.com.br/Attraction_Review-g303389-d2389349-Reviews-Aleijadinho_Museum-Ouro_Preto_State_of_Minas_Gerais.html
2389315,Igreja São Francisco de Paula - Ouro Preto,"Rua Henrique Adeodato, s/n, Ouro Preto, Minas Gerais 35400-000 Brasil",Ouro Preto,4.0,211,-20.382219314575195,-43.50912094116211,https://www.tripadvisor.com.br/Attraction_Review-g303389-d2389315-Reviews-Sao_Francisco_de_Paula_church-Ouro_Preto_State_of_Minas_Gerais.html
7050530,Igreja Nossa Senhora das Mercês e Misericórdia - Ouro Preto,"Rua Felipe dos Santos 134 Antônio Dias, Ouro Preto, Minas Gerais 35400-000 Brasil",Ouro Preto,4.0,106,-20.387529373168945,-43.50143051147461,https://www.tripadvisor.com.br/Attraction_Review-g303389-d7050530-Reviews-Igreja_Nossa_Senhora_das_Merces_e_Misericordia-Ouro_Preto_State_of_Minas_Gerais.html
2389295,Igreja Matriz N S da Conceição - Ouro Preto,"Praça Antônio Dias, Ouro Preto, Minas Gerais 35400-000 Brasil",Ouro Preto,4.5,166,-20.390079498291016,-43.506629943847656,https://www.tripadvisor.com.br/Attraction_Review-g303389-d2389295-Reviews-Our_Lady_of_Conceicao_church-Ouro_Preto_State_of_Minas_Gerais.html
10082918,Largo Marília de Dirceu - Ouro Preto,indef,Ouro Preto,4.0,15,-20.399709701538086,-43.50020980834961,https://www.tripadvisor.com.br/Attraction_Review-g303389-d10082918-Reviews-Largo_Marilia_de_Dirceu-Ouro_Preto_State_of_Minas_Gerais.html
2414761,Cachoeira das Andorinhas - Ouro Preto,"Rua das Andorinhas, s/n Parque Natural Municipal das Andorinhas, Ouro Preto, Minas Gerais 76600-000 Brasil",Ouro Preto,4.5,61,-15.885766983032227,-50.18660354614258,https://www.tripadvisor.com.br/Attraction_Review-g303389-d2414761-Reviews-Andorinhas_Waterfall-Ouro_Preto_State_of_Minas_Gerais.html
6406925,Casa Da Opera - Ouro Preto,"Rua Brigadeiro Musqueira Centro, Ouro Preto, Minas Gerais 35400-000 Brasil",Ouro Preto,4.0,50,-20.385631561279297,-43.504981994628906,https://www.tripadvisor.com.br/Attraction_Review-g303389-d6406925-Reviews-Casa_Da_Opera-Ouro_Preto_State_of_Minas_Gerais.html
4127534,Teatro de Ouro Preto,"Rua Diogo de Vasconcelos, 328, Ouro Preto, Minas Gerais 35400-000 Brasil",Ouro Preto,4.5,102,-20.385833740234375,-43.504825592041016,https://www.tripadvisor.com.br/Attraction_Review-g303389-d4127534-Reviews-Ouro_Preto_Theater-Ouro_Preto_State_of_Minas_Gerais.html
15514341,Floresta Estadual Uaimii - Ouro Preto,"Rodovia BR 356, Km 98 São Bartolomeu, Ouro Preto, Minas Gerais 35400-000 Brasil",Ouro Preto,4.5,8,-20.388370513916016,-43.498008728027344,https://www.tripadvisor.com.br/Attraction_Review-g303389-d15514341-Reviews-Floresta_Estadual_Uaimii-Ouro_Preto_State_of_Minas_Gerais.html
13076682,Capela do Padre Faria - Ouro Preto,"Rua Nossa Senhora do Parto, Ouro Preto, Minas Gerais 35400-000 Brasil",Ouro Preto,5.0,10,-20.387880325317383,-43.49150085449219,https://www.tripadvisor.com.br/Attraction_Review-g303389-d13076682-Reviews-Capela_do_Padre_Faria-Ouro_Preto_State_of_Minas_Gerais.html
10269288,Largo do Rosário - Ouro Preto,indef,Ouro Preto,4.5,12,0.0,0.0,https://www.tripadvisor.com.br/Attraction_Review-g303389-d10269288-Reviews-Largo_do_Rosario-Ouro_Preto_State_of_Minas_Gerais.html
2389346,Museu de Arte Sacra - Ouro Preto,indef,Ouro Preto,4.0,127,-20.386699676513672,-43.50768280029297,https://www.tripadvisor.com.br/Attraction_Review-g303389-d2389346-Reviews-Museu_de_Arte_Sacra-Ouro_Preto_State_of_Minas_Gerais.html
4376909,Museu de Arte Religiosa Paróquia do Pilar - Ouro Preto,"Praca Monsenhor Castilho Barbosa, 17 Pilar, Ouro Preto, Minas Gerais 35400-000 Brasil",Ouro Preto,4.5,52,-20.386600494384766,-43.507816314697266,https://www.tripadvisor.com.br/Attraction_Review-g303389-d4376909-Reviews-Paroquia_do_Pilar_Religious_Arts_Museum-Ouro_Preto_State_of_Minas_Gerais.html
10085038,Casa do Pilar - Ouro Preto,indef,Ouro Preto,4.5,4,-20.386699676513672,-43.506568908691406,https://www.tripadvisor.com.br/Attraction_Review-g303389-d10085038-Reviews-Casa_do_Pilar-Ouro_Preto_State_of_Minas_Gerais.html
9795642,SESI Ouro Preto - Centro Cultural e Turistico do Sistema FIEMG,"Praça Tiradentes, 4, Ouro Preto, Minas Gerais 35400-000 Brasil",Ouro Preto,4.0,23,-20.38607406616211,-43.5037727355957,https://www.tripadvisor.com.br/Attraction_Review-g303389-d9795642-Reviews-SESI_Ouro_Preto_Centro_Cultural_e_Turistico_do_Sistema_FIEMG-Ouro_Preto_State_of_.html
10117321,Morro da Forca - Ouro Preto,"Rua Pacifico Homem, Ouro Preto, Minas Gerais 35400-000 Brasil",Ouro Preto,3.5,15,-20.388599395751953,-43.50584030151367,https://www.tripadvisor.com.br/Attraction_Review-g303389-d10117321-Reviews-Morro_da_Forca-Ouro_Preto_State_of_Minas_Gerais.html
2389266,Our Lady of the Rosario Church - Ouro Preto,indef,Ouro Preto,4.5,55,-20.387849807739258,-43.49296188354492,https://www.tripadvisor.com.br/Attraction_Review-g303389-d2389266-Reviews-Our_Lady_of_the_Rosario_Church-Ouro_Preto_State_of_Minas_Gerais.html
4376906,Museu do Chá - Ouro Preto,"Rodovia do Contorno, Ouro Preto, Minas Gerais 35400-000 Brasil",Ouro Preto,4.0,16,-20.295970916748047,-43.6450309753418,https://www.tripadvisor.com.br/Attraction_Review-g303389-d4376906-Reviews-Tea_Museum-Ouro_Preto_State_of_Minas_Gerais.html
9996152,Igreja Nossa Senhora das Mercês e Perdões - Ouro Preto,"Rua das Merces, Ouro Preto, Minas Gerais 35400-000 Brasil",Ouro Preto,4.0,20,-20.387630462646484,-43.50236892700195,https://www.tripadvisor.com.br/Attraction_Review-g303389-d9996152-Reviews-Igreja_Nossa_Senhora_das_Merces_e_Perdoes-Ouro_Preto_State_of_Minas_Gerais.html
12664008,Atelie Paulo Valadares - Ouro Preto,"Praça Tiradentes 132, Ouro Preto, Minas Gerais 35400-000 Brasil",Ouro Preto,5.0,6,-20.38574981689453,-43.503849029541016,https://www.tripadvisor.com.br/Attraction_Review-g303389-d12664008-Reviews-Atelie_Paulo_Valadares-Ouro_Preto_State_of_Minas_Gerais.html
10088000,Largo de Coimbra - Ouro Preto,indef,Ouro Preto,4.5,11,0.0,0.0,https://www.tripadvisor.com.br/Attraction_Review-g303389-d10088000-Reviews-Largo_de_Coimbra-Ouro_Preto_State_of_Minas_Gerais.html
2389317,Igreja São Miguel e Almas (Bom Jesus Matosinhos) - Ouro Preto,"Rua Alvarenga Peixoto, s/n Cabeças, Ouro Preto, Minas Gerais 35400-000 Brasil",Ouro Preto,4.0,34,-20.381790161132812,-43.515560150146484,https://www.tripadvisor.com.br/Attraction_Review-g303389-d2389317-Reviews-Sao_Miguel_e_Almas_Bom_Jesus_Matosinhos_church-Ouro_Preto_State_of_Minas_Gerais.html
4976493,Centro de Artes e Convenções da UFOP - Ouro Preto,"Rua Diogo de Vasconcelos, 328 Bairro Pilar, Ouro Preto, Minas Gerais 35400-000 Brasil",Ouro Preto,4.5,64,-20.389497756958008,-43.506832122802734,https://www.tripadvisor.com.br/Attraction_Review-g303389-d4976493-Reviews-Centro_de_Artes_e_Convencoes_da_UFOP-Ouro_Preto_State_of_Minas_Gerais.html
10082877,Praça Reinaldo Alves de Brito - Ouro Preto,"Praca Reinaldo Alves de Brito sn, Ouro Preto, Minas Gerais 35400-000 Brasil",Ouro Preto,4.0,4,-20.384899139404297,-43.50577163696289,https://www.tripadvisor.com.br/Attraction_Review-g303389-d10082877-Reviews-Praca_Reinaldo_Alves_de_Brito-Ouro_Preto_State_of_Minas_Gerais.html
10556989,Josimar Guimarães - Escritório de Arte - Ouro Preto,"Rua Claudio Manoel 130, Ouro Preto, Minas Gerais 35400-000 Brasil",Ouro Preto,5.0,32,-20.386028289794922,-43.50227355957031,https://www.tripadvisor.com.br/Attraction_Review-g303389-d10556989-Reviews-Josimar_Guimaraes_Escritorio_de_Arte-Ouro_Preto_State_of_Minas_Gerais.html
2389329,Mosteiro Zen Budista Pico de Raios - Ouro Preto,indef,Ouro Preto,4.0,11,-20.376670837402344,-43.49674987792969,https://www.tripadvisor.com.br/Attraction_Review-g303389-d2389329-Reviews-Pico_de_Raios_Zen_Buddhist_monastery-Ouro_Preto_State_of_Minas_Gerais.html
4376915,Museu Aberto Cidade Viva - Ouro Preto,"Rua Sao Jose n 132 Centro, Ouro Preto, Minas Gerais 35400-000 Brasil",Ouro Preto,4.5,49,-20.38460922241211,-43.50716018676758,https://www.tripadvisor.com.br/Attraction_Review-g303389-d4376915-Reviews-Aberto_Cidade_Viva_Museum-Ouro_Preto_State_of_Minas_Gerais.html
10084220,Observatório Astronômico da Escola de Minas - Ouro Preto,"Praca Tiradentes 20 Centro, Ouro Preto, Minas Gerais 35400-000 Brasil",Ouro Preto,4.5,6,-20.386077880859375,-43.50374984741211,https://www.tripadvisor.com.br/Attraction_Review-g303389-d10084220-Reviews-Observatorio_Astronomico_da_Escola_de_Minas-Ouro_Preto_State_of_Minas_Gerais.html
10205226,Ponte dos Contos - Ouro Preto,"Rua São José, Ouro Preto, Minas Gerais 35400-000 Brasil",Ouro Preto,4.5,7,-20.349550247192383,-43.67607116699219,https://www.tripadvisor.com.br/Attraction_Review-g303389-d10205226-Reviews-Ponte_dos_Contos-Ouro_Preto_State_of_Minas_Gerais.html
10083131,Casa da Baronesa - Ouro Preto,"Praca Tiradentes No 33 Iphan, Ouro Preto, Minas Gerais 35400-000 Brasil",Ouro Preto,4.5,3,-20.38581657409668,-43.50367736816406,https://www.tripadvisor.com.br/Attraction_Review-g303389-d10083131-Reviews-Casa_da_Baronesa-Ouro_Preto_State_of_Minas_Gerais.html
10064355,Caminho dos Diamantes da Estrada Real - Ouro Preto,indef,Ouro Preto,4.5,3,0.0,0.0,https://www.tripadvisor.com.br/Attraction_Review-g303389-d10064355-Reviews-Caminho_dos_Diamantes_da_Estrada_Real-Ouro_Preto_State_of_Minas_Gerais.html
7195241,Igreja de São José - Ouro Preto,"Rua Teixeira Amaral, Ouro Preto, Minas Gerais 35400-000 Brasil",Ouro Preto,4.0,51,-20.384780883789062,-43.50790023803711,https://www.tripadvisor.com.br/Attraction_Review-g303389-d7195241-Reviews-Igreja_de_Sao_Jose-Ouro_Preto_State_of_Minas_Gerais.html
12947713,Mina Treze de Maio - Casa de Mineração - Ouro Preto,indef,Ouro Preto,4.0,9,-20.385269165039062,-43.49591827392578,https://www.tripadvisor.com.br/Attraction_Review-g303389-d12947713-Reviews-Mina_Treze_de_Maio_Casa_de_Mineracao-Ouro_Preto_State_of_Minas_Gerais.html
10083175,Casa de Alphonsus de Guimaraens - Ouro Preto,"Rua Sao Jose 165 Centro, Ouro Preto, Minas Gerais 35400-000 Brasil",Ouro Preto,4.5,4,-20.384946823120117,-43.50710678100586,https://www.tripadvisor.com.br/Attraction_Review-g303389-d10083175-Reviews-Casa_de_Alphonsus_de_Guimaraens-Ouro_Preto_State_of_Minas_Gerais.html
2389277,Estação Ecológica do Tripuí - Ouro Preto,indef,Ouro Preto,4.5,29,-20.31641960144043,-43.57683181762695,https://www.tripadvisor.com.br/Attraction_Review-g303389-d2389277-Reviews-Estacao_Ecologica_do_Tripui-Ouro_Preto_State_of_Minas_Gerais.html
10037896,Cachoeira Bigode do Chinês - Ouro Preto,"Victorino Dias, Ouro Preto, Minas Gerais 35400-000 Brasil",Ouro Preto,4.0,7,-20.389690399169922,-43.506710052490234,https://www.tripadvisor.com.br/Attraction_Review-g303389-d10037896-Reviews-Cachoeira_Bigode_do_Chines-Ouro_Preto_State_of_Minas_Gerais.html
6436843,Igreja De Glaura - Ouro Preto,indef,Ouro Preto,4.0,21,0.0,0.0,https://www.tripadvisor.com.br/Attraction_Review-g303389-d6436843-Reviews-Igreja_De_Glaura-Ouro_Preto_State_of_Minas_Gerais.html
10034311,Capela de Nossa Senhora das Dores do Monte Calvário - Ouro Preto,indef,Ouro Preto,5.0,5,-20.38956069946289,-43.49895095825195,https://www.tripadvisor.com.br/Attraction_Review-g303389-d10034311-Reviews-Capela_de_Nossa_Senhora_das_Dores_do_Monte_Calvario-Ouro_Preto_State_of_Minas_Ge.html
7331520,Chafariz Marília de Dirceu - Ouro Preto,"Largo Marilia de Dirceu Bairro Antônio Dias, Ouro Preto, Minas Gerais 35400-000 Brasil",Ouro Preto,3.5,43,-20.317930221557617,-43.68659973144531,https://www.tripadvisor.com.br/Attraction_Review-g303389-d7331520-Reviews-Chafariz_Marilia_de_Dirceu-Ouro_Preto_State_of_Minas_Gerais.html
10034756,Passo de Antônio Dias - Ouro Preto,"Rua Claudio Manoel sn, Ouro Preto, Minas Gerais 35400-000 Brasil",Ouro Preto,4.0,12,-20.385770797729492,-43.50265121459961,https://www.tripadvisor.com.br/Attraction_Review-g303389-d10034756-Reviews-Passo_de_Antonio_Dias-Ouro_Preto_State_of_Minas_Gerais.html
10195167,Prédio do Ministério Público - Ouro Preto,"Praca Reinaldo Alves de Brito 68, Ouro Preto, Minas Gerais 35400-000 Brasil",Ouro Preto,4.5,2,-20.384899139404297,-43.50577163696289,https://www.tripadvisor.com.br/Attraction_Review-g303389-d10195167-Reviews-Predio_do_Ministerio_Publico-Ouro_Preto_State_of_Minas_Gerais.html
10083078,Mirante da Igreja S. Francisco de Paula - Ouro Preto,"Rua Sao Francisco de Paula, Ouro Preto, Minas Gerais 35400-000 Brasil",Ouro Preto,4.5,12,-20.38205909729004,-43.507659912109375,https://www.tripadvisor.com.br/Attraction_Review-g303389-d10083078-Reviews-Mirante_da_Igreja_S_Francisco_de_Paula-Ouro_Preto_State_of_Minas_Gerais.html
10034886,Ponte da Barra - Ouro Preto,indef,Ouro Preto,4.0,4,-20.390750885009766,-43.50157928466797,https://www.tripadvisor.com.br/Attraction_Review-g303389-d10034886-Reviews-Ponte_da_Barra-Ouro_Preto_State_of_Minas_Gerais.html
10056606,Largo da Alegria - Ouro Preto,"Rua Sao Jose Praça Silviano Brandão, Ouro Preto, Minas Gerais 35400-000 Brasil",Ouro Preto,4.0,5,-20.384559631347656,-43.5070915222168,https://www.tripadvisor.com.br/Attraction_Review-g303389-d10056606-Reviews-Largo_da_Alegria-Ouro_Preto_State_of_Minas_Gerais.html
2389323,Mina Felipe dos Santos - Ouro Preto,indef,Ouro Preto,3.0,39,-20.384199142456055,-43.490840911865234,https://www.tripadvisor.com.br/Attraction_Review-g303389-d2389323-Reviews-Felipe_dos_Santos_mine-Ouro_Preto_State_of_Minas_Gerais.html
10034731,Oratório do Vira-Saia - Ouro Preto,"Rua Barao do Ouro Branco, Ouro Preto, Minas Gerais 35400-000 Brasil",Ouro Preto,4.0,5,-20.388370513916016,-43.498008728027344,https://www.tripadvisor.com.br/Attraction_Review-g303389-d10034731-Reviews-Oratorio_do_Vira_Saia-Ouro_Preto_State_of_Minas_Gerais.html
10173716,Chafariz do Museu da Inconfidência - Ouro Preto,"Praca Tiradentes sn, Ouro Preto, Minas Gerais 35400-000 Brasil",Ouro Preto,4.0,14,-20.385000228881836,-43.50352096557617,https://www.tripadvisor.com.br/Attraction_Review-g303389-d10173716-Reviews-Chafariz_do_Museu_da_Inconfidencia-Ouro_Preto_State_of_Minas_Gerais.html
7297004,Oratório Nossa Senhora do Bonsucesso - Ouro Preto,"Rua Bernardo de Vasconcelos, 55, Ouro Preto, Minas Gerais 35400-000 Brasil",Ouro Preto,4.0,23,-20.529903411865234,-43.552059173583984,https://www.tripadvisor.com.br/Attraction_Review-g303389-d7297004-Reviews-Oratorio_Nossa_Senhora_do_Bonsucesso-Ouro_Preto_State_of_Minas_Gerais.html
10178046,Casa da Câmara - Ouro Preto,"Praca Tiradentes 41, Ouro Preto, Minas Gerais 35400-000 Brasil",Ouro Preto,4.5,3,-20.38534927368164,-43.50347137451172,https://www.tripadvisor.com.br/Attraction_Review-g303389-d10178046-Reviews-Casa_da_Camara-Ouro_Preto_State_of_Minas_Gerais.html
10056644,Fórum - Ouro Preto,"Praca Reinaldo Alves de Brito 13, Ouro Preto, Minas Gerais 35400-000 Brasil",Ouro Preto,4.0,4,-20.384370803833008,-43.50593948364258,https://www.tripadvisor.com.br/Attraction_Review-g303389-d10056644-Reviews-Forum-Ouro_Preto_State_of_Minas_Gerais.html
10034095,Passos da Paixão de Jesus Cristo - Ouro Preto,"Rua Alvarenga 218, Ouro Preto, Minas Gerais 35400-000 Brasil",Ouro Preto,4.0,5,-20.383041381835938,-43.51360321044922,https://www.tripadvisor.com.br/Attraction_Review-g303389-d10034095-Reviews-Passos_da_Paixao_de_Jesus_Cristo-Ouro_Preto_State_of_Minas_Gerais.html
10083107,Câmara Municipal - Ouro Preto,"Praca Tiradentes 41 Centro, Ouro Preto, Minas Gerais 35400-000 Brasil",Ouro Preto,4.0,4,-20.385189056396484,-43.50364685058594,https://www.tripadvisor.com.br/Attraction_Review-g303389-d10083107-Reviews-Camara_Municipal-Ouro_Preto_State_of_Minas_Gerais.html
9754942,Mirante da Rua Getúlio Vargas - Ouro Preto,"Rua Getulio Vargas, Ouro Preto, Minas Gerais 35400-000 Brasil",Ouro Preto,4.0,10,-20.38368034362793,-43.509178161621094,https://www.tripadvisor.com.br/Attraction_Review-g303389-d9754942-Reviews-Mirante_da_Rua_Getulio_Vargas-Ouro_Preto_State_of_Minas_Gerais.html
10083159,Fundação de Arte de Ouro Preto - FAOP,"Rua Getulio Vargas 185, Ouro Preto, Minas Gerais 35400-000 Brasil",Ouro Preto,4.5,4,-20.384159088134766,-43.50876998901367,https://www.tripadvisor.com.br/Attraction_Review-g303389-d10083159-Reviews-Fundacao_de_Arte_de_Ouro_Preto_FAOP-Ouro_Preto_State_of_Minas_Gerais.html
10082893,Chafariz da Rua Barão de Ouro Branco - Ouro Preto,"Rua Barao do Ouro Branco Antonio Dias, Ouro Preto, Minas Gerais 35400-000 Brasil",Ouro Preto,4.0,4,-20.388370513916016,-43.498008728027344,https://www.tripadvisor.com.br/Attraction_Review-g303389-d10082893-Reviews-Chafariz_da_Rua_Barao_de_Ouro_Branco-Ouro_Preto_State_of_Minas_Gerais.html
10082714,Ponte do Rosário ou Caquende - Ouro Preto,"Rua Bernardo Guimaraes, Ouro Preto, Minas Gerais 35400-000 Brasil",Ouro Preto,4.0,3,-20.38372039794922,-43.51123046875,https://www.tripadvisor.com.br/Attraction_Review-g303389-d10082714-Reviews-Ponte_do_Rosario_ou_Caquende-Ouro_Preto_State_of_Minas_Gerais.html
19950864,Mina do Bijoca - Ouro Preto,"R. Padre Messias Passos, 53, Ouro Preto, Minas Gerais 35400-000 Brasil",Ouro Preto,4.5,7,0.0,0.0,https://www.tripadvisor.com.br/Attraction_Review-g303389-d19950864-Reviews-Mina_do_Bijoca-Ouro_Preto_State_of_Minas_Gerais.html
10034431,Chafariz dos Contos - Ouro Preto,"Praca Reinaldo Alves de Brito sn ao lado da Casa dos Contos, Ouro Preto, Minas Gerais 35400-000 Brasil",Ouro Preto,4.0,12,-20.384899139404297,-43.50577163696289,https://www.tripadvisor.com.br/Attraction_Review-g303389-d10034431-Reviews-Chafariz_dos_Contos-Ouro_Preto_State_of_Minas_Gerais.html
10082785,Chafariz da Barra - Ouro Preto,"Praca Prefeito Amadeu Barbosa Barra, Ouro Preto, Minas Gerais 35400-000 Brasil",Ouro Preto,3.5,2,-20.38960075378418,-43.498870849609375,https://www.tripadvisor.com.br/Attraction_Review-g303389-d10082785-Reviews-Chafariz_da_Barra-Ouro_Preto_State_of_Minas_Gerais.html
10088025,Centro Cultural Comunitario Casa do Padre Faria - Ouro Preto,"Rua Padre Faria, 359, Ouro Preto, Minas Gerais 35400-000 Brasil",Ouro Preto,4.0,1,-20.387683868408203,-43.49358367919922,https://www.tripadvisor.com.br/Attraction_Review-g303389-d10088025-Reviews-Centro_Cultural_Comunitario_Casa_do_Padre_Faria-Ouro_Preto_State_of_Minas_Gerais.html
10082973,Passo da Flagelação - Ouro Preto,"Rua Getulio Vargas, Ouro Preto, Minas Gerais 35400-000 Brasil",Ouro Preto,4.5,4,-20.384069442749023,-43.50876998901367,https://www.tripadvisor.com.br/Attraction_Review-g303389-d10082973-Reviews-Passo_da_Flagelacao-Ouro_Preto_State_of_Minas_Gerais.html
10082859,Chafariz da Rua das Cabeças - Ouro Preto,"Rua Alvarenga 119 Cabeças, Ouro Preto, Minas Gerais 35400-000 Brasil",Ouro Preto,4.5,3,-20.383699417114258,-43.51285171508789,https://www.tripadvisor.com.br/Attraction_Review-g303389-d10082859-Reviews-Chafariz_da_Rua_das_Cabecas-Ouro_Preto_State_of_Minas_Gerais.html
10034828,Capela do Nosso Senhor do Bonfim - Ouro Preto,"Rua Antonio de Albuquerque, Ouro Preto, Minas Gerais 35400-000 Brasil",Ouro Preto,5.0,4,-20.386009216308594,-43.50802993774414,https://www.tripadvisor.com.br/Attraction_Review-g303389-d10034828-Reviews-Capela_do_Nosso_Senhor_do_Bonfim-Ouro_Preto_State_of_Minas_Gerais.html
10034848,Chafariz do Alto da Cruz - Ouro Preto,indef,Ouro Preto,5.0,2,-20.387338638305664,-43.494529724121094,https://www.tripadvisor.com.br/Attraction_Review-g303389-d10034848-Reviews-Chafariz_do_Alto_da_Cruz-Ouro_Preto_State_of_Minas_Gerais.html
12873288,Pratique Cicloturismo - Ouro Preto,"Sitio Passa Dez Bairro Passa Dez, Ouro Preto, Minas Gerais 35400-000 Brasil",Ouro Preto,5.0,2,-20.377710342407227,-43.521324157714844,https://www.tripadvisor.com.br/Attraction_Review-g303389-d12873288-Reviews-Pratique_Cicloturismo-Ouro_Preto_State_of_Minas_Gerais.html
19913178,Trilha do Veloso - Ouro Preto,"Estacao de Tratamento de Agua do Jardim Botanico de Ouro Preto, Ouro Preto, Minas Gerais 35400-000 Brasil",Ouro Preto,5.0,1,0.0,0.0,https://www.tripadvisor.com.br/Attraction_Review-g303389-d19913178-Reviews-Trilha_do_Veloso-Ouro_Preto_State_of_Minas_Gerais.html
10034302,Coluna Saldanha Marinho - Ouro Preto,indef,Ouro Preto,4.5,2,-20.388259887695312,-43.506919860839844,https://www.tripadvisor.com.br/Attraction_Review-g303389-d10034302-Reviews-Coluna_Saldanha_Marinho-Ouro_Preto_State_of_Minas_Gerais.html
10060141,Botica de Tiradentes - Ouro Preto,"Rua Alvarenga, 7 Rosario, Ouro Preto, Minas Gerais 35400-000 Brasil",Ouro Preto,4.0,5,-20.382389068603516,-43.51451873779297,https://www.tripadvisor.com.br/Attraction_Review-g303389-d10060141-Reviews-Botica_de_Tiradentes-Ouro_Preto_State_of_Minas_Gerais.html
10085016,Chafariz do Alto das Cabeças - Ouro Preto,"Rua Alvarenga Cabeças, Ouro Preto, Minas Gerais 35400-000 Brasil",Ouro Preto,4.5,3,-20.381790161132812,-43.51554870605469,https://www.tripadvisor.com.br/Attraction_Review-g303389-d10085016-Reviews-Chafariz_do_Alto_das_Cabecas-Ouro_Preto_State_of_Minas_Gerais.html
4410449,Ecomuseu da Serra de Ouro Preto,"Praça Tiradentes, 20 Escola de Minas, sala 27, Ouro Preto, Minas Gerais 35400-000 Brasil",Ouro Preto,4.5,2,-20.386077880859375,-43.50374984741211,https://www.tripadvisor.com.br/Attraction_Review-g303389-d4410449-Reviews-The_Sierra_of_Black_Gold_Ecomuseum-Ouro_Preto_State_of_Minas_Gerais.html
10034451,Passo da Coroação de Espinhos - Ouro Preto,"Rua Sao Jose sn, Ouro Preto, Minas Gerais 35400-000 Brasil",Ouro Preto,4.0,4,-20.384559631347656,-43.5070915222168,https://www.tripadvisor.com.br/Attraction_Review-g303389-d10034451-Reviews-Passo_da_Coroacao_de_Espinhos-Ouro_Preto_State_of_Minas_Gerais.html
10034109,Chafariz do Alto das Cabeças - Ouro Preto,"Rua Alvarenga Capela de Bom Jesus, Ouro Preto, Minas Gerais 35400-000 Brasil",Ouro Preto,4.5,3,-20.381790161132812,-43.515560150146484,https://www.tripadvisor.com.br/Attraction_Review-g303389-d10034109-Reviews-Chafariz_do_Alto_das_Cabecas-Ouro_Preto_State_of_Minas_Gerais.html
10082956,Capela de Bom Jesus da Pedra Fria - Ouro Preto,"Rua Alvarenga Cabeças, Ouro Preto, Minas Gerais 35400-000 Brasil",Ouro Preto,4.0,3,-20.381790161132812,-43.51554870605469,https://www.tripadvisor.com.br/Attraction_Review-g303389-d10082956-Reviews-Capela_de_Bom_Jesus_da_Pedra_Fria-Ouro_Preto_State_of_Minas_Gerais.html
10082966,Chafariz do Rosário - Ouro Preto,"Rua Professora Zizinha Cruz Largo do Rosário, Ouro Preto, Minas Gerais 35400-000 Brasil",Ouro Preto,3.5,3,-20.383319854736328,-43.51042175292969,https://www.tripadvisor.com.br/Attraction_Review-g303389-d10082966-Reviews-Chafariz_do_Rosario-Ouro_Preto_State_of_Minas_Gerais.html
10082952,Passo da Cruz às Costas - Ouro Preto,"Praca Tiradentes esquina Rua Conde de Bobadela, Ouro Preto, Minas Gerais 35400-000 Brasil",Ouro Preto,3.5,3,-20.385000228881836,-43.50352096557617,https://www.tripadvisor.com.br/Attraction_Review-g303389-d10082952-Reviews-Passo_da_Cruz_as_Costas-Ouro_Preto_State_of_Minas_Gerais.html
15200688,Desbrava Minas Turismo Receptivo,indef,Ouro Preto ,5.0,117,-20.404951095581055,-43.49983596801758,https://www.tripadvisor.com.br/Attraction_Review-g303389-d15200688-Reviews-Desbrava_Minas_Turismo_Receptivo-Ouro_Preto_State_of_Minas_Gerais.html
4375730,Herbário Professor José Badini - Ouro Preto,"Rua do Cruzeiro s/n Bauxita, Ouro Preto, Minas Gerais 35400-000 Brasil",Ouro Preto,5.0,1,-20.38896942138672,-43.49515914916992,https://www.tripadvisor.com.br/Attraction_Review-g303389-d4375730-Reviews-Professor_Jose_Badini_Herbarium-Ouro_Preto_State_of_Minas_Gerais.html
11886095,Sueli Guia de Turismo,indef,Ouro Preto ,5.0,73,-20.38624382019043,-43.502960205078125,https://www.tripadvisor.com.br/Attraction_Review-g303389-d11886095-Reviews-Sueli_Guia_de_Turismo-Ouro_Preto_State_of_Minas_Gerais.html
11811524,Vila Rica Turismo - Ouro Preto,"Praca Tiradentes n 114 Sala 1 Centro, Ouro Preto, Minas Gerais 35400-000 Brasil",Ouro Preto,4.5,134,-20.385486602783203,-43.5036735534668,https://www.tripadvisor.com.br/Attraction_Review-g303389-d11811524-Reviews-Vila_Rica_Turismo-Ouro_Preto_State_of_Minas_Gerais.html
7273606,Mina - Ouro Preto,"R. Chicó Rei, s/n Alto da Cruz, Ouro Preto, Minas Gerais 35400-000 Brasil",Ouro Preto,4.0,162,-20.385759353637695,-43.497779846191406,https://www.tripadvisor.com.br/Attraction_Review-g303389-d7273606-Reviews-Mina-Ouro_Preto_State_of_Minas_Gerais.html
8456753,Cachaçaria Milagre de Minas - Ouro Preto,"Praca Tiradentes 130, Ouro Preto, Minas Gerais 35400-000 Brasil",Ouro Preto,4.5,40,-20.385658264160156,-43.503623962402344,https://www.tripadvisor.com.br/Attraction_Review-g303389-d8456753-Reviews-Cachacaria_Milagre_de_Minas-Ouro_Preto_State_of_Minas_Gerais.html
14203628,Descubra Gerais Turismo,indef,Ouro Preto ,4.5,62,-20.386072158813477,-43.5037727355957,https://www.tripadvisor.com.br/Attraction_Review-g303389-d14203628-Reviews-Descubra_Gerais_Turismo-Ouro_Preto_State_of_Minas_Gerais.html
6510193,Rocalha Artesanatos - Ouro Preto,"Rua Cláudio Manoel, 27, Ouro Preto, Minas Gerais 35400-000 Brasil",Ouro Preto,4.0,27,-20.385570526123047,-43.50334930419922,https://www.tripadvisor.com.br/Attraction_Review-g303389-d6510193-Reviews-Rocalha_Artesanatos-Ouro_Preto_State_of_Minas_Gerais.html
4875513,Vale dos Contos - Ouro Preto,indef,Ouro Preto,4.0,40,-20.3216495513916,-43.68429946899414,https://www.tripadvisor.com.br/Attraction_Review-g303389-d4875513-Reviews-Vale_dos_Contos-Ouro_Preto_State_of_Minas_Gerais.html
8649056,Cine Vila Rica - Ouro Preto,"Praca Reinaldo Alves de Brito 47, Ouro Preto, Minas Gerais 35400-000 Brasil",Ouro Preto,4.5,15,-20.384510040283203,-43.505821228027344,https://www.tripadvisor.com.br/Attraction_Review-g303389-d8649056-Reviews-Cine_Vila_Rica-Ouro_Preto_State_of_Minas_Gerais.html
19081559,OP EXPERT - Ouro Preto,"Centro, Ouro Preto, Minas Gerais 35400-000 Brasil",Ouro Preto,4.5,11,-20.39550018310547,-43.51716995239258,https://www.tripadvisor.com.br/Attraction_Review-g303389-d19081559-Reviews-OP_EXPERT-Ouro_Preto_State_of_Minas_Gerais.html
7184786,Ita Gemas - Ouro Preto,"Rua Conde de Bobadela 40 Centro, Ouro Preto, Minas Gerais 35400-000 Brasil",Ouro Preto,4.5,12,-20.38532829284668,-43.5040283203125,https://www.tripadvisor.com.br/Attraction_Review-g303389-d7184786-Reviews-Ita_Gemas-Ouro_Preto_State_of_Minas_Gerais.html
7167431,Cachoeira do Castelinho - Ouro Preto,indef,Ouro Preto,4.0,19,-20.347469329833984,-43.66604995727539,https://www.tripadvisor.com.br/Attraction_Review-g303389-d7167431-Reviews-Cachoeira_do_Castelinho-Ouro_Preto_State_of_Minas_Gerais.html
4875479,Praça da Ponte Seca - Ouro Preto,"Rua Cônego Simões Ponte Seca, Rosário, Ouro Preto, Minas Gerais 35400-000 Brasil",Ouro Preto,4.0,22,-20.38479995727539,-43.502681732177734,https://www.tripadvisor.com.br/Attraction_Review-g303389-d4875479-Reviews-Praca_da_Ponte_Seca-Ouro_Preto_State_of_Minas_Gerais.html
16881157,Matrix Tur,indef,Ouro Preto ,4.0,16,-20.385570526123047,-43.504058837890625,https://www.tripadvisor.com.br/Attraction_Review-g303389-d16881157-Reviews-Matrix_Tur-Ouro_Preto_State_of_Minas_Gerais.html
19886455,Juliana Brandão,indef,Ouro Preto ,5.0,3,0.0,0.0,https://www.tripadvisor.com.br/Attraction_Review-g303389-d19886455-Reviews-Juliana_Brandao-Ouro_Preto_State_of_Minas_Gerais.html
10087998,Teatro de Bonecos - Ouro Preto,"Rua Gabriel Santos, 16 Teatro Navegante - Cia de Marionetes, Ouro Preto, Minas Gerais 35400-000 Brasil",Ouro Preto,4.5,7,-20.382238388061523,-43.50993347167969,https://www.tripadvisor.com.br/Attraction_Review-g303389-d10087998-Reviews-Teatro_de_Bonecos-Ouro_Preto_State_of_Minas_Gerais.html
10737128,Barrocarte Joias - Ouro Preto,"Rua Conde de Bobadella, 12, Ouro Preto, Minas Gerais 35400-000 Brasil",Ouro Preto,5.0,5,-20.38535499572754,-43.5038948059082,https://www.tripadvisor.com.br/Attraction_Review-g303389-d10737128-Reviews-Barrocarte_Joias-Ouro_Preto_State_of_Minas_Gerais.html
6761491,Tomba Turismo,indef,Ouro Preto ,4.0,11,-20.37872314453125,-43.51492691040039,https://www.tripadvisor.com.br/Attraction_Review-g303389-d6761491-Reviews-Tomba_Turismo-Ouro_Preto_State_of_Minas_Gerais.html
13813987,Ouro Preto Travel,indef,Ouro Preto ,5.0,2,0.0,0.0,https://www.tripadvisor.com.br/Attraction_Review-g303389-d13813987-Reviews-Ouro_Preto_Travel-Ouro_Preto_State_of_Minas_Gerais.html
9806614,Gayatri - Ouro Preto,"Rua São Jose, 21 Loja Gayatri - Filial - BR 356 - Cachoeira do Campo, Ouro Preto, Minas Gerais 35400-000 Brasil",Ouro Preto,4.5,2,-20.384538650512695,-43.50631332397461,https://www.tripadvisor.com.br/Attraction_Review-g303389-d9806614-Reviews-Loja_Gayatri-Ouro_Preto_State_of_Minas_Gerais.html
17340441,City's Eyes,indef,Ouro Preto ,4.5,2,-20.387630462646484,-43.50046157836914,https://www.tripadvisor.com.br/Attraction_Review-g303389-d17340441-Reviews-City_s_Eyes-Ouro_Preto_State_of_Minas_Gerais.html
10037850,Casa das Pedras e Joias - Ouro Preto,"Praça Tiradentes, 95, Ouro Preto, Minas Gerais 35400-000 Brasil",Ouro Preto,4.5,2,-20.38556480407715,-43.50366973876953,https://www.tripadvisor.com.br/Attraction_Review-g303389-d10037850-Reviews-Casa_das_Pedras_e_Joias-Ouro_Preto_State_of_Minas_Gerais.html
11774099,TukTour - Ouro Preto,indef,Ouro Preto,indef,1,0.0,0.0,https://www.tripadvisor.com.br/Attraction_Review-g303389-d11774099-Reviews-TukTour-Ouro_Preto_State_of_Minas_Gerais.html
17737941,Mio Passeios Turísticos  em Ouro Preto,indef,Ouro Preto ,5.0,1,-20.38164520263672,-43.52079772949219,https://www.tripadvisor.com.br/Attraction_Review-g303389-d17737941-Reviews-Mio_Passeios_Turisticos_em_Ouro_Preto-Ouro_Preto_State_of_Minas_Gerais.html
12049872,Grandtour Ouro Preto Turismo,"Rua Barão de Camargos, 126 Sala 11, Centro, Ouro Preto, Ouro Preto, Minas Gerais 35400-000 Brasil",Ouro Preto,4.0,4,-20.384620666503906,-43.503135681152344,https://www.tripadvisor.com.br/Attraction_Review-g303389-d12049872-Reviews-Grandtour_Ouro_Preto_Turismo-Ouro_Preto_State_of_Minas_Gerais.html
10786487,Experience 4x4,indef,Ouro Preto ,5.0,1,0.0,0.0,https://www.tripadvisor.com.br/Attraction_Review-g303389-d10786487-Reviews-Experience_4x4-Ouro_Preto_State_of_Minas_Gerais.html
23020757,Casa De Claudio Manuel Da Costa - Ouro Preto,"Rua Carlos Tomás nº: 6 Bairro Antonio Dias, Ouro Preto, Minas Gerais 35400-000 Brasil",Ouro Preto,3.0,1,-20.386493682861328,-43.50180435180664,https://www.tripadvisor.com.br/Attraction_Review-g303389-d23020757-Reviews-Casa_De_Claudio_Manuel_Da_Costa-Ouro_Preto_State_of_Minas_Gerais.html
11895319,Ouro Preto Ecoturismo,indef,Ouro Preto ,4.5,4,-20.38566017150879,-43.503597259521484,https://www.tripadvisor.com.br/Attraction_Review-g303389-d11895319-Reviews-Ouro_Preto_Eco_Turism-Ouro_Preto_State_of_Minas_Gerais.html
11811397,Tuk Tour Ouro Preto,"Rua Doutor Afonso Baeta, Ouro Preto, Minas Gerais 35400-000 Brasil",Ouro Preto,3.0,2,-20.386199951171875,-43.509559631347656,https://www.tripadvisor.com.br/Attraction_Review-g303389-d11811397-Reviews-Tuk_Tour_Ouro_Preto-Ouro_Preto_State_of_Minas_Gerais.html
19127328,Turismo Ouro Preto Receptivo,indef,Ouro Preto ,indef,0,-20.378639221191406,-43.71183776855469,https://www.tripadvisor.com.br/Attraction_Review-g303389-d19127328-Reviews-Turismo_Ouro_Preto_Receptivo-Ouro_Preto_State_of_Minas_Gerais.html
11826546,Tuk Tour - Ouro Preto,indef,Ouro Preto,indef,0,0.0,0.0,https://www.tripadvisor.com.br/Attraction_Review-g303389-d11826546-Reviews-Tuk_Tour-Ouro_Preto_State_of_Minas_Gerais.html
11805478,Tuk Tour Turismo - Ouro Preto,indef,Ouro Preto,indef,0,0.0,0.0,https://www.tripadvisor.com.br/Attraction_Review-g303389-d11805478-Reviews-Tuk_Tour_Turismo-Ouro_Preto_State_of_Minas_Gerais.html
12121693,Biblioteca Pública Municipal - Ouro Preto,indef,Ouro Preto,indef,0,-20.388160705566406,-43.5040397644043,https://www.tripadvisor.com.br/Attraction_Review-g303389-d12121693-Reviews-Biblioteca_Publica_Municipal-Ouro_Preto_State_of_Minas_Gerais.html
15273407,Belitta Acessórios - Ouro Preto,"Rua Conde de Bobadela 159 Centro, Ouro Preto, Minas Gerais 35400-000 Brasil",Ouro Preto,indef,0,-20.38558006286621,-43.503883361816406,https://www.tripadvisor.com.br/Attraction_Review-g303389-d15273407-Reviews-Belitta_Acessorios-Ouro_Preto_State_of_Minas_Gerais.html
16648609,Transcotta - Ouro Preto,indef,Ouro Preto,indef,0,0.0,0.0,https://www.tripadvisor.com.br/Attraction_Review-g303389-d16648609-Reviews-Transcotta-Ouro_Preto_State_of_Minas_Gerais.html
17585518,Marcos Vinicius do Nascimento Neres,indef,Ouro Preto ,indef,0,0.0,0.0,https://www.tripadvisor.com.br/Attraction_Review-g303389-d17585518-Reviews-Marcos_Vinicius_do_Nascimento_Neres-Ouro_Preto_State_of_Minas_Gerais.html
20867388,São José Pedra-Sabão,indef,Ouro Preto ,indef,0,-20.534679412841797,-43.55086135864258,https://www.tripadvisor.com.br/Attraction_Review-g303389-d20867388-Reviews-Sao_Jose_Pedra_Sabao-Ouro_Preto_State_of_Minas_Gerais.html
21250362,Junior Turismo Minas,indef,Ouro Preto ,indef,0,0.0,0.0,https://www.tripadvisor.com.br/Attraction_Review-g303389-d21250362-Reviews-Junior_Turismo_Minas-Ouro_Preto_State_of_Minas_Gerais.html
20323252,Boutique Travel Experts,indef,Ouro Preto ,indef,0,-20.385839462280273,-43.49414825439453,https://www.tripadvisor.com.br/Attraction_Review-g303389-d20323252-Reviews-Boutique_Travel_Experts-Ouro_Preto_State_of_Minas_Gerais.html
9882719,Brasa Canela - Ouro Preto,"Rua Alagoas 80 Antonio Dias, Ouro Preto, Minas Gerais 35400-000 Brasil",Ouro Preto,indef,0,-20.38772964477539,-43.50056076049805,https://www.tripadvisor.com.br/Attraction_Review-g303389-d9882719-Reviews-Brasa_Canela-Ouro_Preto_State_of_Minas_Gerais.html
