hotel_id,nome,endereco,cidade,preco,tipo,qtd_quartos,qtd_avaliacoes,nota,categoria,nota_pedestres,restaurantes_perto,atracoes_perto,latitude,longitude,fonte
12394478,"Le Ville","Trevo Jacuba Acesso a Sao Bartolomeu, Ouro Preto, Minas Gerais 35400-000 Brasil",Ouro Preto ,294,indef,indef,32,4.5,3.0,indef,indef,indef,-20.374042510986328,-43.54186248779297,https://www.tripadvisor.com.br/Hotel_Review-g303389-d12394478-Reviews-Le_Ville-Ouro_Preto_State_of_Minas_Gerais.html
17700835,"Pousada Recanto Da Serra","Rua Manganês 287, Ouro Preto, Minas Gerais 35400-000 Brasil",Ouro Preto ,256,Pousada,indef,72,3.5,indef,69,31,8,-20.376096725463867,-43.5186882019043,https://www.tripadvisor.com.br/Hotel_Review-g303389-d17700835-Reviews-Pousada_Recanto_Da_Serra-Ouro_Preto_State_of_Minas_Gerais.html
455980,"Hotel Luxor Ouro Preto","Rua Dr. Alfredo Baeta 16, Ouro Preto, Minas Gerais 35400-000 Brasil",Ouro Preto ,354,Hotel,indef,242,4.0,3.0,100,83,51,-20.38690757751465,-43.50067138671875,https://www.tripadvisor.com.br/Hotel_Review-g303389-d455980-Reviews-Hotel_Luxor_Ouro_Preto-Ouro_Preto_State_of_Minas_Gerais.html
2274004,"Hotel Pousada Casa Grande","Rua Conselheiro Quintiliano, 96, Ouro Preto, Minas Gerais 35400-000 Brasil",Ouro Preto ,561,Hotel,indef,248,4.0,indef,100,94,48,-20.383081436157227,-43.50244140625,https://www.tripadvisor.com.br/Hotel_Review-g303389-d2274004-Reviews-Hotel_Pousada_Casa_Grande-Ouro_Preto_State_of_Minas_Gerais.html
2304973,"Grande Hotel de Ouro Preto","Rua Sen. Rocha Lagoa, 164 Próximo dos principais monumentos turísticos da cidade., Ouro Preto, Minas Gerais 35400-000 Brasil",Ouro Preto ,219,Hotel,indef,617,4.0,3.0,100,134,63,-20.384384155273438,-43.50545883178711,https://www.tripadvisor.com.br/Hotel_Review-g303389-d2304973-Reviews-Grande_Hotel_de_Ouro_Preto-Ouro_Preto_State_of_Minas_Gerais.html
598402,"Hotel Pousada do Arcanjo","Rua São Miguel Arcanjo, 270 900m da Praça Tiradentes com transfer gratuito, Ouro Preto, Minas Gerais 35400-000 Brasil",Ouro Preto ,417,Hotel,indef,708,4.5,4.0,87,30,14,-20.379911422729492,-43.5115852355957,https://www.tripadvisor.com.br/Hotel_Review-g303389-d598402-Reviews-Hotel_Pousada_do_Arcanjo-Ouro_Preto_State_of_Minas_Gerais.html
2491418,"Pousada Vila Rica","Rua Felipe dos Santos 165, Ouro Preto, Minas Gerais 35400-000 Brasil",Ouro Preto ,indef,Pousada,indef,147,3.5,indef,100,83,52,-20.387828826904297,-43.50126647949219,https://www.tripadvisor.com.br/Hotel_Review-g303389-d2491418-Reviews-Pousada_Vila_Rica-Ouro_Preto_State_of_Minas_Gerais.html
1673113,"Mirante Hotel","Rua Pandiá Calogeras, 377 Barra, Ouro Preto, Minas Gerais 35400-000 Brasil",Ouro Preto ,238,Hotel,indef,479,4.0,3.0,79,72,52,-20.39357566833496,-43.49977493286133,https://www.tripadvisor.com.br/Hotel_Review-g303389-d1673113-Reviews-Mirante_Hotel-Ouro_Preto_State_of_Minas_Gerais.html
2486540,"Hotel Solar de Maria","R Tomé Afonso, 111 - Bairro Agua Limpa Bairro Agua Limpa, Ouro Preto, Minas Gerais 35400-000 Brasil",Ouro Preto ,376,Hotel,indef,250,4.5,3.5,94,58,23,-20.382543563842773,-43.51105880737305,https://www.tripadvisor.com.br/Hotel_Review-g303389-d2486540-Reviews-Hotel_Solar_de_Maria-Ouro_Preto_State_of_Minas_Gerais.html
507009,"Hotel Solar do Rosário","Rua Getúlio Vargas 270 Bairro Rosário, Ouro Preto, Minas Gerais 35400-000 Brasil",Ouro Preto ,547,Hotel,indef,948,4.5,3.5,100,86,28,-20.38372039794922,-43.509437561035156,https://www.tripadvisor.com.br/Hotel_Review-g303389-d507009-Reviews-Hotel_Solar_Do_Rosario-Ouro_Preto_State_of_Minas_Gerais.html
2013844,"Ville Real Hotel","Rua Antonio dos Santos 5 Centro Historico - Santo Antonio do Leite, Ouro Preto, Minas Gerais 35400-000 Brasil",Ouro Preto ,616,Hotel,indef,192,4.0,3.5,indef,indef,indef,-20.356483459472656,-43.72066879272461,https://www.tripadvisor.com.br/Hotel_Review-g303389-d2013844-Reviews-Ville_Real_Hotel-Ouro_Preto_State_of_Minas_Gerais.html
2510559,"Pousada São Francisco de Paula","Rua Padre Jose Marcos Pena 201, Ouro Preto, Minas Gerais 35400-000 Brasil",Ouro Preto ,114,Pousada,indef,102,4.0,indef,100,121,57,-20.382823944091797,-43.50667953491211,https://www.tripadvisor.com.br/Hotel_Review-g303389-d2510559-Reviews-Pousada_Sao_Francisco_de_Paula-Ouro_Preto_State_of_Minas_Gerais.html
5005008,"Pousada Chico Anjo","Passa Rua Dez S / N, Ouro Preto, Minas Gerais Brasil",Ouro Preto ,285,Pousada,indef,133,4.5,indef,62,27,7,-20.377716064453125,-43.52146911621094,https://www.tripadvisor.com.br/Hotel_Review-g303389-d5005008-Reviews-Pousada_Chico_Anjo-Ouro_Preto_State_of_Minas_Gerais.html
2624389,"Pousada Inconfidência Mineira","Rua Manganes 329, Ouro Preto, Minas Gerais 35400-000 Brasil",Ouro Preto ,238,Pousada,indef,118,4.0,3.0,73,35,9,-20.3763484954834,-43.51765441894531,https://www.tripadvisor.com.br/Hotel_Review-g303389-d2624389-Reviews-Pousada_Inconfidencia_Mineira-Ouro_Preto_State_of_Minas_Gerais.html
2423620,"Pousada do Douro","Rua Amalia Bernhaus 42, Ouro Preto, Minas Gerais 35400-000 Brasil",Ouro Preto ,670,Pousada,indef,71,4.0,indef,100,127,60,-20.386110305786133,-43.503055572509766,https://www.tripadvisor.com.br/Hotel_Review-g303389-d2423620-Reviews-Pousada_do_Douro-Ouro_Preto_State_of_Minas_Gerais.html
3445886,"Hotel Colonial","Travessa Conego Camilo Veloso 26, Ouro Preto, Minas Gerais 35400-000 Brasil",Ouro Preto ,257,Hotel,indef,247,4.0,indef,100,129,65,-20.38494300842285,-43.50424575805664,https://www.tripadvisor.com.br/Hotel_Review-g303389-d3445886-Reviews-Hotel_Colonial-Ouro_Preto_State_of_Minas_Gerais.html
2644365,"Pousada Arcádia Mineira","Rua Xavier Da Veiga 125 Centro, Ouro Preto, Minas Gerais 35400-000 Brasil",Ouro Preto ,267,Pousada,indef,287,4.0,indef,100,104,56,-20.388578414916992,-43.50312042236328,https://www.tripadvisor.com.br/Hotel_Review-g303389-d2644365-Reviews-Pousada_Arcadia_Mineira-Ouro_Preto_State_of_Minas_Gerais.html
1632060,"Pousada dos Ofícios","Rua Padre Rolim 765, Ouro Preto, Minas Gerais 35400-000 Brasil",Ouro Preto ,238,Pousada,indef,368,4.5,indef,86,14,8,-20.37977409362793,-43.508888244628906,https://www.tripadvisor.com.br/Hotel_Review-g303389-d1632060-Reviews-Pousada_Dos_Oficios-Ouro_Preto_State_of_Minas_Gerais.html
4223455,"Casa dos Meninos Cama & Café","Rua do Aleijadinho 89 Antonio Dias, Ouro Preto, Minas Gerais 35400-000 Brasil",Ouro Preto ,381,indef,indef,462,5.0,indef,100,103,54,-20.386199951171875,-43.50138854980469,https://www.tripadvisor.com.br/Hotel_Review-g303389-d4223455-Reviews-Casa_dos_Meninos_Cama_Cafe-Ouro_Preto_State_of_Minas_Gerais.html
13434688,"Pousada Imperial Cidade","Rua Padre Rolim 800, Ouro Preto, Minas Gerais 35400-000 Brasil",Ouro Preto ,197,Pousada,indef,35,4.0,indef,100,110,54,-20.382749557495117,-43.504539489746094,https://www.tripadvisor.com.br/Hotel_Review-g303389-d13434688-Reviews-Pousada_Imperial_Cidade-Ouro_Preto_State_of_Minas_Gerais.html
2268143,"Hotel Solar das Lajes","Rua Conselheiro Quintiliano Ramos, 604, Ouro Preto, Minas Gerais 35400-000 Brasil",Ouro Preto ,195,Hotel,indef,174,3.5,3.5,88,23,15,-20.384525299072266,-43.49799346923828,https://www.tripadvisor.com.br/Hotel_Review-g303389-d2268143-Reviews-Hotel_Solar_Das_Lajes-Ouro_Preto_State_of_Minas_Gerais.html
13072341,"OYO 271 Pousada Marotta","R Conselheiro Quintiliano Maciel, 415, Ouro Preto, Minas Gerais 35400-000 Brasil",Ouro Preto ,333,Pousada,indef,24,4.5,indef,91,47,32,-20.38361167907715,-43.49958038330078,https://www.tripadvisor.com.br/Hotel_Review-g303389-d13072341-Reviews-OYO_271_Pousada_Marotta-Ouro_Preto_State_of_Minas_Gerais.html
12084155,"Pousada Vila Real Flats","Vitorio Zanetti 350/105, Ouro Preto, Minas Gerais 35400-000 Brasil",Ouro Preto ,238,Pousada,indef,10,3.5,indef,73,50,3,-20.401350021362305,-43.50386047363281,https://www.tripadvisor.com.br/Hotel_Review-g303389-d12084155-Reviews-Pousada_Vila_Real_Flats-Ouro_Preto_State_of_Minas_Gerais.html
12432373,"É Hostel","Rua Camilo de Brito 50, Ouro Preto, Minas Gerais 35400-000 Brasil",Ouro Preto ,142,Hostel,indef,59,5.0,indef,100,115,56,-20.383731842041016,-43.50297927856445,https://www.tripadvisor.com.br/Hotel_Review-g303389-d12432373-Reviews-E_Hostel-Ouro_Preto_State_of_Minas_Gerais.html
2510559,"Pousada São Francisco de Paula","Rua Padre Jose Marcos Pena 201, Ouro Preto, Minas Gerais 35400-000 Brasil",Ouro Preto ,114,Pousada,indef,102,4.0,indef,100,121,57,-20.382823944091797,-43.50667953491211,https://www.tripadvisor.com.br/Hotel_Review-g303389-d2510559-Reviews-Pousada_Sao_Francisco_de_Paula-Ouro_Preto_State_of_Minas_Gerais.html
455980,"Hotel Luxor Ouro Preto","Rua Dr. Alfredo Baeta 16, Ouro Preto, Minas Gerais 35400-000 Brasil",Ouro Preto ,354,Hotel,indef,242,4.0,3.0,100,83,51,-20.38690757751465,-43.50067138671875,https://www.tripadvisor.com.br/Hotel_Review-g303389-d455980-Reviews-Hotel_Luxor_Ouro_Preto-Ouro_Preto_State_of_Minas_Gerais.html
3405850,"Pousada Geraes","Rua Professor Salatiel Torres No 45 Bairro - Cabeças, Ouro Preto, Minas Gerais 35400-000 Brasil",Ouro Preto ,171,Pousada,indef,70,4.5,2.0,77,20,5,-20.381473541259766,-43.518287658691406,https://www.tripadvisor.com.br/Hotel_Review-g303389-d3405850-Reviews-Pousada_Geraes-Ouro_Preto_State_of_Minas_Gerais.html
2624389,"Pousada Inconfidência Mineira","Rua Manganes 329, Ouro Preto, Minas Gerais 35400-000 Brasil",Ouro Preto ,238,Pousada,indef,118,4.0,3.0,73,35,9,-20.3763484954834,-43.51765441894531,https://www.tripadvisor.com.br/Hotel_Review-g303389-d2624389-Reviews-Pousada_Inconfidencia_Mineira-Ouro_Preto_State_of_Minas_Gerais.html
539356,"Pousada Clássica","Rua Conde de Bobadela, 96 Centro, Ouro Preto, Minas Gerais 35400-000 Brasil",Ouro Preto ,314,Pousada,indef,822,4.5,4.0,100,132,64,-20.385196685791016,-43.50470733642578,https://www.tripadvisor.com.br/Hotel_Review-g303389-d539356-Reviews-Pousada_Classica-Ouro_Preto_State_of_Minas_Gerais.html
2266368,"Hospedaria Antiga","R. Xavier da Veiga, 01 Centro, Ouro Preto, Minas Gerais 35400-000 Brasil",Ouro Preto ,143,indef,indef,167,4.0,2.5,100,139,64,-20.386266708374023,-43.50617218017578,https://www.tripadvisor.com.br/Hotel_Review-g303389-d2266368-Reviews-Pousada_Hospedaria_Antiga-Ouro_Preto_State_of_Minas_Gerais.html
2644365,"Pousada Arcádia Mineira","Rua Xavier Da Veiga 125 Centro, Ouro Preto, Minas Gerais 35400-000 Brasil",Ouro Preto ,267,Pousada,indef,287,4.0,indef,100,104,56,-20.388578414916992,-43.50312042236328,https://www.tripadvisor.com.br/Hotel_Review-g303389-d2644365-Reviews-Pousada_Arcadia_Mineira-Ouro_Preto_State_of_Minas_Gerais.html
8652021,"Brumas Hostel","Rua Padre Rolim, 167 Anexo á Igreja de Nossa Senhora das Mercês e Misericórdia, Ouro Preto, Minas Gerais 35400-000 Brasil",Ouro Preto ,200,Hostel,indef,184,3.5,indef,100,132,65,-20.386463165283203,-43.503562927246094,https://www.tripadvisor.com.br/Hotel_Review-g303389-d8652021-Reviews-Brumas_Hostel-Ouro_Preto_State_of_Minas_Gerais.html
2268143,"Hotel Solar das Lajes","Rua Conselheiro Quintiliano Ramos, 604, Ouro Preto, Minas Gerais 35400-000 Brasil",Ouro Preto ,195,Hotel,indef,174,3.5,3.5,88,23,15,-20.384525299072266,-43.49799346923828,https://www.tripadvisor.com.br/Hotel_Review-g303389-d2268143-Reviews-Hotel_Solar_Das_Lajes-Ouro_Preto_State_of_Minas_Gerais.html
5503632,"Pouso Sinos de São Francisco de Assis","Rua Costa Sena 30 Ao lado da Igreja de São Francisco de Assis, Ouro Preto, Minas Gerais 35400-000 Brasil",Ouro Preto ,343,indef,indef,33,4.0,indef,100,126,58,-20.38616180419922,-43.502864837646484,https://www.tripadvisor.com.br/Hotel_Review-g303389-d5503632-Reviews-Pouso_Sinos_de_Sao_Francisco-Ouro_Preto_State_of_Minas_Gerais.html
6960461,"Uai Hostel","Rua Bernado Vasconcellos, 133 Bairro Antonio Dias, Ouro Preto, Minas Gerais 35400-000 Brasil",Ouro Preto ,95,Hostel,indef,117,4.5,indef,100,134,62,-20.384349822998047,-43.507022857666016,https://www.tripadvisor.com.br/Hotel_Review-g303389-d6960461-Reviews-Uai_Hostel-Ouro_Preto_State_of_Minas_Gerais.html
2268102,"Pousada Casa Dos Contos","Rua Camilo De Brito, 31 - Centro, Ouro Preto, Minas Gerais 35400-000 Brasil",Ouro Preto ,227,Pousada,indef,274,4.0,2.0,100,105,53,-20.383333206176758,-43.502777099609375,https://www.tripadvisor.com.br/Hotel_Review-g303389-d2268102-Reviews-Pousada_Casa_Dos_Contos-Ouro_Preto_State_of_Minas_Gerais.html
4598185,"Pousada dos Bandeirantes","Rua das Merces, 167, Antônio Pereira, Ouro Preto, Minas Gerais 35400-000 Brasil",Ouro Preto ,238,Pousada,indef,83,3.5,2.5,100,101,56,-20.388065338134766,-43.50232696533203,https://www.tripadvisor.com.br/Hotel_Review-g303389-d4598185-Reviews-Pousada_dos_Bandeirantes-Ouro_Preto_State_of_Minas_Gerais.html
4700091,"Buena Vista Hostel","Rua Conselheiro Quintiliano, 903, Ouro Preto, Minas Gerais 35400-000 Brasil",Ouro Preto ,129,Hostel,indef,96,4.0,indef,82,14,12,-20.385662078857422,-43.495521545410156,https://www.tripadvisor.com.br/Hotel_Review-g303389-d4700091-Reviews-Buena_Vista_Hostel-Ouro_Preto_State_of_Minas_Gerais.html
12432373,"É Hostel","Rua Camilo de Brito 50, Ouro Preto, Minas Gerais 35400-000 Brasil",Ouro Preto ,142,Hostel,indef,59,5.0,indef,100,115,56,-20.383731842041016,-43.50297927856445,https://www.tripadvisor.com.br/Hotel_Review-g303389-d12432373-Reviews-E_Hostel-Ouro_Preto_State_of_Minas_Gerais.html
17588672,"Pouso Jardim de Assis","Rua Sas Mercês, 88, Ouro Preto, Minas Gerais 35400-000 Brasil",Ouro Preto ,286,indef,indef,15,5.0,indef,100,109,59,-20.387357711791992,-43.502567291259766,https://www.tripadvisor.com.br/Hotel_Review-g303389-d17588672-Reviews-Pouso_Jardim_de_Assis-Ouro_Preto_State_of_Minas_Gerais.html
10150648,"Pousada Guignard","Rua Conde de Bobadela 122, Ouro Preto, Minas Gerais 35400-000 Brasil",Ouro Preto ,648,Pousada,indef,18,4.5,indef,100,132,63,-20.385181427001953,-43.50486373901367,https://www.tripadvisor.com.br/Hotel_Review-g303389-d10150648-Reviews-Pousada_Guignard-Ouro_Preto_State_of_Minas_Gerais.html
17637572,"Caminhos De Ouro Preto","Praca Tiradentes 136, Ouro Preto, Minas Gerais 35400-000 Brasil",Ouro Preto ,533,indef,indef,2,5.0,4.0,100,133,62,-20.385799407958984,-43.50386047363281,https://www.tripadvisor.com.br/Hotel_Review-g303389-d17637572-Reviews-Caminhos_De_Ouro_Preto-Ouro_Preto_State_of_Minas_Gerais.html
3628350,"Pousada Solar Senhoras das Mercês","Rua Felipe dos Santos, 134 Centro, Ouro Preto, Minas Gerais 35400-000 Brasil",Ouro Preto ,219,Pousada,indef,58,4.0,indef,100,84,51,-20.38726043701172,-43.500999450683594,https://www.tripadvisor.com.br/Hotel_Review-g303389-d3628350-Reviews-Pousada_Solar_Senhoras_das_Merces-Ouro_Preto_State_of_Minas_Gerais.html
4235815,"Pousada La Aldea Zen","Rua Ipiranga 234 Morro São Sebastião, Ouro Preto, Minas Gerais 35400-000 Brasil",Ouro Preto ,285,Pousada,indef,25,4.0,indef,49,443,150,-20.372995376586914,-43.50202178955078,https://www.tripadvisor.com.br/Hotel_Review-g303389-d4235815-Reviews-Pousada_La_Aldea_Zen-Ouro_Preto_State_of_Minas_Gerais.html
19266843,"Solar da Inconfidência","Rua Conselheiro Quintiliano, 395, Ouro Preto, Minas Gerais 35400-000 Brasil",Ouro Preto ,200,indef,indef,7,4.5,indef,92,58,37,-20.38358497619629,-43.49992752075195,https://www.tripadvisor.com.br/Hotel_Review-g303389-d19266843-Reviews-Solar_da_Inconfidencia-Ouro_Preto_State_of_Minas_Gerais.html
5503640,"Solar das Glicinias","Rua Costa Senna 151 Centro, Ouro Preto, Minas Gerais 35400-000 Brasil",Ouro Preto ,171,indef,indef,14,3.5,indef,indef,indef,indef,-20.349702835083008,-43.662139892578125,https://www.tripadvisor.com.br/Hotel_Review-g303389-d5503640-Reviews-Solar_das_Glicinias-Ouro_Preto_State_of_Minas_Gerais.html
17456140,"OuroPreto Hostel","Rua Bernardo Vasconcellos 117 Antonio Dias, Ouro Preto, Minas Gerais 35400-000 Brasil",Ouro Preto ,186,Hostel,indef,7,5.0,indef,100,101,54,-20.38584327697754,-43.501285552978516,https://www.tripadvisor.com.br/Hotel_Review-g303389-d17456140-Reviews-OuroPreto_Hostel-Ouro_Preto_State_of_Minas_Gerais.html
2070832,"Hotel Barroco","Rua Claudio Manoel 23 Centro, Ouro Preto, Minas Gerais 35400-000 Brasil",Ouro Preto ,217,Hotel,indef,76,3.5,indef,100,129,64,-20.38555145263672,-43.503334045410156,https://www.tripadvisor.com.br/Hotel_Review-g303389-d2070832-Reviews-Hotel_Barroco-Ouro_Preto_State_of_Minas_Gerais.html
2703222,"Pousada Abigail Conde","Rua Alferes J Periquito 72 Alto das Dores, Ouro Preto, Minas Gerais 35400-000 Brasil",Ouro Preto ,286,Pousada,indef,157,4.0,indef,87,11,13,-20.390975952148438,-43.498695373535156,https://www.tripadvisor.com.br/Hotel_Review-g303389-d2703222-Reviews-Pousada_Abigail_Conde-Ouro_Preto_State_of_Minas_Gerais.html
2626344,"Pousada Horto dos Contos","Rua Padre Rolim 244, Ouro Preto, Minas Gerais 35400-000 Brasil",Ouro Preto ,141,Pousada,indef,76,3.0,indef,71,33,9,-20.379547119140625,-43.52028274536133,https://www.tripadvisor.com.br/Hotel_Review-g303389-d2626344-Reviews-Pousada_Horto_dos_Contos-Ouro_Preto_State_of_Minas_Gerais.html
3595842,"Pousada Tiradentes","Praca Tiradentes 70, Ouro Preto, Minas Gerais 35400-000 Brasil",Ouro Preto ,159,Pousada,indef,54,2.5,indef,100,129,63,-20.385295867919922,-43.50371551513672,https://www.tripadvisor.com.br/Hotel_Review-g303389-d3595842-Reviews-Pousada_Tiradentes-Ouro_Preto_State_of_Minas_Gerais.html
2013907,"Pousada Minas Gerais","Rua Xavier Da Veiga, 303 Centro Histórico, Ouro Preto, Minas Gerais 35400-000 Brasil",Ouro Preto ,354,Pousada,indef,264,4.0,3.0,100,116,62,-20.388158798217773,-43.503780364990234,https://www.tripadvisor.com.br/Hotel_Review-g303389-d2013907-Reviews-Pousada_Minas_Gerais-Ouro_Preto_State_of_Minas_Gerais.html
455706,"Pousada Do Mondego","Largo Do Coimbra, 38 Centro Histórico, Ouro Preto, Minas Gerais 35400-000 Brasil",Ouro Preto ,1290,Pousada,indef,277,4.0,4.0,100,127,58,-20.38591766357422,-43.50293731689453,https://www.tripadvisor.com.br/Hotel_Review-g303389-d455706-Reviews-Pousada_Do_Mondego-Ouro_Preto_State_of_Minas_Gerais.html
3405850,"Pousada Geraes","Rua Professor Salatiel Torres No 45 Bairro - Cabeças, Ouro Preto, Minas Gerais 35400-000 Brasil",Ouro Preto ,171,Pousada,indef,70,4.5,2.0,77,20,5,-20.381473541259766,-43.518287658691406,https://www.tripadvisor.com.br/Hotel_Review-g303389-d3405850-Reviews-Pousada_Geraes-Ouro_Preto_State_of_Minas_Gerais.html
3555865,"Hotel Fazenda Retiro Das Rosas","Rod. Dos Inconfidentes, Km 75 Cachoeira Do Campo, Ouro Preto, Minas Gerais 35410-000 Brasil",Ouro Preto ,indef,Hotel,indef,74,4.5,indef,76,52,2,-20.40254020690918,-43.504920959472656,https://www.tripadvisor.com.br/Hotel_Review-g303389-d3555865-Reviews-Hotel_Fazenda_Retiro_Das_Rosas-Ouro_Preto_State_of_Minas_Gerais.html
2703222,"Pousada Abigail Conde","Rua Alferes J Periquito 72 Alto das Dores, Ouro Preto, Minas Gerais 35400-000 Brasil",Ouro Preto ,286,Pousada,indef,157,4.0,indef,87,11,13,-20.390975952148438,-43.498695373535156,https://www.tripadvisor.com.br/Hotel_Review-g303389-d2703222-Reviews-Pousada_Abigail_Conde-Ouro_Preto_State_of_Minas_Gerais.html
7313927,"Hotel Vila Relicário","Rua Rio Piracicaba, Ouro Preto, Minas Gerais 35400-000 Brasil",Ouro Preto ,474,Hotel,indef,89,4.0,indef,indef,indef,indef,-20.364334106445312,-43.47990036010742,https://www.tripadvisor.com.br/Hotel_Review-g303389-d7313927-Reviews-Hotel_Vila_Relicario-Ouro_Preto_State_of_Minas_Gerais.html
2642999,"Pousada Encantos de Glaura","Rua Ana de Sa 305 Soares - Distrito de Glaura, Ouro Preto, Minas Gerais 35408-000 Brasil",Ouro Preto ,indef,Pousada,indef,111,4.5,indef,indef,indef,indef,-20.257221221923828,-43.66328811645508,https://www.tripadvisor.com.br/Hotel_Review-g303389-d2642999-Reviews-Pousada_Encantos_de_Glaura-Ouro_Preto_State_of_Minas_Gerais.html
2423555,"Estalagem das Minas Gerais","Rod. Dos Inconfidentes, Km 88, S/N - Centro, Ouro Preto, Minas Gerais Brasil",Ouro Preto ,indef,indef,indef,111,4.0,indef,76,52,2,-20.40254020690918,-43.504920959472656,https://www.tripadvisor.com.br/Hotel_Review-g303389-d2423555-Reviews-Estalagem_das_Minas_Gerais-Ouro_Preto_State_of_Minas_Gerais.html
6575662,"Pousada do Largo","Rua Gabriel dos Santos 32, Ouro Preto, Minas Gerais 35400-000 Brasil",Ouro Preto ,indef,Pousada,indef,32,4.0,indef,100,77,28,-20.38361167907715,-43.5097770690918,https://www.tripadvisor.com.br/Hotel_Review-g303389-d6575662-Reviews-Pousada_do_Largo-Ouro_Preto_State_of_Minas_Gerais.html
12427575,"OYO Hospedaria Mineira","4, R das Lajes, 32, Ouro Preto, Minas Gerais 35400-000 Brasil",Ouro Preto ,123,indef,indef,22,4.0,indef,36,17,3,-20.345125198364258,-43.67575454711914,https://www.tripadvisor.com.br/Hotel_Review-g303389-d12427575-Reviews-OYO_Hospedaria_Mineira-Ouro_Preto_State_of_Minas_Gerais.html
1549628,"Pousada Capricho Asturiano","Rua D Ou Violeta 79, Ouro Preto, Minas Gerais 35400-000 Brasil",Ouro Preto ,643,Pousada,indef,123,3.5,indef,indef,indef,indef,-20.362834930419922,-43.713096618652344,https://www.tripadvisor.com.br/Hotel_Review-g303389-d1549628-Reviews-Pousada_Capricho_Asturiano-Ouro_Preto_State_of_Minas_Gerais.html
19750341,"Acapela Pousada","Rua Alvarenga 460, Ouro Preto, Minas Gerais 35400-000 Brasil",Ouro Preto ,250,Pousada,indef,5,5.0,4.0,87,31,8,-20.381820678710938,-43.51538848876953,https://www.tripadvisor.com.br/Hotel_Review-g303389-d19750341-Reviews-Acapela_Pousada-Ouro_Preto_State_of_Minas_Gerais.html
4235815,"Pousada La Aldea Zen","Rua Ipiranga 234 Morro São Sebastião, Ouro Preto, Minas Gerais 35400-000 Brasil",Ouro Preto ,285,Pousada,indef,25,4.0,indef,49,443,150,-20.372995376586914,-43.50202178955078,https://www.tripadvisor.com.br/Hotel_Review-g303389-d4235815-Reviews-Pousada_La_Aldea_Zen-Ouro_Preto_State_of_Minas_Gerais.html
2626426,"Pousada Dona Denis","Rua Sao Miguel Arcanjo, 175, Ouro Preto, Minas Gerais Brasil",Ouro Preto ,210,Pousada,indef,30,4.0,indef,91,33,16,-20.380699157714844,-43.51156997680664,https://www.tripadvisor.com.br/Hotel_Review-g303389-d2626426-Reviews-Pousada_Dona_Denis-Ouro_Preto_State_of_Minas_Gerais.html
11779381,"Dikasa Hostel","Rua Sao Miguel Arcanjo, 99, Ouro Preto, Minas Gerais 35400-000 Brasil",Ouro Preto ,indef,Hostel,indef,6,4.5,indef,92,35,16,-20.381179809570312,-43.51176452636719,https://www.tripadvisor.com.br/Hotel_Review-g303389-d11779381-Reviews-Dikasa_Hostel-Ouro_Preto_State_of_Minas_Gerais.html
5503662,"Pousada da Simone","Rua Padre Rolim, 1273, Ouro Preto, Minas Gerais 35400-000 Brasil",Ouro Preto ,171,Pousada,indef,12,4.0,indef,85,21,6,-20.378089904785156,-43.513301849365234,https://www.tripadvisor.com.br/Hotel_Review-g303389-d5503662-Reviews-Pousada_da_Simone-Ouro_Preto_State_of_Minas_Gerais.html
5503640,"Solar das Glicinias","Rua Costa Senna 151 Centro, Ouro Preto, Minas Gerais 35400-000 Brasil",Ouro Preto ,171,indef,indef,14,3.5,indef,indef,indef,indef,-20.349702835083008,-43.662139892578125,https://www.tripadvisor.com.br/Hotel_Review-g303389-d5503640-Reviews-Solar_das_Glicinias-Ouro_Preto_State_of_Minas_Gerais.html
4510240,"Pousada Turismo","Rua João Pedro Da Silva, 111 Bauxita, Ouro Preto, Minas Gerais 35400-000 Brasil",Ouro Preto ,229,Pousada,indef,17,3.5,indef,80,52,1,-20.4018497467041,-43.51081085205078,https://www.tripadvisor.com.br/Hotel_Review-g303389-d4510240-Reviews-Pousada_Turismo-Ouro_Preto_State_of_Minas_Gerais.html
5567263,"Pousada Casa Figueira Da Foz","R. Bernardo Vasconcellos, 46 Localizado no Bairro de Antonio Dias, Ouro Preto, Minas Gerais 35400-000 Brasil",Ouro Preto ,300,Pousada,indef,10,4.0,indef,indef,indef,indef,-20.530113220214844,-43.55224609375,https://www.tripadvisor.com.br/Hotel_Review-g303389-d5567263-Reviews-Casa_Figueira_Da_Foz-Ouro_Preto_State_of_Minas_Gerais.html
12084155,"Pousada Vila Real Flats","Vitorio Zanetti 350/105, Ouro Preto, Minas Gerais 35400-000 Brasil",Ouro Preto ,238,Pousada,indef,10,3.5,indef,73,50,3,-20.401350021362305,-43.50386047363281,https://www.tripadvisor.com.br/Hotel_Review-g303389-d12084155-Reviews-Pousada_Vila_Real_Flats-Ouro_Preto_State_of_Minas_Gerais.html
16665239,"Casa Raiz Ouro Preto","Rua Conselheiro Santana, 111, Bairro Pilar Casa, Ouro Preto, Minas Gerais 35400-000 Brasil",Ouro Preto ,indef,indef,indef,2,5.0,4.0,100,109,39,-20.385251998901367,-43.50864791870117,https://www.tripadvisor.com.br/Hotel_Review-g303389-d16665239-Reviews-Casa_Raiz_Ouro_Preto-Ouro_Preto_State_of_Minas_Gerais.html
10154183,"Pousada Sossego","Rua Nossa Senhora Dos Prazeres, 1330, Ouro Preto, Minas Gerais 35400-000 Brasil",Ouro Preto ,indef,Pousada,indef,3,3.5,3.0,41,11,1,-20.406959533691406,-43.49382400512695,https://www.tripadvisor.com.br/Hotel_Review-g303389-d10154183-Reviews-Pousada_Sossego-Ouro_Preto_State_of_Minas_Gerais.html
12164440,"Flat Ouro Preto","Rua Simao Lacerda 730, Ouro Preto, Minas Gerais 35400-000 Brasil",Ouro Preto ,indef,indef,indef,2,4.0,2.0,65,49,0,-20.403230667114258,-43.51314163208008,https://www.tripadvisor.com.br/Hotel_Review-g303389-d12164440-Reviews-Flat_Ouro_Preto-Ouro_Preto_State_of_Minas_Gerais.html
3536438,"Residencial Pouso Dos Viajantes","Rua Diamante, 05 Antônio Pereira, Ouro Preto, Minas Gerais 35400 Brasil",Ouro Preto ,indef,indef,indef,7,3.5,indef,indef,indef,indef,-20.293140411376953,-43.47243118286133,https://www.tripadvisor.com.br/Hotel_Review-g303389-d3536438-Reviews-Residencial_Pouso_Dos_Viajantes-Ouro_Preto_State_of_Minas_Gerais.html
12549490,"Hostel Central","Rua Camilo de Brito 11, Ouro Preto, Minas Gerais 35400-000 Brasil",Ouro Preto ,indef,Hostel,indef,2,3.5,4.0,100,115,54,-20.383480072021484,-43.50313949584961,https://www.tripadvisor.com.br/Hotel_Review-g303389-d12549490-Reviews-Hostel_Central-Ouro_Preto_State_of_Minas_Gerais.html
5567085,"Pousada Itacolomi Ii","Avenida Juscelino Kubitschek, 800 Bauxita, Ouro Preto, Minas Gerais 35400-000 Brasil",Ouro Preto ,indef,Pousada,indef,17,3.0,indef,78,52,3,-20.401025772094727,-43.506431579589844,https://www.tripadvisor.com.br/Hotel_Review-g303389-d5567085-Reviews-Pousada_Itacolomi_Ii-Ouro_Preto_State_of_Minas_Gerais.html
5567356,"Hotel Nossa Senhora Aparecida","Praça Cesário Alvim, 21, Ouro Preto, Minas Gerais 35400-000 Brasil",Ouro Preto ,indef,Hotel,indef,6,2.5,indef,88,23,12,-20.39065933227539,-43.506439208984375,https://www.tripadvisor.com.br/Hotel_Review-g303389-d5567356-Reviews-Hotel_Nossa_Senhora_Aparecida-Ouro_Preto_State_of_Minas_Gerais.html
19478769,"Hospedaria Vila Rica","227 Rua São Miguel Arcânjo Água Limpa / São Cristóvão, Ouro Preto, Minas Gerais 35400-000 Brasil",Ouro Preto ,157,indef,indef,1,1.0,4.0,90,36,15,-20.3806209564209,-43.51181411743164,https://www.tripadvisor.com.br/Hotel_Review-g303389-d19478769-Reviews-Hospedaria_Vila_Rica-Ouro_Preto_State_of_Minas_Gerais.html
2626344,"Pousada Horto dos Contos","Rua Padre Rolim 244, Ouro Preto, Minas Gerais 35400-000 Brasil",Ouro Preto ,141,Pousada,indef,76,3.0,indef,71,33,9,-20.379547119140625,-43.52028274536133,https://www.tripadvisor.com.br/Hotel_Review-g303389-d2626344-Reviews-Pousada_Horto_dos_Contos-Ouro_Preto_State_of_Minas_Gerais.html
7680796,"Pousada da Lavra","Rua Fazenda Santa Rita de Cassia Engenheiro Correia, Ouro Preto, Minas Gerais 35400-000 Brasil",Ouro Preto ,indef,Pousada,indef,15,2.0,indef,66,24,16,-20.38780975341797,-43.49045944213867,https://www.tripadvisor.com.br/Hotel_Review-g303389-d7680796-Reviews-Pousada_da_Lavra-Ouro_Preto_State_of_Minas_Gerais.html
15074212,"Eco Ouro Hostel","Rua Barbara Heliodora Numero 72 Antonio Dias, Ouro Preto, Minas Gerais 35400-000 Brasil",Ouro Preto ,110,Hostel,indef,0,indef,3.0,94,53,43,-20.387765884399414,-43.4998779296875,https://www.tripadvisor.com.br/Hotel_Review-g303389-d15074212-Reviews-Eco_Ouro_Hostel-Ouro_Preto_State_of_Minas_Gerais.html
2491522,"Pousada Pouso Dos Viajantes","Praca Prefeito Amadeu Barbosa 83, Ouro Preto, Minas Gerais 35400-000 Brasil",Ouro Preto ,indef,Pousada,indef,43,2.5,indef,73,39,13,-20.37579917907715,-43.51557922363281,https://www.tripadvisor.com.br/Hotel_Review-g303389-d2491522-Reviews-Pousada_Pouso_Dos_Viajantes-Ouro_Preto_State_of_Minas_Gerais.html
1066415,"Pousada Brasil","Rua Conselheiro Quintiliano 271 Centro, Ouro Preto, Minas Gerais 35400-000 Brasil",Ouro Preto ,indef,Pousada,indef,67,2.0,indef,98,76,40,-20.38315773010254,-43.5009765625,https://www.tripadvisor.com.br/Hotel_Review-g303389-d1066415-Reviews-Pousada_Brasil-Ouro_Preto_State_of_Minas_Gerais.html
23322391,"Pousada Vila Real - Pilar","Rua Benedito Valadares 221, Ouro Preto, Minas Gerais 35400-000 Brasil",Ouro Preto ,170,Pousada,indef,0,indef,4.0,100,72,29,-20.385194778442383,-43.510292053222656,https://www.tripadvisor.com.br/Hotel_Review-g303389-d23322391-Reviews-Pousada_Vila_Real_Pilar-Ouro_Preto_State_of_Minas_Gerais.html
6747153,"Pousada Caminho Das Lavras","Acesso a Fazenda SN Venda Do Campo, Ouro Preto, Minas Gerais 35400-000 Brasil",Ouro Preto ,362,Pousada,indef,0,indef,3.0,indef,indef,indef,-20.37150001525879,-43.47074890136719,https://www.tripadvisor.com.br/Hotel_Review-g303389-d6747153-Reviews-Pousada_Caminho_Das_Lavras-Ouro_Preto_State_of_Minas_Gerais.html
23322734,"Pousada Esquina de Lavras","Rua Alto do Campo 99, Ouro Preto, Minas Gerais 35400-000 Brasil",Ouro Preto ,indef,Pousada,indef,0,indef,4.0,indef,indef,indef,-20.42434310913086,-43.613983154296875,https://www.tripadvisor.com.br/Hotel_Review-g303389-d23322734-Reviews-Pousada_Esquina_de_Lavras-Ouro_Preto_State_of_Minas_Gerais.html
21089162,"Diamond Hostel","Rua Salvador Tropia 242, Ouro Preto, Minas Gerais 35400-000 Brasil",Ouro Preto ,95,Hostel,indef,0,indef,4.0,100,86,43,-20.38236427307129,-43.50260925292969,https://www.tripadvisor.com.br/Hotel_Review-g303389-d21089162-Reviews-Diamond_Hostel-Ouro_Preto_State_of_Minas_Gerais.html
17803752,"Pousada Do G","Rua Carlos Tomas 57 A, Ouro Preto, Minas Gerais 35400-000 Brasil",Ouro Preto ,indef,Pousada,indef,0,indef,4.0,100,104,56,-20.386890411376953,-43.50185012817383,https://www.tripadvisor.com.br/Hotel_Review-g303389-d17803752-Reviews-Pousada_Do_G-Ouro_Preto_State_of_Minas_Gerais.html
23201673,"Hospedaria Casa do Alferes","Rua Irmaos Kennedy 313, Ouro Preto, Minas Gerais 35400-000 Brasil",Ouro Preto ,indef,indef,indef,0,indef,4.0,85,26,8,-20.38068962097168,-43.51639938354492,https://www.tripadvisor.com.br/Hotel_Review-g303389-d23201673-Reviews-Hospedaria_Casa_do_Alferes-Ouro_Preto_State_of_Minas_Gerais.html
17697017,"Refugio","Rua Doutor Albino Sartori 47, Ouro Preto, Minas Gerais 35400-000 Brasil",Ouro Preto ,indef,indef,indef,0,indef,4.0,100,78,30,-20.386459350585938,-43.509788513183594,https://www.tripadvisor.com.br/Hotel_Review-g303389-d17697017-Reviews-Refugio-Ouro_Preto_State_of_Minas_Gerais.html
23425473,"Casa Carnaval Bauxita","Rua José Aureliano Leocádio 171, Ouro Preto, Minas Gerais 35400-000 Brasil",Ouro Preto ,indef,indef,indef,0,indef,4.0,86,54,2,-20.400087356567383,-43.51061248779297,https://www.tripadvisor.com.br/Hotel_Review-g303389-d23425473-Reviews-Casa_Carnaval_Bauxita-Ouro_Preto_State_of_Minas_Gerais.html
17664778,"Casa Da Kau","Rua Padre Faria-Bairro, 60 Casa, Ouro Preto, Minas Gerais 35400-000 Brasil",Ouro Preto ,indef,indef,indef,0,indef,4.0,82,12,14,-20.38762092590332,-43.494789123535156,https://www.tripadvisor.com.br/Hotel_Review-g303389-d17664778-Reviews-Casa_Da_Kau-Ouro_Preto_State_of_Minas_Gerais.html
23386577,"Republica Do Arco Da Velha","Travessa do Arieira 6 Centro, Ouro Preto, Minas Gerais 35400-000 Brasil",Ouro Preto ,109,indef,indef,0,indef,4.0,100,134,63,-20.384366989135742,-43.50543212890625,https://www.tripadvisor.com.br/Hotel_Review-g303389-d23386577-Reviews-Republica_Do_Arco_Da_Velha-Ouro_Preto_State_of_Minas_Gerais.html
21222341,"Hospedaria Vila Rica",indef,Ouro Preto ,indef,indef,indef,0,indef,3.0,indef,indef,indef,indef,indef,https://www.tripadvisor.com.br/Hotel_Review-g303389-d21222341-Reviews-Hospedaria_Vila_Rica-Ouro_Preto_State_of_Minas_Gerais.html
23371739,"Republica Xamego","Rua Salvador Tropia 181, Ouro Preto, Minas Gerais 35400-000 Brasil",Ouro Preto ,indef,indef,indef,0,indef,4.0,100,91,47,-20.382413864135742,-43.503135681152344,https://www.tripadvisor.com.br/Hotel_Review-g303389-d23371739-Reviews-Republica_Xamego-Ouro_Preto_State_of_Minas_Gerais.html
15339176,"Suite 195 Lavras Novas","Rua Nossa Senhora dos Prazeres, Ouro Preto, Minas Gerais 35400-000 Brasil",Ouro Preto ,140,indef,indef,0,indef,3.0,41,10,1,-20.407840728759766,-43.49312973022461,https://www.tripadvisor.com.br/Hotel_Review-g303389-d15339176-Reviews-Suite_195_Lavras_Novas-Ouro_Preto_State_of_Minas_Gerais.html
17768718,"Pousada Quintas Da Baronesa","Rodovia Inconfidentes Km 68, Ouro Preto, Minas Gerais 35400-000 Brasil",Ouro Preto ,indef,Pousada,indef,0,indef,3.0,indef,indef,indef,-20.403610229492188,-43.52117919921875,https://www.tripadvisor.com.br/Hotel_Review-g303389-d17768718-Reviews-Pousada_Quintas_Da_Baronesa-Ouro_Preto_State_of_Minas_Gerais.html
664140,"Pousada Burgalhau","Rua Irmã Kennedy, 313 Bairro Agua Limpa, Ouro Preto, Minas Gerais 35400-000 Brasil",Ouro Preto ,indef,Pousada,indef,5,4.0,4.0,85,26,8,-20.38068962097168,-43.51639938354492,https://www.tripadvisor.com.br/Hotel_Review-g303389-d664140-Reviews-Pousada_Burgalhau-Ouro_Preto_State_of_Minas_Gerais.html
1384284,"Pousada Sinhá Olimpia","Rua Dom Helvécio, 180, Ouro Preto, Minas Gerais 35400-000 Brasil",Ouro Preto ,indef,Pousada,indef,215,4.5,indef,71,33,9,-20.38091278076172,-43.520484924316406,https://www.tripadvisor.com.br/Hotel_Review-g303389-d1384284-Reviews-Sinha_Olimpia_Hotel-Ouro_Preto_State_of_Minas_Gerais.html
3532139,"Hostel Goiabada com Queijo","Rua do Pilar, 44, Ouro Preto, Minas Gerais 35.400-000 Brasil",Ouro Preto ,indef,Hostel,indef,160,4.5,indef,100,140,64,-20.386415481567383,-43.50646209716797,https://www.tripadvisor.com.br/Hotel_Review-g303389-d3532139-Reviews-Hostel_Goiabada_com_Queijo-Ouro_Preto_State_of_Minas_Gerais.html
6157406,"Viva Chico Rei Hostel","Praça Antonio Dias, 14, Ouro Preto, Minas Gerais 35400-000 Brasil",Ouro Preto ,indef,Hostel,indef,46,4.5,2.0,100,85,51,-20.386869430541992,-43.500831604003906,https://www.tripadvisor.com.br/Hotel_Review-g303389-d6157406-Reviews-Viva_Chico_Rei_Hostel-Ouro_Preto_State_of_Minas_Gerais.html
6953532,"SESC Pousada Ouro Preto","Rodovia dos Inconfidentes, Km 88 Tripuí, Ouro Preto, Minas Gerais 35400-000 Brasil",Ouro Preto ,indef,Pousada,indef,418,4.0,3.0,indef,indef,indef,-20.3769474029541,-43.55708694458008,https://www.tripadvisor.com.br/Hotel_Review-g303389-d6953532-Reviews-Hotel_Sesc_Ouro_Preto-Ouro_Preto_State_of_Minas_Gerais.html
23201673,"Hospedaria Casa do Alferes","Rua Irmaos Kennedy 313, Ouro Preto, Minas Gerais 35400-000 Brasil",Ouro Preto ,indef,indef,indef,0,indef,4.0,85,26,8,-20.38068962097168,-43.51639938354492,https://www.tripadvisor.com.br/Hotel_Review-g303389-d23201673-Reviews-Hospedaria_Casa_do_Alferes-Ouro_Preto_State_of_Minas_Gerais.html
4289668,"Hotel do Teatro","Rua Costa Sena, 307, Ouro Preto, Minas Gerais 35400-000 Brasil",Ouro Preto ,indef,Hotel,indef,110,4.0,3.0,100,132,65,-20.385988235473633,-43.50508117675781,https://www.tripadvisor.com.br/Hotel_Review-g303389-d4289668-Reviews-Hotel_do_Teatro-Ouro_Preto_State_of_Minas_Gerais.html
6412263,"Trilhas De Minas Hostel","Praca Antonio Dias 21 Alto da Cruz, Ouro Preto, Minas Gerais 35400-000 Brasil",Ouro Preto ,indef,Hostel,indef,166,5.0,2.0,100,84,51,-20.386455535888672,-43.50055694580078,https://www.tripadvisor.com.br/Hotel_Review-g303389-d6412263-Reviews-Trilhas_De_Minas_Hostel-Ouro_Preto_State_of_Minas_Gerais.html
6957316,"Rock in Hostel","Rua Brigadeiro Musqueira, 14, Ouro Preto, Minas Gerais 35400-000 Brasil",Ouro Preto ,indef,Hostel,indef,96,4.5,indef,100,133,61,-20.38585662841797,-43.50398254394531,https://www.tripadvisor.com.br/Hotel_Review-g303389-d6957316-Reviews-Rock_in_Hostel-Ouro_Preto_State_of_Minas_Gerais.html
2402590,"Pousada Laços de Minas","Rua dos Paulistas 43, Ouro Preto, Minas Gerais 35400-000 Brasil",Ouro Preto ,indef,Pousada,indef,283,4.5,3.0,100,106,52,-20.3853702545166,-43.50198745727539,https://www.tripadvisor.com.br/Hotel_Review-g303389-d2402590-Reviews-Pousada_Lacos_de_MInas-Ouro_Preto_State_of_Minas_Gerais.html
1759703,"Pousada Nello Nuno","Rua Camilo De Brito, 59 - Centro Centro, Ouro Preto, Minas Gerais 35400-000 Brasil",Ouro Preto ,indef,Pousada,indef,97,4.0,indef,100,107,55,-20.38351058959961,-43.50275421142578,https://www.tripadvisor.com.br/Hotel_Review-g303389-d1759703-Reviews-Pousada_Nello_Nuno-Ouro_Preto_State_of_Minas_Gerais.html
6886312,"José e Maria Hostel Bar","Rua Henri Gorceix 203 Centro, Ouro Preto, Minas Gerais 35400-000 Brasil",Ouro Preto ,indef,Hostel,indef,65,4.5,indef,100,98,49,-20.382253646850586,-43.50423049926758,https://www.tripadvisor.com.br/Hotel_Review-g303389-d6886312-Reviews-Jose_e_Maria_Hostel_Bar-Ouro_Preto_State_of_Minas_Gerais.html
2624410,"VOA Pousada Mezanino","Rua Senador Rocha Lagoa 131, Ouro Preto, Minas Gerais 35400-000 Brasil",Ouro Preto ,indef,Pousada,indef,157,4.0,2.5,100,133,63,-20.384849548339844,-43.504974365234375,https://www.tripadvisor.com.br/Hotel_Review-g303389-d2624410-Reviews-VOA_Pousada_Mezanino-Ouro_Preto_State_of_Minas_Gerais.html
21222341,"Hospedaria Vila Rica",indef,Ouro Preto ,indef,indef,indef,0,indef,3.0,indef,indef,indef,indef,indef,https://www.tripadvisor.com.br/Hotel_Review-g303389-d21222341-Reviews-Hospedaria_Vila_Rica-Ouro_Preto_State_of_Minas_Gerais.html
17768718,"Pousada Quintas Da Baronesa","Rodovia Inconfidentes Km 68, Ouro Preto, Minas Gerais 35400-000 Brasil",Ouro Preto ,indef,Pousada,indef,0,indef,3.0,indef,indef,indef,-20.403610229492188,-43.52117919921875,https://www.tripadvisor.com.br/Hotel_Review-g303389-d17768718-Reviews-Pousada_Quintas_Da_Baronesa-Ouro_Preto_State_of_Minas_Gerais.html
664140,"Pousada Burgalhau","Rua Irmã Kennedy, 313 Bairro Agua Limpa, Ouro Preto, Minas Gerais 35400-000 Brasil",Ouro Preto ,indef,Pousada,indef,5,4.0,4.0,85,26,8,-20.38068962097168,-43.51639938354492,https://www.tripadvisor.com.br/Hotel_Review-g303389-d664140-Reviews-Pousada_Burgalhau-Ouro_Preto_State_of_Minas_Gerais.html
1384284,"Pousada Sinhá Olimpia","Rua Dom Helvécio, 180, Ouro Preto, Minas Gerais 35400-000 Brasil",Ouro Preto ,indef,Pousada,indef,215,4.5,indef,71,33,9,-20.38091278076172,-43.520484924316406,https://www.tripadvisor.com.br/Hotel_Review-g303389-d1384284-Reviews-Sinha_Olimpia_Hotel-Ouro_Preto_State_of_Minas_Gerais.html
3532139,"Hostel Goiabada com Queijo","Rua do Pilar, 44, Ouro Preto, Minas Gerais 35.400-000 Brasil",Ouro Preto ,indef,Hostel,indef,160,4.5,indef,100,140,64,-20.386415481567383,-43.50646209716797,https://www.tripadvisor.com.br/Hotel_Review-g303389-d3532139-Reviews-Hostel_Goiabada_com_Queijo-Ouro_Preto_State_of_Minas_Gerais.html
6157406,"Viva Chico Rei Hostel","Praça Antonio Dias, 14, Ouro Preto, Minas Gerais 35400-000 Brasil",Ouro Preto ,indef,Hostel,indef,46,4.5,2.0,100,85,51,-20.386869430541992,-43.500831604003906,https://www.tripadvisor.com.br/Hotel_Review-g303389-d6157406-Reviews-Viva_Chico_Rei_Hostel-Ouro_Preto_State_of_Minas_Gerais.html
6953532,"SESC Pousada Ouro Preto","Rodovia dos Inconfidentes, Km 88 Tripuí, Ouro Preto, Minas Gerais 35400-000 Brasil",Ouro Preto ,indef,Pousada,indef,418,4.0,3.0,indef,indef,indef,-20.3769474029541,-43.55708694458008,https://www.tripadvisor.com.br/Hotel_Review-g303389-d6953532-Reviews-Hotel_Sesc_Ouro_Preto-Ouro_Preto_State_of_Minas_Gerais.html
10061386,"Hostel Imperial","Rua Claudio Manoel 113, Ouro Preto, Minas Gerais 35400-000 Brasil",Ouro Preto ,indef,Hostel,indef,21,4.0,indef,100,109,52,-20.385723114013672,-43.50238037109375,https://www.tripadvisor.com.br/Hotel_Review-g303389-d10061386-Reviews-Hostel_Imperial-Ouro_Preto_State_of_Minas_Gerais.html
6613414,"Freedom Hostel","Praca Antonio Dias 14, Ouro Preto, Minas Gerais 35400-000 Brasil",Ouro Preto ,indef,Hostel,indef,25,4.5,indef,55,12,8,-20.3799991607666,-43.4900016784668,https://www.tripadvisor.com.br/Hotel_Review-g303389-d6613414-Reviews-Freedom_Hostel-Ouro_Preto_State_of_Minas_Gerais.html
13848359,"Canto do Alto","Rua Resende 159 Bairro Alto da Cruz, Ouro Preto, Minas Gerais 35400-000 Brasil",Ouro Preto ,indef,indef,indef,14,4.5,indef,83,15,12,-20.386362075805664,-43.49531173706055,https://www.tripadvisor.com.br/Hotel_Review-g303389-d13848359-Reviews-Canto_do_Alto-Ouro_Preto_State_of_Minas_Gerais.html
4511371,"Hotel Toffolo","Rua São José, 72 Centro, Ouro Preto, Minas Gerais 35400-000 Brasil",Ouro Preto ,indef,Hotel,indef,12,4.5,indef,100,142,63,-20.384267807006836,-43.50648498535156,https://www.tripadvisor.com.br/Hotel_Review-g303389-d4511371-Reviews-Hotel_Toffolo-Ouro_Preto_State_of_Minas_Gerais.html
1759703,"Pousada Nello Nuno","Rua Camilo De Brito, 59 - Centro Centro, Ouro Preto, Minas Gerais 35400-000 Brasil",Ouro Preto ,indef,Pousada,indef,97,4.0,indef,100,107,55,-20.38351058959961,-43.50275421142578,https://www.tripadvisor.com.br/Hotel_Review-g303389-d1759703-Reviews-Pousada_Nello_Nuno-Ouro_Preto_State_of_Minas_Gerais.html
6886312,"José e Maria Hostel Bar","Rua Henri Gorceix 203 Centro, Ouro Preto, Minas Gerais 35400-000 Brasil",Ouro Preto ,indef,Hostel,indef,65,4.5,indef,100,98,49,-20.382253646850586,-43.50423049926758,https://www.tripadvisor.com.br/Hotel_Review-g303389-d6886312-Reviews-Jose_e_Maria_Hostel_Bar-Ouro_Preto_State_of_Minas_Gerais.html
10316444,"Pousada Xavier Da Veiga","Rua Xavier Da Veiga 501 A, Ouro Preto, Minas Gerais 35400-000 Brasil",Ouro Preto ,indef,Pousada,indef,23,4.5,indef,100,137,66,-20.38688087463379,-43.5052604675293,https://www.tripadvisor.com.br/Hotel_Review-g303389-d10316444-Reviews-Pousada_Xavier_Da_Veiga-Ouro_Preto_State_of_Minas_Gerais.html
8722678,"Antonia Rosa Hostel","Travessa do Arieira no 6, Ouro Preto, Minas Gerais 35400-000 Brasil",Ouro Preto ,indef,Hostel,indef,27,4.5,indef,100,133,64,-20.385549545288086,-43.50484848022461,https://www.tripadvisor.com.br/Hotel_Review-g303389-d8722678-Reviews-Antonia_Rosa_Hostel-Ouro_Preto_State_of_Minas_Gerais.html
627836,"Pousada Toledo","Rua Conselheiro Quintiliano 395, Ouro Preto, Minas Gerais Brasil",Ouro Preto ,indef,Pousada,indef,92,3.5,indef,93,62,38,-20.383739471435547,-43.5000114440918,https://www.tripadvisor.com.br/Hotel_Review-g303389-d627836-Reviews-Pousada_Toledo-Ouro_Preto_State_of_Minas_Gerais.html
4511371,"Hotel Toffolo","Rua São José, 72 Centro, Ouro Preto, Minas Gerais 35400-000 Brasil",Ouro Preto ,indef,Hotel,indef,12,4.5,indef,100,142,63,-20.384267807006836,-43.50648498535156,https://www.tripadvisor.com.br/Hotel_Review-g303389-d4511371-Reviews-Hotel_Toffolo-Ouro_Preto_State_of_Minas_Gerais.html
3594699,"Rosário Hostel","Rua Gabriel dos Santos 104, Ouro Preto, Minas Gerais 35400-000 Brasil",Ouro Preto ,indef,Hostel,indef,33,4.0,indef,95,60,21,-20.382471084594727,-43.510406494140625,https://www.tripadvisor.com.br/Hotel_Review-g303389-d3594699-Reviews-Rosario_Hostel-Ouro_Preto_State_of_Minas_Gerais.html
7726085,"Chalés Sesmaria","Rua da Fonte 53, Ouro Preto, Minas Gerais 35400-000 Brasil",Ouro Preto ,indef,Chale,indef,10,4.5,indef,indef,indef,indef,-20.312339782714844,-43.57835006713867,https://www.tripadvisor.com.br/Hotel_Review-g303389-d7726085-Reviews-Chales_Sesmaria-Ouro_Preto_State_of_Minas_Gerais.html
3337011,"Pousada Jardim Secreto","Estrada Madureira Km 76, Ouro Preto, Minas Gerais 35400-000 Brasil",Ouro Preto ,indef,Pousada,indef,12,4.5,indef,indef,indef,indef,-20.377538681030273,-43.694644927978516,https://www.tripadvisor.com.br/Hotel_Review-g303389-d3337011-Reviews-Pousada_Jardim_Secreto-Ouro_Preto_State_of_Minas_Gerais.html
14164173,"Descubra Gerais Hostel","Praça Tiradentes,122, Ouro Preto, Minas Gerais 35400-000 Brasil",Ouro Preto ,indef,Hostel,indef,5,5.0,4.0,100,131,63,-20.385820388793945,-43.50340270996094,https://www.tripadvisor.com.br/Hotel_Review-g303389-d14164173-Reviews-Descubra_Gerais_Hostel-Ouro_Preto_State_of_Minas_Gerais.html
5566997,"Pouso Alforria","Rua Dois, 100, Ouro Preto, Minas Gerais Brasil",Ouro Preto ,indef,indef,indef,12,4.0,indef,73,49,7,-20.395788192749023,-43.512081146240234,https://www.tripadvisor.com.br/Hotel_Review-g303389-d5566997-Reviews-Pouso_Alforria-Ouro_Preto_State_of_Minas_Gerais.html
3777250,"Hotel Fazenda Boa Vista","Rua Antonio Pereira s/n, Ouro Preto, Minas Gerais 35400-000 Brasil",Ouro Preto ,indef,Hotel,indef,6,4.5,indef,100,133,66,-20.386550903320312,-43.503700256347656,https://www.tripadvisor.com.br/Hotel_Review-g303389-d3777250-Reviews-Hotel_Fazenda_Boa_Vista-Ouro_Preto_State_of_Minas_Gerais.html
4510131,"Pousada Chalet Do Carmo","Rua Costa Sena, 205 Centro, Ouro Preto, Minas Gerais 35400-000 Brasil",Ouro Preto ,indef,Pousada,indef,3,5.0,4.0,100,138,65,-20.386850357055664,-43.504539489746094,https://www.tripadvisor.com.br/Hotel_Review-g303389-d4510131-Reviews-Pousada_Chalet_Do_Carmo-Ouro_Preto_State_of_Minas_Gerais.html
9808237,"Barroco Hostel","Rua Bernardo de Vasconcelos 133, Ouro Preto, Minas Gerais 35400-000 Brasil",Ouro Preto ,indef,Hostel,indef,4,5.0,indef,indef,indef,indef,-20.5301456451416,-43.551605224609375,https://www.tripadvisor.com.br/Hotel_Review-g303389-d9808237-Reviews-Barroco_Hostel-Ouro_Preto_State_of_Minas_Gerais.html
17586903,"Hostel Minas","Rua Padre Epifanio Bairro Antonio Dias, 101, Ouro Preto, Minas Gerais 35400-000 Brasil",Ouro Preto ,indef,Hostel,indef,5,4.0,3.0,94,54,42,-20.387100219726562,-43.49953079223633,https://www.tripadvisor.com.br/Hotel_Review-g303389-d17586903-Reviews-Hostel_Minas-Ouro_Preto_State_of_Minas_Gerais.html
5503615,"Pousada Fundo De Quintal","Rua Nossa Senhora Dos Prazeres, 799, Ouro Preto, Minas Gerais Brasil",Ouro Preto ,indef,Pousada,indef,6,4.0,indef,65,19,3,-20.476280212402344,-43.520469665527344,https://www.tripadvisor.com.br/Hotel_Review-g303389-d5503615-Reviews-Pousada_Fundo_De_Quintal-Ouro_Preto_State_of_Minas_Gerais.html
5026452,"Pousada Casarão Dois Irmãos","Rua São Miguel Arcanjo, 227 Água Limpa, Ouro Preto, Minas Gerais 35400-000 Brasil",Ouro Preto ,indef,Pousada,indef,6,4.0,indef,90,36,15,-20.3806209564209,-43.51181411743164,https://www.tripadvisor.com.br/Hotel_Review-g303389-d5026452-Reviews-Pousada_Casarao_Dois_Irmaos-Ouro_Preto_State_of_Minas_Gerais.html
5503624,"Solar Nossa Senhora Das Mercês","Rua Musicista José Dos Anjos, 26 Centro, Ouro Preto, Minas Gerais Brasil",Ouro Preto ,indef,indef,indef,32,3.5,indef,100,89,53,-20.38836669921875,-43.50206756591797,https://www.tripadvisor.com.br/Hotel_Review-g303389-d5503624-Reviews-Solar_Nossa_Senhora_Das_Merces-Ouro_Preto_State_of_Minas_Gerais.html
627837,"Pousada América","Rua Camilo de Brito 15, Ouro Preto, Minas Gerais 35400-000 Brasil",Ouro Preto ,indef,Pousada,indef,6,4.0,indef,100,115,53,-20.38351058959961,-43.503108978271484,https://www.tripadvisor.com.br/Hotel_Review-g303389-d627837-Reviews-Pousada_America-Ouro_Preto_State_of_Minas_Gerais.html
12699363,"Solar Douro","Rua Vereador Edmundo José Vieira, 161, Ouro Preto, Minas Gerais 35400-000 Brasil",Ouro Preto ,indef,indef,indef,2,4.5,4.0,70,10,4,-20.383729934692383,-43.519168853759766,https://www.tripadvisor.com.br/Hotel_Review-g303389-d12699363-Reviews-Solar_Douro-Ouro_Preto_State_of_Minas_Gerais.html
5567039,"Camping Clube Do Brasil (Ccb)","Estrada Dos Inconfidentes, Km 91, Ouro Preto, Minas Gerais Brasil",Ouro Preto ,indef,indef,indef,6,3.5,indef,76,52,2,-20.40254020690918,-43.504920959472656,https://www.tripadvisor.com.br/Hotel_Review-g303389-d5567039-Reviews-Camping_Clube_Do_Brasil_Ccb-Ouro_Preto_State_of_Minas_Gerais.html
5503621,"Pousada Imperatriz","Rua Conde De Bobadela, 179 Centro, Ouro Preto, Minas Gerais 35400-000 Brasil",Ouro Preto ,indef,Pousada,indef,2,4.0,4.0,100,133,62,-20.3856258392334,-43.5038948059082,https://www.tripadvisor.com.br/Hotel_Review-g303389-d5503621-Reviews-Pousada_Imperatriz-Ouro_Preto_State_of_Minas_Gerais.html
6747448,"Pousada Da Pedra","Rua da Fonte 120 Lavras Novas, Ouro Preto, Minas Gerais 35400-000 Brasil",Ouro Preto ,indef,Pousada,indef,2,4.0,indef,indef,indef,indef,-20.530710220336914,-43.55294418334961,https://www.tripadvisor.com.br/Hotel_Review-g303389-d6747448-Reviews-Pousada_Da_Pedra-Ouro_Preto_State_of_Minas_Gerais.html
5567072,"Pousada e Restaurante Da Aparecida","Rua Jovino De Souza, 450, Ouro Preto, Minas Gerais 35400-000 Brasil",Ouro Preto ,indef,Pousada,indef,1,5.0,indef,indef,indef,indef,-20.49725914001465,-43.467689514160156,https://www.tripadvisor.com.br/Hotel_Review-g303389-d5567072-Reviews-Pousada_e_Restaurante_Da_Aparecida-Ouro_Preto_State_of_Minas_Gerais.html
5499379,"Pousada Gabriela","Largo Musicista José Dos Anjos Costa, 58, Ouro Preto, Minas Gerais 35400-000 Brasil",Ouro Preto ,indef,Pousada,indef,1,5.0,3.0,100,87,52,-20.38796043395996,-43.50162124633789,https://www.tripadvisor.com.br/Hotel_Review-g303389-d5499379-Reviews-Pousada_Gabriela-Ouro_Preto_State_of_Minas_Gerais.html
5600204,"Pousada Aconchego Três Irmãos","Rua Nossa Senhora Dos Prazeres, 134, Ouro Preto, Minas Gerais Brasil",Ouro Preto ,indef,Pousada,indef,2,3.5,indef,68,19,3,-20.47701644897461,-43.51854705810547,https://www.tripadvisor.com.br/Hotel_Review-g303389-d5600204-Reviews-Pousada_Aconchego_Tres_Irmaos-Ouro_Preto_State_of_Minas_Gerais.html
5499394,"Hotel Do Colégio Vila Rica","Rua Felipe Dos Santos, 145 Antônio Dias, Ouro Preto, Minas Gerais 35400-000 Brasil",Ouro Preto ,indef,Hotel,indef,5,3.0,3.0,100,85,52,-20.387699127197266,-43.50128936767578,https://www.tripadvisor.com.br/Hotel_Review-g303389-d5499394-Reviews-Hotel_Do_Colegio_Vila_Rica-Ouro_Preto_State_of_Minas_Gerais.html
5600214,"Fazenda Campo Grande De Vila Rica","Estrada Antônio Pereira Km 4, S/N, Ouro Preto, Minas Gerais 35400-000 Brasil",Ouro Preto ,indef,indef,indef,1,4.0,4.0,indef,indef,indef,-20.303760528564453,-43.48020935058594,https://www.tripadvisor.com.br/Hotel_Review-g303389-d5600214-Reviews-Fazenda_Campo_Grande_De_Vila_Rica-Ouro_Preto_State_of_Minas_Gerais.html
8178021,"Chico Preto Hostel","Rua Padre Faria 204, Ouro Preto, Minas Gerais 35400-000 Brasil",Ouro Preto ,indef,Hostel,indef,11,3.0,indef,77,11,10,-20.388032913208008,-43.493568420410156,https://www.tripadvisor.com.br/Hotel_Review-g303389-d8178021-Reviews-Chico_Preto_Hostel-Ouro_Preto_State_of_Minas_Gerais.html
5503665,"Pousada Cantinho Mineiro","Rua Padre Rolim, 964 São Cristóvão, Ouro Preto, Minas Gerais 35400-000 Brasil",Ouro Preto ,indef,Pousada,indef,7,3.0,indef,86,10,4,-20.37899398803711,-43.51031494140625,https://www.tripadvisor.com.br/Hotel_Review-g303389-d5503665-Reviews-Pousada_Cantinho_Mineiro-Ouro_Preto_State_of_Minas_Gerais.html
2214197,"Pousada do Pilar","Rua Benedito Valadares No. 219, Ouro Preto, Minas Gerais 35400-000 Brasil",Ouro Preto ,indef,Pousada,indef,41,2.0,indef,100,73,29,-20.385040283203125,-43.51020812988281,https://www.tripadvisor.com.br/Hotel_Review-g303389-d2214197-Reviews-Pousada_do_Pilar-Ouro_Preto_State_of_Minas_Gerais.html
5892417,"Pousada São Luís","Largo Musicista Jose dos Anjos Costa n. 58, Ouro Preto, Minas Gerais 35400-000 Brasil",Ouro Preto ,indef,Pousada,indef,32,2.0,2.0,100,82,53,-20.388219833374023,-43.501609802246094,https://www.tripadvisor.com.br/Hotel_Review-g303389-d5892417-Reviews-Pousada_Sao_Luis-Ouro_Preto_State_of_Minas_Gerais.html
23615711,"Casa Raiz Ouro Preto","Rua Padre Faria 204 Casa, Ouro Preto, Minas Gerais 35400-000 Brasil",Ouro Preto ,indef,indef,indef,0,indef,3.0,77,11,10,-20.3879337310791,-43.49359130859375,https://www.tripadvisor.com.br/Hotel_Review-g303389-d23615711-Reviews-Casa_Raiz_Ouro_Preto-Ouro_Preto_State_of_Minas_Gerais.html
15196674,"Residencial Nazare Tedesco","Rua Conselheiro Quintiliano, 780, Ouro Preto, Minas Gerais 35400-000 Brasil",Ouro Preto ,indef,indef,indef,0,indef,3.0,88,15,14,-20.385234832763672,-43.49714660644531,https://www.tripadvisor.com.br/Hotel_Review-g303389-d15196674-Reviews-Residencial_Nazare_Tedesco-Ouro_Preto_State_of_Minas_Gerais.html
12332518,"Hostel Real","rua Camilo de Brito N 11 Proximo a Praca Tiradentes, Ouro Preto, Minas Gerais 30730-610 Brasil",Ouro Preto ,indef,Hostel,indef,0,indef,4.0,100,115,54,-20.383480072021484,-43.50313949584961,https://www.tripadvisor.com.br/Hotel_Review-g303389-d12332518-Reviews-Hostel_Real-Ouro_Preto_State_of_Minas_Gerais.html
13388066,"Locking's Ouro Preto","Rua Brigadeiro Musqueira 66, Ouro Preto, Minas Gerais 35400-000 Brasil",Ouro Preto ,indef,indef,indef,0,indef,4.0,100,134,65,-20.3858699798584,-43.50450134277344,https://www.tripadvisor.com.br/Hotel_Review-g303389-d13388066-Reviews-Locking_s_Ouro_Preto-Ouro_Preto_State_of_Minas_Gerais.html
5567070,"Pensão Maria Efigênia Mendes","Rua Dr. Orlando Ramos, 190 - Vila São José, Ouro Preto, Minas Gerais 35400-000 Brasil",Ouro Preto ,indef,indef,indef,0,indef,4.0,100,74,29,-20.386789321899414,-43.50967025756836,https://www.tripadvisor.com.br/Hotel_Review-g303389-d5567070-Reviews-Pensao_Maria_Efigenia_Mendes-Ouro_Preto_State_of_Minas_Gerais.html
5567046,"Pousada Tabuleiro","Rua Tabuleiro, 15, Ouro Preto, Minas Gerais 35400-000 Brasil",Ouro Preto ,indef,Pousada,indef,0,indef,4.0,indef,indef,indef,-20.30582046508789,-43.4829216003418,https://www.tripadvisor.com.br/Hotel_Review-g303389-d5567046-Reviews-Pousada_Tabuleiro-Ouro_Preto_State_of_Minas_Gerais.html
5567043,"Pouso Do Aleijadinho","Rua Antônio Martins,  33, Ouro Preto, Minas Gerais 35400-000 Brasil",Ouro Preto ,indef,indef,indef,0,indef,3.0,96,67,49,-20.388729095458984,-43.501399993896484,https://www.tripadvisor.com.br/Hotel_Review-g303389-d5567043-Reviews-Pouso_Do_Aleijadinho-Ouro_Preto_State_of_Minas_Gerais.html
5566998,"Pousada Lilian","Rua Dom Veloso, 173, Ouro Preto, Minas Gerais Brasil",Ouro Preto ,indef,Pousada,indef,0,indef,indef,indef,indef,indef,-20.532379150390625,-43.55315017700195,https://www.tripadvisor.com.br/Hotel_Review-g303389-d5566998-Reviews-Pousada_Lilian-Ouro_Preto_State_of_Minas_Gerais.html
17581073,"Fernando Leite Hospedagem","Rua Henri Gorciex, 198 Centro, Ouro Preto, Minas Gerais 35400-000 Brasil",Ouro Preto ,indef,indef,indef,0,indef,4.0,100,106,50,-20.3824405670166,-43.50394821166992,https://www.tripadvisor.com.br/Hotel_Review-g303389-d17581073-Reviews-Fernando_Leite_Hospedagem-Ouro_Preto_State_of_Minas_Gerais.html
8082024,"Grambello Hotel","Rua Cnso Quintiliano 604 Lajes, Ouro Preto, Minas Gerais Brasil",Ouro Preto ,indef,Hotel,indef,0,indef,3.0,88,23,14,-20.38429832458496,-43.49803924560547,https://www.tripadvisor.com.br/Hotel_Review-g303389-d8082024-Reviews-Grambello_Hotel-Ouro_Preto_State_of_Minas_Gerais.html
2299167,"Hostel o Camaleão","Rua Valentim Policarpo de Lima 337, Ouro Preto, Minas Gerais 35400-000 Brasil",Ouro Preto ,indef,Hostel,indef,0,indef,4.0,97,60,22,-20.384780883789062,-43.511260986328125,https://www.tripadvisor.com.br/Hotel_Review-g303389-d2299167-Reviews-Hostel_o_Camaleao-Ouro_Preto_State_of_Minas_Gerais.html
17697367,"Hospedagem De Baixo Custo","Rua Benedito Valadares Apartamento B, Ouro Preto, Minas Gerais 35400-000 Brasil",Ouro Preto ,indef,indef,indef,0,indef,4.0,100,77,29,-20.38558006286621,-43.510009765625,https://www.tripadvisor.com.br/Hotel_Review-g303389-d17697367-Reviews-Hospedagem_De_Baixo_Custo-Ouro_Preto_State_of_Minas_Gerais.html
8081825,"Uai So Espaco de Convivencia","Rua Analia Esteves Ribas 401 Jardim Alvorada, Ouro Preto, Minas Gerais 35400-000 Brasil",Ouro Preto ,indef,indef,indef,0,indef,4.0,92,33,10,-20.386789321899414,-43.51259994506836,https://www.tripadvisor.com.br/Hotel_Review-g303389-d8081825-Reviews-Uai_So_Espaco_de_Convivencia-Ouro_Preto_State_of_Minas_Gerais.html
8083416,"Hotel Pilao","Trecho Do Pilao 1 Centro, Ouro Preto, Minas Gerais Brasil",Ouro Preto ,indef,Hotel,indef,0,indef,4.0,100,123,57,-20.384990692138672,-43.5029411315918,https://www.tripadvisor.com.br/Hotel_Review-g303389-d8083416-Reviews-Hotel_Pilao-Ouro_Preto_State_of_Minas_Gerais.html
10671737,"A Casa Amarela","Rua Simão Lacerda, 953, Ouro Preto, Minas Gerais 35400-000 Brasil",Ouro Preto ,indef,indef,indef,0,indef,3.0,72,48,0,-20.402929306030273,-43.51169967651367,https://www.tripadvisor.com.br/Hotel_Review-g303389-d10671737-Reviews-A_Casa_Amarela-Ouro_Preto_State_of_Minas_Gerais.html
5600208,"Pousada Real","Rua São Francisco, 5, Ouro Preto, Minas Gerais Brasil",Ouro Preto ,indef,Pousada,indef,0,indef,3.0,38,24,3,-20.3502197265625,-43.670188903808594,https://www.tripadvisor.com.br/Hotel_Review-g303389-d5600208-Reviews-Pousada_Real-Ouro_Preto_State_of_Minas_Gerais.html
4510439,"Apart Hotel Flomon","R Alvarenga 130 Cabeças, Ouro Preto, Minas Gerais 35400-000 Brasil",Ouro Preto ,indef,Hotel,indef,0,indef,4.0,94,37,15,-20.383420944213867,-43.51285171508789,https://www.tripadvisor.com.br/Hotel_Review-g303389-d4510439-Reviews-Apart_Hotel_Flomon-Ouro_Preto_State_of_Minas_Gerais.html
8080062,"Hostel Vo Bela","Rua Doutor Joao Veloso 119 Alto Da Cruz, Ouro Preto, Minas Gerais 35400-000 Brasil",Ouro Preto ,indef,Hostel,indef,0,indef,3.0,87,18,17,-20.38719940185547,-43.496559143066406,https://www.tripadvisor.com.br/Hotel_Review-g303389-d8080062-Reviews-Hostel_Vo_Bela-Ouro_Preto_State_of_Minas_Gerais.html
5569652,"Pousada Brumana","Rua Dr. Pacífico Homem, 66 Centro, Ouro Preto, Minas Gerais 35400-000 Brasil",Ouro Preto ,indef,Pousada,indef,0,indef,3.0,100,133,61,-20.38789939880371,-43.505428314208984,https://www.tripadvisor.com.br/Hotel_Review-g303389-d5569652-Reviews-Pousada_Brumana-Ouro_Preto_State_of_Minas_Gerais.html
5503657,"Pousada Trem De Doido","Rua Padre Rolim, 1.273 São Cristóvão, Ouro Preto, Minas Gerais 35400-000 Brasil",Ouro Preto ,indef,Pousada,indef,0,indef,4.0,85,21,6,-20.378089904785156,-43.513301849365234,https://www.tripadvisor.com.br/Hotel_Review-g303389-d5503657-Reviews-Pousada_Trem_De_Doido-Ouro_Preto_State_of_Minas_Gerais.html
4299433,"Clotildes Maria Pousada","Rua Padre Rolim 945, Ouro Preto, Minas Gerais 35400-000 Brasil",Ouro Preto ,indef,Pousada,indef,0,indef,4.0,86,11,4,-20.379159927368164,-43.51033020019531,https://www.tripadvisor.com.br/Hotel_Review-g303389-d4299433-Reviews-Clotildes_Maria_Pousada-Ouro_Preto_State_of_Minas_Gerais.html
5567360,"Pousada Portal Da Chapada","Estrada Santa Rita, 9 Povoado Da Chapada, Ouro Preto, Minas Gerais Brasil",Ouro Preto ,indef,Pousada,indef,0,indef,3.0,81,11,13,-20.38666343688965,-43.49460983276367,https://www.tripadvisor.com.br/Hotel_Review-g303389-d5567360-Reviews-Pousada_Portal_Da_Chapada-Ouro_Preto_State_of_Minas_Gerais.html
5567352,"Pousada Las Orquídeas","Rua Belo Horizonte, 302 Chapada, Ouro Preto, Minas Gerais Brasil",Ouro Preto ,indef,Pousada,indef,0,indef,3.0,indef,indef,indef,-20.36444091796875,-43.70820236206055,https://www.tripadvisor.com.br/Hotel_Review-g303389-d5567352-Reviews-Pousada_Las_Orquideas-Ouro_Preto_State_of_Minas_Gerais.html
13814365,"Barroco Hostel","Praca Tiradentes 136C, Ouro Preto, Minas Gerais 35400-000 Brasil",Ouro Preto ,indef,Hostel,indef,0,indef,4.0,100,133,62,-20.385812759399414,-43.50376510620117,https://www.tripadvisor.com.br/Hotel_Review-g303389-d13814365-Reviews-Barroco_Hostel-Ouro_Preto_State_of_Minas_Gerais.html
6745883,"Parador Pousada","Rua Felipe dos Santos 110 Antonio Dias, Ouro Preto, Minas Gerais 35400-000 Brasil",Ouro Preto ,indef,Pousada,indef,0,indef,3.0,100,94,52,-20.387319564819336,-43.50143814086914,https://www.tripadvisor.com.br/Hotel_Review-g303389-d6745883-Reviews-Parador_Pousada-Ouro_Preto_State_of_Minas_Gerais.html
17698200,"Hospedagem Residencial Marilaa de Dirceu","Rua Santa Efigencia, 61 Bairro Antonio Dias, Ouro Preto, Minas Gerais 35400-000 Brasil",Ouro Preto ,indef,indef,indef,0,indef,4.0,indef,indef,indef,-20.31096076965332,-43.57809829711914,https://www.tripadvisor.com.br/Hotel_Review-g303389-d17698200-Reviews-Hospedagem_Residencial_Marilaa_de_Dirceu-Ouro_Preto_State_of_Minas_Gerais.html
5567157,"Pousada Maria Terezinha Maciel","Rua Paraná, 57 Centro, Ouro Preto, Minas Gerais 35400-000 Brasil",Ouro Preto ,indef,Pousada,indef,0,indef,4.0,100,140,64,-20.385709762573242,-43.50590133666992,https://www.tripadvisor.com.br/Hotel_Review-g303389-d5567157-Reviews-Pousada_Maria_Terezinha_Maciel-Ouro_Preto_State_of_Minas_Gerais.html
5567142,"Pensão Dona Diva","Rua Dr. Alfredo Baeta, 87 Santo Antônio Do Salto, Ouro Preto, Minas Gerais 35400-000 Brasil",Ouro Preto ,indef,indef,indef,0,indef,3.0,100,93,52,-20.38724708557129,-43.501312255859375,https://www.tripadvisor.com.br/Hotel_Review-g303389-d5567142-Reviews-Pensao_Dona_Diva-Ouro_Preto_State_of_Minas_Gerais.html
12969625,"Astrid B&B","Praça Tiradentes,122, Ouro Preto, Minas Gerais 35400-000 Brasil",Ouro Preto ,indef,indef,indef,0,indef,4.0,100,131,63,-20.385820388793945,-43.50340270996094,https://www.tripadvisor.com.br/Hotel_Review-g303389-d12969625-Reviews-Astrid_B_B-Ouro_Preto_State_of_Minas_Gerais.html
5503619,"Pouso Dos Anjos","Rua Antônio De Albuquerque, 22 Pilar, Ouro Preto, Minas Gerais 35400-000 Brasil",Ouro Preto ,indef,indef,indef,0,indef,4.0,100,126,60,-20.386259078979492,-43.50777816772461,https://www.tripadvisor.com.br/Hotel_Review-g303389-d5503619-Reviews-Pouso_Dos_Anjos-Ouro_Preto_State_of_Minas_Gerais.html
