nome,endereco,cidade,nota,qtd_avaliacoes,latitude,longitude,fonte
Centro Histórico de Ouro Preto,Cidade de Ouro Preto | Ouro Preto | Minas Gerais Brasil,Ouro Preto ,4.5,5.022,-20.38504981994629,-43.50366973876953,https://www.tripadvisor.com.br/Attraction_Review-g303389-d4601254-Reviews-Centro_Historico_de_Ouro_Preto-Ouro_Preto_State_of_Minas_Gerais.html
Museu da Inconfidência,Praca Tiradentes 139 | Ouro Preto | Minas Gerais 35400-000 Brasil,Ouro Preto ,4.5,3.393,-20.3858642578125,-43.503719329833984,https://www.tripadvisor.com.br/Attraction_Review-g303389-d313966-Reviews-Museu_da_Inconfidencia-Ouro_Preto_State_of_Minas_Gerais.html
Casa dos Contos,Rua Sao Jose 12 | Ouro Preto | Minas Gerais 35400-000 Brasil,Ouro Preto ,4.5,2.096,-20.38436508178711,-43.506107330322266,https://www.tripadvisor.com.br/Attraction_Review-g303389-d2389271-Reviews-Casa_dos_Contos-Ouro_Preto_State_of_Minas_Gerais.html
Basílica de Nossa Senhora do Pilar,Travessa Lauro Barbosa | 16 Bairro do Pilar | Ouro Preto | Minas Gerais 35400-000 Brasil,Ouro Preto ,4.5,2.379,-20.386329650878906,-43.507850646972656,https://www.tripadvisor.com.br/Attraction_Review-g303389-d313967-Reviews-Basilica_of_Nossa_Senhora_do_Pilar-Ouro_Preto_State_of_Minas_Gerais.html
Igreja de São Francisco de Assis,Largo de Coimbra | Ouro Preto | Minas Gerais 35400-000 Brasil,Ouro Preto ,4.5,2.060,-20.38641357421875,-43.502777099609375,https://www.tripadvisor.com.br/Attraction_Review-g303389-d555145-Reviews-Church_of_Sao_Francisco_de_Assis-Ouro_Preto_State_of_Minas_Gerais.html
Represa do Custódio,5 |7 km de Lavras Novas | Lavras Novas | Ouro Preto | Minas Gerais Brasil,Lavras Novas ,4.5,446,-20.465469360351562,-43.49193572998047,https://www.tripadvisor.com.br/Attraction_Review-g2613515-d7816409-Reviews-Represa_do_Custodio-Lavras_Novas_Ouro_Preto_State_of_Minas_Gerais.html
Mina Du Veloso,Rua Levindo Inácio André | 400 | Ouro Preto | Minas Gerais 35400-000 Brasil,Ouro Preto ,4.5,770,-20.376314163208008,-43.51600646972656,https://www.tripadvisor.com.br/Attraction_Review-g303389-d7655323-Reviews-Mina_Du_Veloso-Ouro_Preto_State_of_Minas_Gerais.html
Trem da Vale – Ouro Preto e Mariana,Ouro Preto | Brasil,Ouro Preto ,4.0,0,-20.38249969482422,-43.484535217285156,https://www.tripadvisor.com.br/Attraction_Review-g303389-d2389356-Reviews-Trem_da_Vale_Ouro_Preto_e_Mariana-Ouro_Preto_State_of_Minas_Gerais.html
Parque Estadual do Itacolomi,Rodovia BR 356 | Km 98 | Ouro Preto | Minas Gerais 35400-000 Brasil,Ouro Preto ,4.5,266,-20.388370513916016,-43.498008728027344,https://www.tripadvisor.com.br/Attraction_Review-g303389-d2389353-Reviews-Parque_Estadual_do_Itacolomi-Ouro_Preto_State_of_Minas_Gerais.html
Minas do Palácio Velho,Rua Dom Silvério 159 Ponte da 'Encardideira' | Ouro Preto | Minas Gerais 35400-000 Brasil,Ouro Preto ,4.5,208,-20.386127471923828,-43.49897766113281,https://www.tripadvisor.com.br/Attraction_Review-g303389-d12389108-Reviews-Minas_do_Palacio_Velho-Ouro_Preto_State_of_Minas_Gerais.html
Praça Tiradentes,Praca Tiradentes | Ouro Preto | Minas Gerais 35400-000 Brasil,Ouro Preto ,4.5,2.463,-20.385499954223633,-43.503700256347656,https://www.tripadvisor.com.br/Attraction_Review-g303389-d555142-Reviews-Praca_Tiradentes-Ouro_Preto_State_of_Minas_Gerais.html
Feira De Pedra Sabão Do Largo De Coimbra,Largo do Coimbra | Ouro Preto | Minas Gerais 35400-000 Brasil,Ouro Preto ,4.5,436,-20.385942459106445,-43.50276184082031,https://www.tripadvisor.com.br/Attraction_Review-g303389-d2389280-Reviews-Feira_De_Pedra_Sabao_Do_Largo_De_Coimbra-Ouro_Preto_State_of_Minas_Gerais.html
Museu da Mineralogia,Praca Tiradentes | 20 | Ouro Preto | Minas Gerais 35400-000 Brasil,Ouro Preto ,4.5,863,-20.384689331054688,-43.503604888916016,https://www.tripadvisor.com.br/Attraction_Review-g303389-d313965-Reviews-Museum_of_Mineralogy-Ouro_Preto_State_of_Minas_Gerais.html
Mirante da Pedra,Rua Nossa Senhora dos Prazeres | Lavras Novas | Ouro Preto | Minas Gerais 35418-970 Brasil,Lavras Novas ,4.5,90,-20.476160049438477,-43.51987075805664,https://www.tripadvisor.com.br/Attraction_Review-g2613515-d11555630-Reviews-Mirante_da_Pedra-Lavras_Novas_Ouro_Preto_State_of_Minas_Gerais.html
Igreja Nossa Senhora do Carmo,Rua Brigadeiro Musqueira | s/n | Ouro Preto | Minas Gerais 35400-000 Brasil,Ouro Preto ,4.5,873,-20.385910034179688,-43.50444030761719,https://www.tripadvisor.com.br/Attraction_Review-g303389-d2389297-Reviews-Igreja_Nossa_Senhora_do_Carmo-Ouro_Preto_State_of_Minas_Gerais.html
Cachoeira das Andorinhas,R. Rio Piracicaba | Ouro Preto | Minas Gerais 35400-000 Brasil,Ouro Preto ,4.5,192,-20.37447738647461,-41.85930252075195,https://www.tripadvisor.com.br/Attraction_Review-g303389-d2389163-Reviews-Andorinhas_Waterfall-Ouro_Preto_State_of_Minas_Gerais.html
Cachoeira Dos Namorados,Lavras Novas | Ouro Preto | Minas Gerais 35400-000 Brasil,Lavras Novas ,4.5,99,-20.472864151000977,-43.48213577270508,https://www.tripadvisor.com.br/Attraction_Review-g2613515-d12150957-Reviews-Valentine_s_Waterfall-Lavras_Novas_Ouro_Preto_State_of_Minas_Gerais.html
Casa de Aleijadinho,Praca Antonio Dias 18 | Ouro Preto | Minas Gerais 35400-000 Brasil,Ouro Preto ,4.5,176,-20.3799991607666,-43.4900016784668,https://www.tripadvisor.com.br/Attraction_Review-g303389-d7296997-Reviews-Casa_de_Aleijadinho-Ouro_Preto_State_of_Minas_Gerais.html
Museu Casa dos Inconfidentes,Rua Engenheiro Correa Vila Aparecida | Ouro Preto | Minas Gerais 35400-000 Brasil,Ouro Preto ,4.5,273,-20.392335891723633,-43.506649017333984,https://www.tripadvisor.com.br/Attraction_Review-g303389-d4451825-Reviews-Casa_dos_Inconfidentes_Museum-Ouro_Preto_State_of_Minas_Gerais.html
Igreja Nossa Senhora do Rosário,Largo do Rosário | Ouro Preto | Minas Gerais 35400-000 Brasil,Ouro Preto ,4.5,700,-20.383939743041992,-43.509849548339844,https://www.tripadvisor.com.br/Attraction_Review-g303389-d4597983-Reviews-Igreja_Nossa_Senhora_do_Rosario-Ouro_Preto_State_of_Minas_Gerais.html
Igreja Nossa Senhora dos Prazeres,Praça Pedro Fernandes Marins | Lavras Novas | Ouro Preto | Minas Gerais Brasil,Lavras Novas ,4.0,263,-20.477304458618164,-43.51641845703125,https://www.tripadvisor.com.br/Attraction_Review-g2613515-d8048865-Reviews-Igreja_Nossa_Senhora_dos_Prazeres-Lavras_Novas_Ouro_Preto_State_of_Minas_Gerais.html
Mirante Morro São Sebastião,Ladeira João de Paiva | Ouro Preto | Minas Gerais 35400-000 Brasil,Ouro Preto ,4.5,166,-20.381229400634766,-43.502525329589844,https://www.tripadvisor.com.br/Attraction_Review-g303389-d7675995-Reviews-Mirante_Morro_Sao_Sebastiao-Ouro_Preto_State_of_Minas_Gerais.html
Igreja Sta Efigênia dos Pretos,Rua Santa Efigênia | s/n Alto da Cruz | Ouro Preto | Minas Gerais 35400-000 Brasil,Ouro Preto ,4.5,359,-20.387266159057617,-43.5002555847168,https://www.tripadvisor.com.br/Attraction_Review-g303389-d2389321-Reviews-Santa_Efigenia_dos_Pretos_church-Ouro_Preto_State_of_Minas_Gerais.html
Museu do Oratório,At St. Carmel Novitiate | Ouro Preto | Minas Gerais 35400-000 Brasil,Ouro Preto ,4.5,662,-20.386098861694336,-43.50430679321289,https://www.tripadvisor.com.br/Attraction_Review-g303389-d555144-Reviews-Oratory_Museum_Museu_Do_Oratorio-Ouro_Preto_State_of_Minas_Gerais.html
Rua Conde de Bobadela,Ouro Preto | Minas Gerais Brasil,Ouro Preto ,4.5,563,-20.3854923248291,-43.50383377075195,https://www.tripadvisor.com.br/Attraction_Review-g303389-d555141-Reviews-Rua_Conde_de_Bobadela-Ouro_Preto_State_of_Minas_Gerais.html
Estrada Real,indef,Lavras Novas ,4.5,91,0.0,0.0,https://www.tripadvisor.com.br/Attraction_Review-g2613515-d10072572-Reviews-Estrada_Real-Lavras_Novas_Ouro_Preto_State_of_Minas_Gerais.html
Teatro Municipal,Rua Brigadeiro Musqueira | s/n | Ouro Preto | Minas Gerais 35400-000 Brasil,Ouro Preto ,4.5,286,-20.385910034179688,-43.50444030761719,https://www.tripadvisor.com.br/Attraction_Review-g303389-d2389359-Reviews-Teatro_Municipal-Ouro_Preto_State_of_Minas_Gerais.html
Museu de Ciência e Técnica da Escola de Minas/UFOP,Praca Tiradentes | 20 - Centro | Ouro Preto | Minas Gerais 35400-000 Brasil,Ouro Preto ,4.5,359,-20.384435653686523,-43.50362014770508,https://www.tripadvisor.com.br/Attraction_Review-g303389-d2324602-Reviews-Museu_de_Ciencia_e_Tecnica_da_Escola_de_Minas_UFOP-Ouro_Preto_State_of_Minas_Gera.html
Mina de Ouro Santa Rita,Rua Santa Rita | 171 Bairro Padre Faria | Ouro Preto | Minas Gerais 35400-000 Brasil,Ouro Preto ,4.5,90,-20.386560440063477,-43.4930305480957,https://www.tripadvisor.com.br/Attraction_Review-g303389-d7087841-Reviews-Mina_de_Ouro_Santa_Rita-Ouro_Preto_State_of_Minas_Gerais.html
Minas de Chico Rei,Proximo a Igreja de Nossa Senhora da Conceição | Ouro Preto | Minas Gerais 35400-000 Brasil,Ouro Preto ,4.0,673,-20.417720794677734,-43.613040924072266,https://www.tripadvisor.com.br/Attraction_Review-g303389-d313968-Reviews-Minas_de_Chico_Rei-Ouro_Preto_State_of_Minas_Gerais.html
Cachoeira do Pocinho,indef,Lavras Novas ,4.5,24,0.0,0.0,https://www.tripadvisor.com.br/Attraction_Review-g2613515-d13539759-Reviews-Cachoeira_do_Pocinho-Lavras_Novas_Ouro_Preto_State_of_Minas_Gerais.html
Monumento a Tiradentes,Praca Tiradentes | Ouro Preto | Minas Gerais 35400-000 Brasil,Ouro Preto ,4.5,153,-20.385499954223633,-43.503700256347656,https://www.tripadvisor.com.br/Attraction_Review-g303389-d10083060-Reviews-Monumento_a_Tiradentes-Ouro_Preto_State_of_Minas_Gerais.html
Mina do Chico Rei,Ouro Preto | Minas Gerais 35400-000 Brasil,Ouro Preto ,4.0,103,-20.38627052307129,-43.49919509887695,https://www.tripadvisor.com.br/Attraction_Review-g303389-d9801110-Reviews-Chico_Rei_Mine-Ouro_Preto_State_of_Minas_Gerais.html
Estação Ferroviária de Ouro Preto,Praça Cesário Alvim | s/n. – Barra | Ouro Preto | Minas Gerais Brasil,Ouro Preto ,4.0,255,-20.3907470703125,-43.50685119628906,https://www.tripadvisor.com.br/Attraction_Review-g303389-d4740694-Reviews-Estacao_Ferroviaria_de_Ouro_Preto-Ouro_Preto_State_of_Minas_Gerais.html
Rua dos Bancos,Rua Sao Jose sn | Ouro Preto | Minas Gerais 35400-000 Brasil,Ouro Preto ,4.5,115,-20.38513946533203,-43.50730895996094,https://www.tripadvisor.com.br/Attraction_Review-g303389-d10194968-Reviews-Rua_dos_Bancos-Ouro_Preto_State_of_Minas_Gerais.html
Casa de Tomás Antônio Gonzaga,Rua Claudio Manoel 61 | Ouro Preto | Minas Gerais 35400-000 Brasil,Ouro Preto ,4.5,111,-20.385570526123047,-43.50301742553711,https://www.tripadvisor.com.br/Attraction_Review-g303389-d7296806-Reviews-Casa_de_Tomas_Antonio_Gonzaga-Ouro_Preto_State_of_Minas_Gerais.html
Museu Casa Guignard,Rua Conde de Bobadela (Rua Direita) | 110 | Ouro Preto | Minas Gerais 35400-000 Brasil,Ouro Preto ,4.0,92,-20.385278701782227,-43.50483322143555,https://www.tripadvisor.com.br/Attraction_Review-g303389-d2389273-Reviews-Guignard_House_Museum-Ouro_Preto_State_of_Minas_Gerais.html
Ponte de Antonio Dias,Rua da Conceicao 133 | Ouro Preto | Minas Gerais 35400-000 Brasil,Ouro Preto ,5.0,17,-20.386606216430664,-43.50065231323242,https://www.tripadvisor.com.br/Attraction_Review-g303389-d10108779-Reviews-Ponte_de_Antonio_Dias-Ouro_Preto_State_of_Minas_Gerais.html
Museu da Pharmacia,Rua Costa Sena | 171 | Ouro Preto | Minas Gerais 35400-000 Brasil,Ouro Preto ,4.5,62,-20.386829376220703,-43.50413131713867,https://www.tripadvisor.com.br/Attraction_Review-g303389-d2389334-Reviews-Museu_da_Pharmacia-Ouro_Preto_State_of_Minas_Gerais.html
Museu do Aleijadinho,Praça Antônio Dias - sacristia da Matriz N.S. da Conceição | Ouro Preto | Minas Gerais 35400-000 Brasil,Ouro Preto ,4.0,253,-20.386980056762695,-43.5004997253418,https://www.tripadvisor.com.br/Attraction_Review-g303389-d2389349-Reviews-Aleijadinho_Museum-Ouro_Preto_State_of_Minas_Gerais.html
Igreja São Francisco de Paula,Rua Henrique Adeodato | s/n | Ouro Preto | Minas Gerais 35400-000 Brasil,Ouro Preto ,4.0,210,-20.382219314575195,-43.50912094116211,https://www.tripadvisor.com.br/Attraction_Review-g303389-d2389315-Reviews-Sao_Francisco_de_Paula_church-Ouro_Preto_State_of_Minas_Gerais.html
Igreja Nossa Senhora das Mercês e Misericórdia,Rua Felipe dos Santos 134 Antônio Dias | Ouro Preto | Minas Gerais 35400-000 Brasil,Ouro Preto ,4.0,105,-20.387529373168945,-43.50143051147461,https://www.tripadvisor.com.br/Attraction_Review-g303389-d7050530-Reviews-Igreja_Nossa_Senhora_das_Merces_e_Misericordia-Ouro_Preto_State_of_Minas_Gerais.html
Igreja Matriz N S da Conceição,Praça Antônio Dias | Ouro Preto | Minas Gerais 35400-000 Brasil,Ouro Preto ,4.5,166,-20.390079498291016,-43.506629943847656,https://www.tripadvisor.com.br/Attraction_Review-g303389-d2389295-Reviews-Our_Lady_of_Conceicao_church-Ouro_Preto_State_of_Minas_Gerais.html
Largo Marília de Dirceu,Rua Santa Ifigênia Antonio Dias | Ouro Preto | Minas Gerais Brasil,Ouro Preto ,4.0,15,-20.399709701538086,-43.50020980834961,https://www.tripadvisor.com.br/Attraction_Review-g303389-d10082918-Reviews-Largo_Marilia_de_Dirceu-Ouro_Preto_State_of_Minas_Gerais.html
Parque Natural Municipal Das Andorinhas,Santa Rita de Ouro Preto | Ouro Preto | Minas Gerais Brasil,Santa Rita de Ouro Preto ,4.5,34,-20.361112594604492,-43.48897171020508,https://www.tripadvisor.com.br/Attraction_Review-g3845586-d6467873-Reviews-Parque_Natural_Municipal_Das_Andorinhas-Santa_Rita_de_Ouro_Preto_Ouro_Preto_Stat.html
Cachoeira das Andorinhas,Rua das Andorinhas | s/n Parque Natural Municipal das Andorinhas | Ouro Preto | Minas Gerais 76600-000 Brasil,Ouro Preto ,4.5,61,-15.885766983032227,-50.18660354614258,https://www.tripadvisor.com.br/Attraction_Review-g303389-d2414761-Reviews-Andorinhas_Waterfall-Ouro_Preto_State_of_Minas_Gerais.html
Casa Da Opera,Rua Brigadeiro Musqueira Centro | Ouro Preto | Minas Gerais 35400-000 Brasil,Ouro Preto ,4.0,50,-20.385631561279297,-43.504981994628906,https://www.tripadvisor.com.br/Attraction_Review-g303389-d6406925-Reviews-Casa_Da_Opera-Ouro_Preto_State_of_Minas_Gerais.html
Teatro de Ouro Preto,Rua Diogo de Vasconcelos | 328 | Ouro Preto | Minas Gerais 35400-000 Brasil,Ouro Preto ,4.5,102,-20.385833740234375,-43.504825592041016,https://www.tripadvisor.com.br/Attraction_Review-g303389-d4127534-Reviews-Ouro_Preto_Theater-Ouro_Preto_State_of_Minas_Gerais.html
Floresta Estadual Uaimii,Rodovia BR 356 | Km 98 São Bartolomeu | Ouro Preto | Minas Gerais 35400-000 Brasil,Ouro Preto ,4.5,7,-20.388370513916016,-43.498008728027344,https://www.tripadvisor.com.br/Attraction_Review-g303389-d15514341-Reviews-Floresta_Estadual_Uaimii-Ouro_Preto_State_of_Minas_Gerais.html
Capela do Padre Faria,Rua Nossa Senhora do Parto | Ouro Preto | Minas Gerais 35400-000 Brasil,Ouro Preto ,5.0,10,-20.387880325317383,-43.49150085449219,https://www.tripadvisor.com.br/Attraction_Review-g303389-d13076682-Reviews-Capela_do_Padre_Faria-Ouro_Preto_State_of_Minas_Gerais.html
Largo do Rosário,indef,Ouro Preto ,4.5,12,0.0,0.0,https://www.tripadvisor.com.br/Attraction_Review-g303389-d10269288-Reviews-Largo_do_Rosario-Ouro_Preto_State_of_Minas_Gerais.html
Museu de Arte Sacra,Praça Monsenhor Castilho Barbosa - subsolo da Matriz de N.S. do Pilar | Ouro Preto | Minas Gerais Brasil,Ouro Preto ,4.0,127,-20.386699676513672,-43.50768280029297,https://www.tripadvisor.com.br/Attraction_Review-g303389-d2389346-Reviews-Museu_de_Arte_Sacra-Ouro_Preto_State_of_Minas_Gerais.html
Museu de Arte Religiosa Paróquia do Pilar,Praca Monsenhor Castilho Barbosa | 17 Pilar | Ouro Preto | Minas Gerais 35400-000 Brasil,Ouro Preto ,4.5,52,-20.386600494384766,-43.507816314697266,https://www.tripadvisor.com.br/Attraction_Review-g303389-d4376909-Reviews-Paroquia_do_Pilar_Religious_Arts_Museum-Ouro_Preto_State_of_Minas_Gerais.html
Casa do Pilar,Rua do Pilar | 76 Pilar | Ouro Preto | Minas Gerais Brasil,Ouro Preto ,4.5,4,-20.386699676513672,-43.506568908691406,https://www.tripadvisor.com.br/Attraction_Review-g303389-d10085038-Reviews-Casa_do_Pilar-Ouro_Preto_State_of_Minas_Gerais.html
SESI Ouro Preto - Centro Cultural e Turistico do Sistema FIEMG,Praça Tiradentes | 4 | Ouro Preto | Minas Gerais 35400-000 Brasil,Ouro Preto ,4.0,23,-20.38607406616211,-43.5037727355957,https://www.tripadvisor.com.br/Attraction_Review-g303389-d9795642-Reviews-SESI_Ouro_Preto_Centro_Cultural_e_Turistico_do_Sistema_FIEMG-Ouro_Preto_State_of_.html
Morro da Forca,Rua Pacifico Homem | Ouro Preto | Minas Gerais 35400-000 Brasil,Ouro Preto ,3.5,14,-20.388599395751953,-43.50584030151367,https://www.tripadvisor.com.br/Attraction_Review-g303389-d10117321-Reviews-Morro_da_Forca-Ouro_Preto_State_of_Minas_Gerais.html
Our Lady of the Rosario Church,Ouro Preto | Minas Gerais 35400-000 Brasil,Ouro Preto ,4.5,55,-20.387849807739258,-43.49296188354492,https://www.tripadvisor.com.br/Attraction_Review-g303389-d2389266-Reviews-Our_Lady_of_the_Rosario_Church-Ouro_Preto_State_of_Minas_Gerais.html
Igreja Nossa Senhora das Mercês e Perdões,Rua das Merces | Ouro Preto | Minas Gerais 35400-000 Brasil,Ouro Preto ,4.0,20,-20.387630462646484,-43.50236892700195,https://www.tripadvisor.com.br/Attraction_Review-g303389-d9996152-Reviews-Igreja_Nossa_Senhora_das_Merces_e_Perdoes-Ouro_Preto_State_of_Minas_Gerais.html
Museu do Chá,Rodovia do Contorno | Ouro Preto | Minas Gerais 35400-000 Brasil,Ouro Preto ,4.0,16,-20.295970916748047,-43.6450309753418,https://www.tripadvisor.com.br/Attraction_Review-g303389-d4376906-Reviews-Tea_Museum-Ouro_Preto_State_of_Minas_Gerais.html
Atelie Paulo Valadares,Praça Tiradentes 132 | Ouro Preto | Minas Gerais 35400-000 Brasil,Ouro Preto ,5.0,6,-20.38574981689453,-43.503849029541016,https://www.tripadvisor.com.br/Attraction_Review-g303389-d12664008-Reviews-Atelie_Paulo_Valadares-Ouro_Preto_State_of_Minas_Gerais.html
Igreja São Miguel e Almas (Bom Jesus Matosinhos),Rua Alvarenga Peixoto | s/n Cabeças | Ouro Preto | Minas Gerais 35400-000 Brasil,Ouro Preto ,4.0,34,-20.381790161132812,-43.515560150146484,https://www.tripadvisor.com.br/Attraction_Review-g303389-d2389317-Reviews-Sao_Miguel_e_Almas_Bom_Jesus_Matosinhos_church-Ouro_Preto_State_of_Minas_Gerais.html
Centro de Artes e Convenções da UFOP,Rua Diogo de Vasconcelos | 328 Bairro Pilar | Ouro Preto | Minas Gerais 35400-000 Brasil,Ouro Preto ,4.5,64,-20.389497756958008,-43.506832122802734,https://www.tripadvisor.com.br/Attraction_Review-g303389-d4976493-Reviews-Centro_de_Artes_e_Convencoes_da_UFOP-Ouro_Preto_State_of_Minas_Gerais.html
Largo de Coimbra,indef,Ouro Preto ,4.5,11,0.0,0.0,https://www.tripadvisor.com.br/Attraction_Review-g303389-d10088000-Reviews-Largo_de_Coimbra-Ouro_Preto_State_of_Minas_Gerais.html
Mosteiro Zen Budista Pico de Raios,Rua Rio Piracicapa | 390 - Morro São Sebastião | Ouro Preto | Minas Gerais Brasil,Ouro Preto ,4.0,10,-20.376670837402344,-43.49674987792969,https://www.tripadvisor.com.br/Attraction_Review-g303389-d2389329-Reviews-Pico_de_Raios_Zen_Buddhist_monastery-Ouro_Preto_State_of_Minas_Gerais.html
Praça Reinaldo Alves de Brito,Praca Reinaldo Alves de Brito sn | Ouro Preto | Minas Gerais 35400-000 Brasil,Ouro Preto ,4.0,4,-20.384899139404297,-43.50577163696289,https://www.tripadvisor.com.br/Attraction_Review-g303389-d10082877-Reviews-Praca_Reinaldo_Alves_de_Brito-Ouro_Preto_State_of_Minas_Gerais.html
Josimar Guimarães - Escritório de Arte,Rua Claudio Manoel 130 | Ouro Preto | Minas Gerais 35400-000 Brasil,Ouro Preto ,5.0,32,-20.386028289794922,-43.50227355957031,https://www.tripadvisor.com.br/Attraction_Review-g303389-d10556989-Reviews-Josimar_Guimaraes_Escritorio_de_Arte-Ouro_Preto_State_of_Minas_Gerais.html
Museu Aberto Cidade Viva,Rua Sao Jose n 132 Centro | Ouro Preto | Minas Gerais 35400-000 Brasil,Ouro Preto ,4.5,49,-20.38460922241211,-43.50716018676758,https://www.tripadvisor.com.br/Attraction_Review-g303389-d4376915-Reviews-Aberto_Cidade_Viva_Museum-Ouro_Preto_State_of_Minas_Gerais.html
Observatório Astronômico da Escola de Minas,Praca Tiradentes 20 Centro | Ouro Preto | Minas Gerais 35400-000 Brasil,Ouro Preto ,4.5,6,-20.386077880859375,-43.50374984741211,https://www.tripadvisor.com.br/Attraction_Review-g303389-d10084220-Reviews-Observatorio_Astronomico_da_Escola_de_Minas-Ouro_Preto_State_of_Minas_Gerais.html
Ponte dos Contos,Rua São José | Ouro Preto | Minas Gerais 35400-000 Brasil,Ouro Preto ,4.5,7,-20.349550247192383,-43.67607116699219,https://www.tripadvisor.com.br/Attraction_Review-g303389-d10205226-Reviews-Ponte_dos_Contos-Ouro_Preto_State_of_Minas_Gerais.html
Casa da Baronesa,Praca Tiradentes No 33 Iphan | Ouro Preto | Minas Gerais 35400-000 Brasil,Ouro Preto ,4.5,3,-20.38581657409668,-43.50367736816406,https://www.tripadvisor.com.br/Attraction_Review-g303389-d10083131-Reviews-Casa_da_Baronesa-Ouro_Preto_State_of_Minas_Gerais.html
Caminho dos Diamantes da Estrada Real,indef,Ouro Preto ,4.5,3,0.0,0.0,https://www.tripadvisor.com.br/Attraction_Review-g303389-d10064355-Reviews-Caminho_dos_Diamantes_da_Estrada_Real-Ouro_Preto_State_of_Minas_Gerais.html
Igreja de São José,Rua Teixeira Amaral | Ouro Preto | Minas Gerais 35400-000 Brasil,Ouro Preto ,4.0,51,-20.384780883789062,-43.50790023803711,https://www.tripadvisor.com.br/Attraction_Review-g303389-d7195241-Reviews-Igreja_de_Sao_Jose-Ouro_Preto_State_of_Minas_Gerais.html
Mina Treze de Maio - Casa de Mineração,Rua 13 de Maio N°67 | Ouro Preto | Minas Gerais Brasil,Ouro Preto ,4.0,8,-20.385269165039062,-43.49591827392578,https://www.tripadvisor.com.br/Attraction_Review-g303389-d12947713-Reviews-Mina_Treze_de_Maio_Casa_de_Mineracao-Ouro_Preto_State_of_Minas_Gerais.html
Casa de Alphonsus de Guimaraens,Rua Sao Jose 165 Centro | Ouro Preto | Minas Gerais 35400-000 Brasil,Ouro Preto ,4.5,4,-20.384946823120117,-43.50710678100586,https://www.tripadvisor.com.br/Attraction_Review-g303389-d10083175-Reviews-Casa_de_Alphonsus_de_Guimaraens-Ouro_Preto_State_of_Minas_Gerais.html
Estação Ecológica do Tripuí,Vale do Córrego Tripuí | Ouro Preto | Minas Gerais Brasil,Ouro Preto ,4.5,29,-20.31641960144043,-43.57683181762695,https://www.tripadvisor.com.br/Attraction_Review-g303389-d2389277-Reviews-Estacao_Ecologica_do_Tripui-Ouro_Preto_State_of_Minas_Gerais.html
Cachoeira Bigode do Chinês,Victorino Dias | Ouro Preto | Minas Gerais 35400-000 Brasil,Ouro Preto ,4.0,7,-20.389690399169922,-43.506710052490234,https://www.tripadvisor.com.br/Attraction_Review-g303389-d10037896-Reviews-Cachoeira_Bigode_do_Chines-Ouro_Preto_State_of_Minas_Gerais.html
Capela de Nossa Senhora das Dores do Monte Calvário,R. Prof. Hermínio Barbosa Antonio Dias | Ouro Preto | Minas Gerais Brasil,Ouro Preto ,5.0,5,-20.38956069946289,-43.49895095825195,https://www.tripadvisor.com.br/Attraction_Review-g303389-d10034311-Reviews-Capela_de_Nossa_Senhora_das_Dores_do_Monte_Calvario-Ouro_Preto_State_of_Minas_Ge.html
Igreja De Glaura,indef,Ouro Preto ,4.0,21,0.0,0.0,https://www.tripadvisor.com.br/Attraction_Review-g303389-d6436843-Reviews-Igreja_De_Glaura-Ouro_Preto_State_of_Minas_Gerais.html
Chafariz Marília de Dirceu,Largo Marilia de Dirceu Bairro Antônio Dias | Ouro Preto | Minas Gerais 35400-000 Brasil,Ouro Preto ,3.5,43,-20.317930221557617,-43.68659973144531,https://www.tripadvisor.com.br/Attraction_Review-g303389-d7331520-Reviews-Chafariz_Marilia_de_Dirceu-Ouro_Preto_State_of_Minas_Gerais.html
Passo de Antônio Dias,Rua Claudio Manoel sn | Ouro Preto | Minas Gerais 35400-000 Brasil,Ouro Preto ,4.0,12,-20.385770797729492,-43.50265121459961,https://www.tripadvisor.com.br/Attraction_Review-g303389-d10034756-Reviews-Passo_de_Antonio_Dias-Ouro_Preto_State_of_Minas_Gerais.html
Prédio do Ministério Público,Praca Reinaldo Alves de Brito 68 | Ouro Preto | Minas Gerais 35400-000 Brasil,Ouro Preto ,4.5,2,-20.384899139404297,-43.50577163696289,https://www.tripadvisor.com.br/Attraction_Review-g303389-d10195167-Reviews-Predio_do_Ministerio_Publico-Ouro_Preto_State_of_Minas_Gerais.html
Mirante da Igreja S. Francisco de Paula,Rua Sao Francisco de Paula | Ouro Preto | Minas Gerais 35400-000 Brasil,Ouro Preto ,4.5,12,-20.38205909729004,-43.507659912109375,https://www.tripadvisor.com.br/Attraction_Review-g303389-d10083078-Reviews-Mirante_da_Igreja_S_Francisco_de_Paula-Ouro_Preto_State_of_Minas_Gerais.html
Largo da Alegria,Rua Sao Jose Praça Silviano Brandão | Ouro Preto | Minas Gerais 35400-000 Brasil,Ouro Preto ,4.0,5,-20.384559631347656,-43.5070915222168,https://www.tripadvisor.com.br/Attraction_Review-g303389-d10056606-Reviews-Largo_da_Alegria-Ouro_Preto_State_of_Minas_Gerais.html
Ponte da Barra,Rua Antonio Martins |3 | Ouro Preto | Minas Gerais Brasil,Ouro Preto ,4.0,4,-20.390750885009766,-43.50157928466797,https://www.tripadvisor.com.br/Attraction_Review-g303389-d10034886-Reviews-Ponte_da_Barra-Ouro_Preto_State_of_Minas_Gerais.html
Mina Felipe dos Santos,Rua Treze de Maio | 637 Alto da Cruz | Ouro Preto | Minas Gerais Brasil,Ouro Preto ,3.0,36,-20.384199142456055,-43.490840911865234,https://www.tripadvisor.com.br/Attraction_Review-g303389-d2389323-Reviews-Felipe_dos_Santos_mine-Ouro_Preto_State_of_Minas_Gerais.html
Chafariz do Museu da Inconfidência,Praca Tiradentes sn | Ouro Preto | Minas Gerais 35400-000 Brasil,Ouro Preto ,4.0,14,-20.385000228881836,-43.50352096557617,https://www.tripadvisor.com.br/Attraction_Review-g303389-d10173716-Reviews-Chafariz_do_Museu_da_Inconfidencia-Ouro_Preto_State_of_Minas_Gerais.html
Oratório do Vira-Saia,Rua Barao do Ouro Branco | Ouro Preto | Minas Gerais 35400-000 Brasil,Ouro Preto ,4.0,5,-20.388370513916016,-43.498008728027344,https://www.tripadvisor.com.br/Attraction_Review-g303389-d10034731-Reviews-Oratorio_do_Vira_Saia-Ouro_Preto_State_of_Minas_Gerais.html
Oratório Nossa Senhora do Bonsucesso,Rua Bernardo de Vasconcelos | 55 | Ouro Preto | Minas Gerais 35400-000 Brasil,Ouro Preto ,4.0,23,-20.529903411865234,-43.552059173583984,https://www.tripadvisor.com.br/Attraction_Review-g303389-d7297004-Reviews-Oratorio_Nossa_Senhora_do_Bonsucesso-Ouro_Preto_State_of_Minas_Gerais.html
Casa da Câmara,Praca Tiradentes 41 | Ouro Preto | Minas Gerais 35400-000 Brasil,Ouro Preto ,4.5,3,-20.38534927368164,-43.50347137451172,https://www.tripadvisor.com.br/Attraction_Review-g303389-d10178046-Reviews-Casa_da_Camara-Ouro_Preto_State_of_Minas_Gerais.html
Fórum,Praca Reinaldo Alves de Brito 13 | Ouro Preto | Minas Gerais 35400-000 Brasil,Ouro Preto ,4.0,4,-20.384370803833008,-43.50593948364258,https://www.tripadvisor.com.br/Attraction_Review-g303389-d10056644-Reviews-Forum-Ouro_Preto_State_of_Minas_Gerais.html
Mirante da Rua Getúlio Vargas,Rua Getulio Vargas | Ouro Preto | Minas Gerais 35400-000 Brasil,Ouro Preto ,4.0,10,-20.38368034362793,-43.509178161621094,https://www.tripadvisor.com.br/Attraction_Review-g303389-d9754942-Reviews-Mirante_da_Rua_Getulio_Vargas-Ouro_Preto_State_of_Minas_Gerais.html
Câmara Municipal,Praca Tiradentes 41 Centro | Ouro Preto | Minas Gerais 35400-000 Brasil,Ouro Preto ,4.0,4,-20.385189056396484,-43.50364685058594,https://www.tripadvisor.com.br/Attraction_Review-g303389-d10083107-Reviews-Camara_Municipal-Ouro_Preto_State_of_Minas_Gerais.html
Passos da Paixão de Jesus Cristo,Rua Alvarenga 218 | Ouro Preto | Minas Gerais 35400-000 Brasil,Ouro Preto ,4.0,5,-20.383041381835938,-43.51360321044922,https://www.tripadvisor.com.br/Attraction_Review-g303389-d10034095-Reviews-Passos_da_Paixao_de_Jesus_Cristo-Ouro_Preto_State_of_Minas_Gerais.html
Chafariz da Rua Barão de Ouro Branco,Rua Barao do Ouro Branco Antonio Dias | Ouro Preto | Minas Gerais 35400-000 Brasil,Ouro Preto ,4.0,4,-20.388370513916016,-43.498008728027344,https://www.tripadvisor.com.br/Attraction_Review-g303389-d10082893-Reviews-Chafariz_da_Rua_Barao_de_Ouro_Branco-Ouro_Preto_State_of_Minas_Gerais.html
Fundação de Arte de Ouro Preto - FAOP,Rua Getulio Vargas 185 | Ouro Preto | Minas Gerais 35400-000 Brasil,Ouro Preto ,4.5,4,-20.384159088134766,-43.50876998901367,https://www.tripadvisor.com.br/Attraction_Review-g303389-d10083159-Reviews-Fundacao_de_Arte_de_Ouro_Preto_FAOP-Ouro_Preto_State_of_Minas_Gerais.html
Ponte do Rosário ou Caquende,Rua Bernardo Guimaraes | Ouro Preto | Minas Gerais 35400-000 Brasil,Ouro Preto ,4.0,3,-20.38372039794922,-43.51123046875,https://www.tripadvisor.com.br/Attraction_Review-g303389-d10082714-Reviews-Ponte_do_Rosario_ou_Caquende-Ouro_Preto_State_of_Minas_Gerais.html
Mina do Bijoca,indef,Ouro Preto ,4.5,4,0.0,0.0,https://www.tripadvisor.com.br/Attraction_Review-g303389-d19950864-Reviews-Mina_do_Bijoca-Ouro_Preto_State_of_Minas_Gerais.html
Chafariz dos Contos,Praca Reinaldo Alves de Brito sn ao lado da Casa dos Contos | Ouro Preto | Minas Gerais 35400-000 Brasil,Ouro Preto ,3.5,11,-20.384899139404297,-43.50577163696289,https://www.tripadvisor.com.br/Attraction_Review-g303389-d10034431-Reviews-Chafariz_dos_Contos-Ouro_Preto_State_of_Minas_Gerais.html
Chafariz da Barra,Praca Prefeito Amadeu Barbosa Barra | Ouro Preto | Minas Gerais 35400-000 Brasil,Ouro Preto ,3.5,2,-20.38960075378418,-43.498870849609375,https://www.tripadvisor.com.br/Attraction_Review-g303389-d10082785-Reviews-Chafariz_da_Barra-Ouro_Preto_State_of_Minas_Gerais.html
Passo da Flagelação,Rua Getulio Vargas | Ouro Preto | Minas Gerais 35400-000 Brasil,Ouro Preto ,4.5,4,-20.384069442749023,-43.50876998901367,https://www.tripadvisor.com.br/Attraction_Review-g303389-d10082973-Reviews-Passo_da_Flagelacao-Ouro_Preto_State_of_Minas_Gerais.html
Centro Cultural Comunitario Casa do Padre Faria,Rua Padre Faria | 359 | Ouro Preto | Minas Gerais 35400-000 Brasil,Ouro Preto ,4.0,1,-20.387683868408203,-43.49358367919922,https://www.tripadvisor.com.br/Attraction_Review-g303389-d10088025-Reviews-Centro_Cultural_Comunitario_Casa_do_Padre_Faria-Ouro_Preto_State_of_Minas_Gerais.html
Chafariz da Rua das Cabeças,Rua Alvarenga 119 Cabeças | Ouro Preto | Minas Gerais 35400-000 Brasil,Ouro Preto ,4.5,3,-20.383699417114258,-43.51285171508789,https://www.tripadvisor.com.br/Attraction_Review-g303389-d10082859-Reviews-Chafariz_da_Rua_das_Cabecas-Ouro_Preto_State_of_Minas_Gerais.html
Chafariz do Alto da Cruz,Rua do Resende | sn esquina Rua Padre Faria | Ouro Preto | Minas Gerais Brasil,Ouro Preto ,5.0,2,-20.387338638305664,-43.494529724121094,https://www.tripadvisor.com.br/Attraction_Review-g303389-d10034848-Reviews-Chafariz_do_Alto_da_Cruz-Ouro_Preto_State_of_Minas_Gerais.html
Capela do Nosso Senhor do Bonfim,Rua Antonio de Albuquerque | Ouro Preto | Minas Gerais 35400-000 Brasil,Ouro Preto ,5.0,4,-20.386009216308594,-43.50802993774414,https://www.tripadvisor.com.br/Attraction_Review-g303389-d10034828-Reviews-Capela_do_Nosso_Senhor_do_Bonfim-Ouro_Preto_State_of_Minas_Gerais.html
Pratique Cicloturismo,Sitio Passa Dez Bairro Passa Dez | Ouro Preto | Minas Gerais 35400-000 Brasil,Ouro Preto ,5.0,2,-20.377710342407227,-43.521324157714844,https://www.tripadvisor.com.br/Attraction_Review-g303389-d12873288-Reviews-Pratique_Cicloturismo-Ouro_Preto_State_of_Minas_Gerais.html
Botica de Tiradentes,Rua Alvarenga | 7 Rosario | Ouro Preto | Minas Gerais 35400-000 Brasil,Ouro Preto ,4.0,5,-20.382389068603516,-43.51451873779297,https://www.tripadvisor.com.br/Attraction_Review-g303389-d10060141-Reviews-Botica_de_Tiradentes-Ouro_Preto_State_of_Minas_Gerais.html
Trilha do Veloso,indef,Ouro Preto ,5.0,1,0.0,0.0,https://www.tripadvisor.com.br/Attraction_Review-g303389-d19913178-Reviews-Trilha_do_Veloso-Ouro_Preto_State_of_Minas_Gerais.html
Coluna Saldanha Marinho,Rua Diogo de Vasconcelos Praça Cesário Alvim | Ouro Preto | Minas Gerais Brasil,Ouro Preto ,4.5,2,-20.388259887695312,-43.506919860839844,https://www.tripadvisor.com.br/Attraction_Review-g303389-d10034302-Reviews-Coluna_Saldanha_Marinho-Ouro_Preto_State_of_Minas_Gerais.html
Chafariz do Alto das Cabeças,Rua Alvarenga Cabeças | Ouro Preto | Minas Gerais 35400-000 Brasil,Ouro Preto ,4.5,3,-20.381790161132812,-43.51554870605469,https://www.tripadvisor.com.br/Attraction_Review-g303389-d10085016-Reviews-Chafariz_do_Alto_das_Cabecas-Ouro_Preto_State_of_Minas_Gerais.html
Ecomuseu da Serra de Ouro Preto,Praça Tiradentes | 20 Escola de Minas | sala 27 | Ouro Preto | Minas Gerais 35400-000 Brasil,Ouro Preto ,4.5,2,-20.386077880859375,-43.50374984741211,https://www.tripadvisor.com.br/Attraction_Review-g303389-d4410449-Reviews-The_Sierra_of_Black_Gold_Ecomuseum-Ouro_Preto_State_of_Minas_Gerais.html
Passo da Coroação de Espinhos,Rua Sao Jose sn | Ouro Preto | Minas Gerais 35400-000 Brasil,Ouro Preto ,4.0,4,-20.384559631347656,-43.5070915222168,https://www.tripadvisor.com.br/Attraction_Review-g303389-d10034451-Reviews-Passo_da_Coroacao_de_Espinhos-Ouro_Preto_State_of_Minas_Gerais.html
Chafariz do Alto das Cabeças,Rua Alvarenga Capela de Bom Jesus | Ouro Preto | Minas Gerais 35400-000 Brasil,Ouro Preto ,4.5,3,-20.381790161132812,-43.515560150146484,https://www.tripadvisor.com.br/Attraction_Review-g303389-d10034109-Reviews-Chafariz_do_Alto_das_Cabecas-Ouro_Preto_State_of_Minas_Gerais.html
Capela de Bom Jesus da Pedra Fria,Rua Alvarenga Cabeças | Ouro Preto | Minas Gerais 35400-000 Brasil,Ouro Preto ,4.0,3,-20.381790161132812,-43.51554870605469,https://www.tripadvisor.com.br/Attraction_Review-g303389-d10082956-Reviews-Capela_de_Bom_Jesus_da_Pedra_Fria-Ouro_Preto_State_of_Minas_Gerais.html
Chafariz do Rosário,Rua Professora Zizinha Cruz Largo do Rosário | Ouro Preto | Minas Gerais 35400-000 Brasil,Ouro Preto ,3.5,3,-20.383319854736328,-43.51042175292969,https://www.tripadvisor.com.br/Attraction_Review-g303389-d10082966-Reviews-Chafariz_do_Rosario-Ouro_Preto_State_of_Minas_Gerais.html
Passo da Cruz às Costas,Praca Tiradentes esquina Rua Conde de Bobadela | Ouro Preto | Minas Gerais 35400-000 Brasil,Ouro Preto ,3.5,3,-20.385000228881836,-43.50352096557617,https://www.tripadvisor.com.br/Attraction_Review-g303389-d10082952-Reviews-Passo_da_Cruz_as_Costas-Ouro_Preto_State_of_Minas_Gerais.html
Herbário Professor José Badini,Rua do Cruzeiro s/n Bauxita | Ouro Preto | Minas Gerais 35400-000 Brasil,Ouro Preto ,5.0,1,-20.38896942138672,-43.49515914916992,https://www.tripadvisor.com.br/Attraction_Review-g303389-d4375730-Reviews-Professor_Jose_Badini_Herbarium-Ouro_Preto_State_of_Minas_Gerais.html
Gruta Lapa Da Alzira,Não Tem | Lavras Novas | Ouro Preto | Minas Gerais 35418-000 Brasil,Lavras Novas ,5.0,1,-20.477590560913086,-43.51601028442383,https://www.tripadvisor.com.br/Attraction_Review-g2613515-d20910343-Reviews-Gruta_Lapa_Da_Alzira-Lavras_Novas_Ouro_Preto_State_of_Minas_Gerais.html
Biblioteca Pública Municipal,R. Xavier da Veiga | 309 | Ouro Preto | Minas Gerais Brasil,Ouro Preto ,5.0,0,-20.388160705566406,-43.5040397644043,https://www.tripadvisor.com.br/Attraction_Review-g303389-d12121693-Reviews-Biblioteca_Publica_Municipal-Ouro_Preto_State_of_Minas_Gerais.html
Transcotta,indef,Ouro Preto ,indef,0,0.0,0.0,https://www.tripadvisor.com.br/Attraction_Review-g303389-d16648609-Reviews-Transcotta-Ouro_Preto_State_of_Minas_Gerais.html
Casa De Claudio Manuel Da Costa,Rua Carlos Tomás nº: 6 Bairro Antonio Dias | Ouro Preto | Minas Gerais Brasil,Ouro Preto ,5.0,0,-20.386259078979492,-43.5020866394043,https://www.tripadvisor.com.br/Attraction_Review-g303389-d23020757-Reviews-Casa_De_Claudio_Manuel_Da_Costa-Ouro_Preto_State_of_Minas_Gerais.html
Praça Minas Gerais,Rua Dom Silvério | Mariana | Minas Gerais 35420-000 Brasil,Mariana ,4.5,566,-20.380239486694336,-43.4188117980957,https://www.tripadvisor.com.br/Attraction_Review-g303386-d6854713-Reviews-Praca_Minas_Gerais-Mariana_State_of_Minas_Gerais.html
Maria Fumaça Ouro Preto Mariana,Mariana | Brasil,Mariana ,4.0,0,-20.373254776000977,-43.4162712097168,https://www.tripadvisor.com.br/Attraction_Review-g303386-d2389606-Reviews-Maria_Fumaca_Ouro_Preto_Mariana-Mariana_State_of_Minas_Gerais.html
Minas da Passagem,R. Eugenio E. Rapallo | 192 | Mariana | Minas Gerais 35420-000 Brasil,Mariana ,4.0,1.406,-20.39212989807129,-43.43927001953125,https://www.tripadvisor.com.br/Attraction_Review-g303386-d2389589-Reviews-Minas_da_Passagem-Mariana_State_of_Minas_Gerais.html
Basílica de São Pedro dos Clérigos,Largo de São Pedro | Mariana | Minas Gerais 35420-000 Brasil,Mariana ,4.5,345,-20.383569717407227,-43.4186897277832,https://www.tripadvisor.com.br/Attraction_Review-g303386-d2389472-Reviews-Sao_Pedro_dos_Clerigos_Cathedral-Mariana_State_of_Minas_Gerais.html
Centro Histórico de Mariana,Mariana | Minas Gerais 35420-000 Brasil,Mariana ,4.0,402,-20.378192901611328,-43.41811752319336,https://www.tripadvisor.com.br/Attraction_Review-g303386-d7620319-Reviews-Centro_Historico_de_Mariana-Mariana_State_of_Minas_Gerais.html
Igreja N S do Carmo,Praça Minas Gerais | Mariana | Minas Gerais 35420-000 Brasil,Mariana ,4.5,235,-20.37813949584961,-43.41804885864258,https://www.tripadvisor.com.br/Attraction_Review-g303386-d2389578-Reviews-Our_Lady_of_Carmo_Church-Mariana_State_of_Minas_Gerais.html
Praça Gomes Freire,Rua Dom Viçoso | 1 | Mariana | Minas Gerais 35420-000 Brasil,Mariana ,4.5,216,-20.37980079650879,-43.416778564453125,https://www.tripadvisor.com.br/Attraction_Review-g303386-d6854689-Reviews-Praca_Gomes_Freire-Mariana_State_of_Minas_Gerais.html
Rua Direita,Rua Direita | Mariana | Minas Gerais 35420-000 Brasil,Mariana ,4.5,112,-20.377573013305664,-43.41770553588867,https://www.tripadvisor.com.br/Attraction_Review-g303386-d7620352-Reviews-Rua_Direita-Mariana_State_of_Minas_Gerais.html
Gruta da Lapa,Rua da Lapa 2 Distrito de Antônio Pereira | Mariana | Minas Gerais 35420-000 Brasil,Mariana ,4.0,33,-20.36874008178711,-43.415828704833984,https://www.tripadvisor.com.br/Attraction_Review-g303386-d2389567-Reviews-Gruta_da_Lapa-Mariana_State_of_Minas_Gerais.html
Cachoeira do Brumado,Ferrovia Mariana Ouro Preto Distrito do município de Mariana | MG | Mariana | Minas Gerais 35420-000 Brasil,Mariana ,4.0,68,-20.397724151611328,-43.272010803222656,https://www.tripadvisor.com.br/Attraction_Review-g303386-d313970-Reviews-Cachoeira_do_Bromado-Mariana_State_of_Minas_Gerais.html
Casa de Câmara e Cadeia,Praça Minas Gerais | 89 | Mariana | Minas Gerais 35420-000 Brasil,Mariana ,4.0,293,-20.378156661987305,-43.41809844970703,https://www.tripadvisor.com.br/Attraction_Review-g303386-d2389554-Reviews-Casa_de_Camara_e_Cadeia-Mariana_State_of_Minas_Gerais.html
Catedral Basílica da Sé,Praça Cláudio Manoel | Mariana | Minas Gerais 35420-000 Brasil,Mariana ,4.5,298,-20.20672035217285,-43.20355987548828,https://www.tripadvisor.com.br/Attraction_Review-g303386-d2389560-Reviews-Catedral_Basilica_da_Se-Mariana_State_of_Minas_Gerais.html
Museu Arquidiocesano de Arte Sacra,Rua Frei Durão | 49 | Mariana | Minas Gerais 35420-000 Brasil,Mariana ,4.5,83,-20.37875747680664,-43.416561126708984,https://www.tripadvisor.com.br/Attraction_Review-g303386-d2389593-Reviews-Museu_Arquidiocesano_de_Arte_Sacra-Mariana_State_of_Minas_Gerais.html
Pelourinho,Praca Minas Gerais | Mariana | Minas Gerais 35420-000 Brasil,Mariana ,4.0,157,-20.37819480895996,-43.41801452636719,https://www.tripadvisor.com.br/Attraction_Review-g303386-d7620419-Reviews-Pelourinho-Mariana_State_of_Minas_Gerais.html
Igreja São Francisco de Assis,Praça Minas Gerais | Mariana | Minas Gerais 35420-000 Brasil,Mariana ,4.0,164,-20.37813949584961,-43.41804885864258,https://www.tripadvisor.com.br/Attraction_Review-g303386-d2389585-Reviews-Sao_Francisco_de_Assis_Church-Mariana_State_of_Minas_Gerais.html
Museu Estação Ferroviária de Mariana,Praca Juscelino Kubitschek | Mariana | Minas Gerais 35420-000 Brasil,Mariana ,4.0,64,-20.3734130859375,-43.4168701171875,https://www.tripadvisor.com.br/Attraction_Review-g303386-d7620340-Reviews-Museu_Estacao_Ferroviaria_de_Mariana-Mariana_State_of_Minas_Gerais.html
Museu Casa Alphonsus de Guimaraens,Rua Direita | 35 | Mariana | Minas Gerais 35420-000 Brasil,Mariana ,4.0,20,-20.377777099609375,-43.41694259643555,https://www.tripadvisor.com.br/Attraction_Review-g303386-d2389520-Reviews-Museu_Casa_Alphonsus_de_Guimaraens-Mariana_State_of_Minas_Gerais.html
Igreja de São Pedro dos Clérigos,Rua Dom Silverio | S/N Colina de São Pedro | Mariana | Minas Gerais 35420-000 Brasil,Mariana ,5.0,11,-20.383333206176758,-43.418888092041016,https://www.tripadvisor.com.br/Attraction_Review-g303386-d14957757-Reviews-Igreja_de_Sao_Pedro_dos_Clerigos-Mariana_State_of_Minas_Gerais.html
Pico da Cartuxa,indef,Mariana ,5.0,5,0.0,0.0,https://www.tripadvisor.com.br/Attraction_Review-g303386-d10182518-Reviews-Cartuxa_Peak-Mariana_State_of_Minas_Gerais.html
Centro de Atenção ao Turismo (CAT),Rua Direita | 91 | Mariana | Minas Gerais 35420-000 Brasil,Mariana ,4.0,27,-20.37763023376465,-43.41748809814453,https://www.tripadvisor.com.br/Attraction_Review-g303386-d8746621-Reviews-Centro_de_Atencao_ao_Turismo_CAT-Mariana_State_of_Minas_Gerais.html
Igreja de Nossa Senhora do Rosário,Rua Monsenhor Horta 226 Bairro Rosário | Mariana | Minas Gerais 35420-000 Brasil,Mariana ,4.0,51,-20.373517990112305,-43.41984176635742,https://www.tripadvisor.com.br/Attraction_Review-g303386-d2389581-Reviews-Igreja_de_Nossa_Senhora_do_Rosario-Mariana_State_of_Minas_Gerais.html
Trem da Vale Ouro Preto - Mariana,Mariana | Brasil,Mariana ,4.5,0,-20.374113082885742,-43.41645050048828,https://www.tripadvisor.com.br/Attraction_Review-g303386-d13110539-Reviews-Trem_da_Vale_Ouro_Preto_e_Mariana-Mariana_State_of_Minas_Gerais.html
Museu da Música de Mariana,Rua Conego Amando 161 Chacara | Mariana | Minas Gerais 35420-000 Brasil,Mariana ,4.0,45,-20.38389015197754,-43.41609191894531,https://www.tripadvisor.com.br/Attraction_Review-g303386-d4376764-Reviews-Museu_da_Musica_de_Mariana-Mariana_State_of_Minas_Gerais.html
Praça Cláudio Manoel da Costa,Mariana | Minas Gerais 35420-000 Brasil,Mariana ,3.5,50,-20.378087997436523,-43.41633224487305,https://www.tripadvisor.com.br/Attraction_Review-g303386-d7620405-Reviews-Praca_Claudio_Manoel_da_Costa-Mariana_State_of_Minas_Gerais.html
Rua Frei Durão,Rua Frei Durao | Mariana | Minas Gerais 35420-000 Brasil,Mariana ,4.5,7,-20.37799072265625,-43.41619110107422,https://www.tripadvisor.com.br/Attraction_Review-g303386-d9878892-Reviews-Rua_Frei_Durao-Mariana_State_of_Minas_Gerais.html
Capela de Nossa Senhora dos Anjos,R. Dom Silvério | 304 | Mariana | Minas Gerais 35420-000 Brasil,Mariana ,4.5,9,-20.386131286621094,-43.41245651245117,https://www.tripadvisor.com.br/Attraction_Review-g303386-d12989597-Reviews-Chapel_of_Our_Lady_of_the_Angels-Mariana_State_of_Minas_Gerais.html
Museu Casa da Providência,Rua Dom Silverio 161 Centro | Mariana | Minas Gerais 35420-000 Brasil,Mariana ,4.0,19,-20.37980842590332,-43.41850280761719,https://www.tripadvisor.com.br/Attraction_Review-g303386-d4376765-Reviews-Casa_da_Providencia_Museum-Mariana_State_of_Minas_Gerais.html
Seminário Maior São José,Rua Conego Amando 57 | Mariana | Minas Gerais 35420-000 Brasil,Mariana ,4.0,7,-20.385950088500977,-43.41484069824219,https://www.tripadvisor.com.br/Attraction_Review-g303386-d9857015-Reviews-Seminario_Maior_Sao_Jose-Mariana_State_of_Minas_Gerais.html
Igreja Nossa Senhora das Mercês,Rua das Mercês | Mariana | Minas Gerais 35420-000 Brasil,Mariana ,3.5,15,-20.381980895996094,-43.41849899291992,https://www.tripadvisor.com.br/Attraction_Review-g303386-d8783232-Reviews-Igreja_Nossa_Senhora_das_Merces-Mariana_State_of_Minas_Gerais.html
Atelier e Casa dos Artistas "Mestre Ataíde",Rua Direita | 99 | Mariana | Minas Gerais 35420-000 Brasil,Mariana ,4.5,5,-20.377859115600586,-43.41720199584961,https://www.tripadvisor.com.br/Attraction_Review-g303386-d10034607-Reviews-Studio_and_Artists_House_Mestre_Ataide-Mariana_State_of_Minas_Gerais.html
Atelier Edney do Carmo,Rua Dom Silverio 418 | Mariana | Minas Gerais 35420-000 Brasil,Mariana ,5.0,6,-20.38224983215332,-43.419578552246094,https://www.tripadvisor.com.br/Attraction_Review-g303386-d9878888-Reviews-Atelier_Edney_do_Carmo-Mariana_State_of_Minas_Gerais.html
Casa do Barão de Pontal,Rua Direita 50 | Mariana | Minas Gerais 35420-000 Brasil,Mariana ,4.0,17,-20.37775993347168,-43.416969299316406,https://www.tripadvisor.com.br/Attraction_Review-g303386-d2389558-Reviews-Casa_Barao_de_Pontal-Mariana_State_of_Minas_Gerais.html
Cachoeiras da Passagem de Mariana,indef,Mariana ,4.0,20,0.0,0.0,https://www.tripadvisor.com.br/Attraction_Review-g303386-d2389475-Reviews-Passagem_de_Mariana_Waterfall-Mariana_State_of_Minas_Gerais.html
Chafariz São Francisco,Travessa Sao Francisco | Mariana | Minas Gerais 35420-000 Brasil,Mariana ,3.5,31,-20.378599166870117,-43.41756820678711,https://www.tripadvisor.com.br/Attraction_Review-g303386-d7620409-Reviews-Chafariz_Sao_Francisco-Mariana_State_of_Minas_Gerais.html
SESI - Teatro Mariana,Rua Frei Durao 22 | Mariana | Minas Gerais 35420-000 Brasil,Mariana ,4.0,18,-20.37883949279785,-43.41645050048828,https://www.tripadvisor.com.br/Attraction_Review-g303386-d4127202-Reviews-SESI_Mariana_Theater-Mariana_State_of_Minas_Gerais.html
Capela de Nossa Senhora da Boa Morte,Rua do Seminario s/n |Centro | Mariana | Minas Gerais 35420-000 Brasil,Mariana ,4.0,3,-20.38159942626953,-43.41501998901367,https://www.tripadvisor.com.br/Attraction_Review-g303386-d11694344-Reviews-Capela_de_Nossa_Senhora_da_Boa_Morte-Mariana_State_of_Minas_Gerais.html
Arquiconfraria de Sao Francisco Dos Cordoes,Rua Dom Silverio | Mariana | Minas Gerais 35420-000 Brasil,Mariana ,4.0,16,-20.380239486694336,-43.4188117980957,https://www.tripadvisor.com.br/Attraction_Review-g303386-d6838841-Reviews-Arquiconfraria_de_Sao_Francisco_Dos_Cordoes-Mariana_State_of_Minas_Gerais.html
Casa Setecentista,Rua Direita | 2 | Mariana | Minas Gerais 35420-000 Brasil,Mariana ,4.0,7,-20.378070831298828,-43.41651916503906,https://www.tripadvisor.com.br/Attraction_Review-g303386-d8782964-Reviews-Casa_Setecentista-Mariana_State_of_Minas_Gerais.html
Capela de São Jorge,Praça Minas Gerais | Mariana | Minas Gerais 35420-000 Brasil,Mariana ,4.0,8,-20.37813949584961,-43.41804885864258,https://www.tripadvisor.com.br/Attraction_Review-g303386-d10064179-Reviews-Sao_Jorge_Chapel-Mariana_State_of_Minas_Gerais.html
Capela de Santo Antônio,Rua do Rosário Velho Santo Antônio | Mariana | Minas Gerais 35420-000 Brasil,Mariana ,3.5,3,-20.375139236450195,-43.42068099975586,https://www.tripadvisor.com.br/Attraction_Review-g303386-d10037889-Reviews-Santo_Antonio_Chapel-Mariana_State_of_Minas_Gerais.html
Casa da Intendência,Rua Frei Durão 84 | Mariana | Minas Gerais 35420-000 Brasil,Mariana ,3.5,11,-20.3785400390625,-43.416221618652344,https://www.tripadvisor.com.br/Attraction_Review-g303386-d2389514-Reviews-Casa_da_Intendencia-Mariana_State_of_Minas_Gerais.html
Chafariz de Assumar,Travessa Sao Francisco 10 Centro | Mariana | Minas Gerais 35420-000 Brasil,Mariana ,4.5,3,-20.378755569458008,-43.41674041748047,https://www.tripadvisor.com.br/Attraction_Review-g303386-d10166478-Reviews-Chafariz_de_Assumar-Mariana_State_of_Minas_Gerais.html
Sociedade Musical União 15 de Novembro,Rua Direita 151 | Mariana | Minas Gerais 35420-000 Brasil,Mariana ,4.5,5,-20.37738037109375,-43.41810989379883,https://www.tripadvisor.com.br/Attraction_Review-g303386-d10134835-Reviews-Sociedade_Musical_Uniao_15_de_Novembro-Mariana_State_of_Minas_Gerais.html
Chafariz São Pedro,Rua Dom Silvério Largo de São Pedro | Mariana | Minas Gerais 35420-000 Brasil,Mariana ,4.0,8,-20.380239486694336,-43.4188117980957,https://www.tripadvisor.com.br/Attraction_Review-g303386-d8782839-Reviews-Chafariz_Sao_Pedro-Mariana_State_of_Minas_Gerais.html
Casa Conde de Assumar,Travessa Sao Francisco 22 Centro | Mariana | Minas Gerais 35420-000 Brasil,Mariana ,3.0,3,-20.378570556640625,-43.41741943359375,https://www.tripadvisor.com.br/Attraction_Review-g303386-d9856993-Reviews-Casa_Conde_de_Assumar-Mariana_State_of_Minas_Gerais.html
Passo do Pretório,Rua Dom Silverio | Mariana | Minas Gerais 35420-000 Brasil,Mariana ,4.0,4,-20.380239486694336,-43.4188117980957,https://www.tripadvisor.com.br/Attraction_Review-g303386-d9856906-Reviews-Passo_do_Pretorio-Mariana_State_of_Minas_Gerais.html
Passo da Ponte da Areia,Rua da Gloria 63 | Mariana | Minas Gerais 35420-000 Brasil,Mariana ,4.0,4,-20.376890182495117,-43.419189453125,https://www.tripadvisor.com.br/Attraction_Review-g303386-d10173532-Reviews-Passo_da_Ponte_da_Areia-Mariana_State_of_Minas_Gerais.html
Espaco da Cultura Navegante – Atelie Catin Nardi,Rua do Seminario 290 Centro | Mariana | Minas Gerais 35420-000 Brasil,Mariana ,4.0,2,-20.379718780517578,-43.417755126953125,https://www.tripadvisor.com.br/Attraction_Review-g303386-d8520889-Reviews-Espaco_da_Cultura_Navegante_Atelie_Catin_Nardi-Mariana_State_of_Minas_Gerais.html
