restaurante_id,nome,endereco,cidade,nota,qtd_avaliacoes,faixa_preco,latitude,longitude,fonte
2665712,No Ateliê do Abrahão - Cerâmica e Cozinha,"Rua dois, 29, Brumadinho, Minas Gerais 35460-000 Brasil",Brumadinho ,4.5,284,$$ - $$$,-20.16195297241211,-44.19770431518555,https://www.tripadvisor.com.br/Restaurant_Review-g1747395-d2665712-Reviews-No_Atelie_do_Abrahao_Ceramica_e_Cozinha-Brumadinho_State_of_Minas_Gerais.html
2299741,Restaurante Tamboril,"Rua B 20 Inhotim, Brumadinho, Minas Gerais 35460-000 Brasil",Brumadinho ,4.5,1285,$$ - $$$,-20.121992111206055,-44.219905853271484,https://www.tripadvisor.com.br/Restaurant_Review-g1747395-d2299741-Reviews-Restaurante_Tamboril-Brumadinho_State_of_Minas_Gerais.html
14921581,Bistrô Verde Villas,"Avenida Nossa Senhora do Belo Ramo 43, Brumadinho, Minas Gerais 35460-000 Brasil",Brumadinho ,5.0,75,$$ - $$$,-20.145605087280273,-44.197364807128906,https://www.tripadvisor.com.br/Restaurant_Review-g1747395-d14921581-Reviews-Bistro_Verde_Villas-Brumadinho_State_of_Minas_Gerais.html
10761550,Cafe das Flores,"Rua B, 35460 000 Inhotim, Brumadinho, Minas Gerais 35460-000 Brasil",Brumadinho ,4.0,227,$$ - $$$,-20.124021530151367,-44.21877670288086,https://www.tripadvisor.com.br/Restaurant_Review-g1747395-d10761550-Reviews-Cafe_das_Flores-Brumadinho_State_of_Minas_Gerais.html
2423807,Restaurante Abóbora,"Avenida Casa Branca 586 Recanto da Aldeia, Brumadinho, Minas Gerais 35460-000 Brasil",Brumadinho ,4.5,359,$$ - $$$,-20.083295822143555,-44.04380798339844,https://www.tripadvisor.com.br/Restaurant_Review-g1747395-d2423807-Reviews-Restaurante_Abobora-Brumadinho_State_of_Minas_Gerais.html
7624738,Karangos Restaurante,"Praca A 48 Casa Branca, Brumadinho, Minas Gerais 35460-000 Brasil",Brumadinho ,4.5,148,$$ - $$$,-20.095293045043945,-44.04642868041992,https://www.tripadvisor.com.br/Restaurant_Review-g1747395-d7624738-Reviews-Karangos_Casa_Branca-Brumadinho_State_of_Minas_Gerais.html
5869129,Restaurante Oiticica ,"Avenida Inhotim, Brumadinho, Minas Gerais 35460-000 Brasil",Brumadinho ,4.0,1367,$$ - $$$,-20.123523712158203,-44.21757125854492,https://www.tripadvisor.com.br/Restaurant_Review-g1747395-d5869129-Reviews-Restaurante_Oiticica-Brumadinho_State_of_Minas_Gerais.html
2423809,Rancho do Peixe Restaurante Fazenda,"Sitio Rancho do Rancho - Encosta da Serra da Moeda Pela BR 040, acesso para Inhotim na saída do KM 567, Brumadinho, Minas Gerais 35460-000 Brasil",Brumadinho ,4.0,149,$$ - $$$,-20.20028305053711,-44.02359390258789,https://www.tripadvisor.com.br/Restaurant_Review-g1747395-d2423809-Reviews-Rancho_do_Peixe_Restaurante_Fazenda-Brumadinho_State_of_Minas_Gerais.html
4830780,EMPÓRIO  FAZENDINHA,"Rodovia MG 040 KM 48, Brumadinho, Minas Gerais 35460-000 Brasil",Brumadinho ,4.0,181,$$ - $$$,-20.123685836791992,-44.199920654296875,https://www.tripadvisor.com.br/Restaurant_Review-g1747395-d4830780-Reviews-Emporio_Fazendinha-Brumadinho_State_of_Minas_Gerais.html
19115561,Encontro da Pizza,"Rua Republica da Argentina 75 Bairro Santo Antonio, Brumadinho, Minas Gerais 35460-000 Brasil",Brumadinho ,5.0,25,$$ - $$$,-20.139259338378906,-44.20246124267578,https://www.tripadvisor.com.br/Restaurant_Review-g1747395-d19115561-Reviews-Encontro_da_Pizza-Brumadinho_State_of_Minas_Gerais.html
5869313,Restaurante ao Pé do Jatobá,"Rua Do Jatoba, S/N, Brumadinho, Minas Gerais 35460-000 Brasil",Brumadinho ,4.0,206,$$ - $$$,-20.101388931274414,-44.05384063720703,https://www.tripadvisor.com.br/Restaurant_Review-g1747395-d5869313-Reviews-Restaurante_ao_Pe_do_Jatoba-Brumadinho_State_of_Minas_Gerais.html
2423811,Nossa Fazendinha,"Rodovia MG 040 Centro, Brumadinho, Minas Gerais 35460-000 Brasil",Brumadinho ,4.0,178,$$ - $$$,-20.12398910522461,-44.20005798339844,https://www.tripadvisor.com.br/Restaurant_Review-g1747395-d2423811-Reviews-Nossa_Fazendinha-Brumadinho_State_of_Minas_Gerais.html
5868475,Restaurante Estalagem do Mirante,"Av. Nair Martins Drumond, 1000 Retiro do Chalé, Brumadinho, Minas Gerais Brasil",Brumadinho ,4.0,73,$$ - $$$,-20.194290161132812,-43.98353958129883,https://www.tripadvisor.com.br/Restaurant_Review-g1747395-d5868475-Reviews-Restaurante_Estalagem_do_Mirante-Brumadinho_State_of_Minas_Gerais.html
15118224,A Cachaçaria Itinerante,"Avenida Sao Francisco 477 Consulte Antes De Vir. Somos Itinerantes, Brumadinho, Minas Gerais 35460-000 Brasil",Brumadinho ,5.0,20,$$ - $$$,-20.188722610473633,-44.011600494384766,https://www.tripadvisor.com.br/Restaurant_Review-g1747395-d15118224-Reviews-A_Cachacaria_Itinerante-Brumadinho_State_of_Minas_Gerais.html
5961108,Restaurante Verde Folhas,"Alameda do Jacarandá, 170 Recanto da Aldeia, Brumadinho, Minas Gerais 35460-000 Brasil",Brumadinho ,4.0,84,$$ - $$$,-20.08915901184082,-44.052215576171875,https://www.tripadvisor.com.br/Restaurant_Review-g1747395-d5961108-Reviews-Restaurante_Verde_Folhas-Brumadinho_State_of_Minas_Gerais.html
12330227,Di Pozza Ristorante,"Rua Chicona 159, Brumadinho, Minas Gerais 35460-000 Brasil",Brumadinho ,4.0,68,$$ - $$$,-20.136716842651367,-44.2014274597168,https://www.tripadvisor.com.br/Restaurant_Review-g1747395-d12330227-Reviews-Di_Pozza_Ristorante_Pizzeria-Brumadinho_State_of_Minas_Gerais.html
5764993,Rota V8 rock bar,"Rua Itagua, 150 São Sebastião, Brumadinho, Minas Gerais 35460-000 Brasil",Brumadinho ,4.0,67,$$ - $$$,-20.141695022583008,-44.20587158203125,https://www.tripadvisor.com.br/Restaurant_Review-g1747395-d5764993-Reviews-Rota_V8_rock_bar-Brumadinho_State_of_Minas_Gerais.html
6031862,Petisqueira Rapa de Angu,"Rua Hum 186, Brumadinho, Minas Gerais 35460-000 Brasil",Brumadinho ,4.5,25,$$ - $$$,-20.102937698364258,-44.06568145751953,https://www.tripadvisor.com.br/Restaurant_Review-g1747395-d6031862-Reviews-Petisqueira_Rapa_de_Angu-Brumadinho_State_of_Minas_Gerais.html
8671369,Bistro Mendes,"rua coletora 267, Brumadinho, Minas Gerais 35460-000 Brasil",Brumadinho ,4.5,57,$$ - $$$,-20.14128303527832,-44.215599060058594,https://www.tripadvisor.com.br/Restaurant_Review-g1747395-d8671369-Reviews-Bistro_Mendes-Brumadinho_State_of_Minas_Gerais.html
7616169,Espeteria,"Rua Presidente Vargas 288, Brumadinho, Minas Gerais 35460-000 Brasil",Brumadinho ,4.0,42,$,-20.143863677978516,-44.201499938964844,https://www.tripadvisor.com.br/Restaurant_Review-g1747395-d7616169-Reviews-Espeteria-Brumadinho_State_of_Minas_Gerais.html
6153508,Bar Do Ganso,"Avenida Inhotim 20, Brumadinho, Minas Gerais 35460-000 Brasil",Brumadinho ,4.5,36,$$ - $$$,-20.136394500732422,-44.21852111816406,https://www.tripadvisor.com.br/Restaurant_Review-g1747395-d6153508-Reviews-Bar_Do_Ganso-Brumadinho_State_of_Minas_Gerais.html
12458649,Brumagrill Churrascaria e Restaurante,"Rodovia MG 040 km 49, Brumadinho, Minas Gerais 35460-000 Brasil",Brumadinho ,4.0,55,$$ - $$$,-20.12812614440918,-44.19712448120117,https://www.tripadvisor.com.br/Restaurant_Review-g1747395-d12458649-Reviews-Brumagrill_Churrascaria_e_Restaurante-Brumadinho_State_of_Minas_Gerais.html
8114233,Casa Italia,"Avenida Casa Branca, Brumadinho, Minas Gerais 35460-000 Brasil",Brumadinho ,4.5,21,$$ - $$$,-20.083511352539062,-44.044227600097656,https://www.tripadvisor.com.br/Restaurant_Review-g1747395-d8114233-Reviews-Casa_Italia-Brumadinho_State_of_Minas_Gerais.html
8364873,Trailler Da Empada,"Avenida Casa Branca 737 Casa Branca, Brumadinho, Minas Gerais 35460-000 Brasil",Brumadinho ,4.5,13,$,-20.082626342773438,-44.044002532958984,https://www.tripadvisor.com.br/Restaurant_Review-g1747395-d8364873-Reviews-Trailler_Da_Empada-Brumadinho_State_of_Minas_Gerais.html
8212893,Burguer Mania,"Rua Itaguá, 2137 Grajaú, Brumadinho, Minas Gerais 35460-000 Brasil",Brumadinho ,5.0,16,$,-20.142948150634766,-44.2038459777832,https://www.tripadvisor.com.br/Restaurant_Review-g1747395-d8212893-Reviews-Burguer_Mania-Brumadinho_State_of_Minas_Gerais.html
8212892,Casa Das Empadas Sabor Mineiro,"Rua Itagua 68 Lj 2 Centro, Brumadinho, Minas Gerais Brasil",Brumadinho ,4.5,16,$,-20.149389266967773,-44.222450256347656,https://www.tripadvisor.com.br/Restaurant_Review-g1747395-d8212892-Reviews-Casa_Das_Empadas_Sabor_Mineiro-Brumadinho_State_of_Minas_Gerais.html
4532707,Cacau Show,"Rua Presidente Vargas,186 Centro, Brumadinho, Minas Gerais 35460-000 Brasil",Brumadinho ,4.0,20,$,-20.142953872680664,-44.201351165771484,https://www.tripadvisor.com.br/Restaurant_Review-g1747395-d4532707-Reviews-Cacau_Show-Brumadinho_State_of_Minas_Gerais.html
5367087,Restaurante Angu e Couve,"Praca a 165 S Jose, Brumadinho, Minas Gerais 35460-000 Brasil",Brumadinho ,3.5,41,$,-20.153308868408203,-44.19991683959961,https://www.tripadvisor.com.br/Restaurant_Review-g1747395-d5367087-Reviews-Restaurante_Angu_e_Couve-Brumadinho_State_of_Minas_Gerais.html
15243267,Disk Açai Brumadinho,"Avenida Vigilato Braga No 278 Loja 3, Brumadinho, Minas Gerais 35460-000 Brasil",Brumadinho ,5.0,6,$,-20.142108917236328,-44.201873779296875,https://www.tripadvisor.com.br/Restaurant_Review-g1747395-d15243267-Reviews-Disk_Acai_Brumadinho-Brumadinho_State_of_Minas_Gerais.html
11488006,Restaurante Carpe Diem,"Avenida Paraopeba 475 Casa Branca, Brumadinho, Minas Gerais 35460-000 Brasil",Brumadinho ,4.5,12,$$ - $$$,-20.11273193359375,-44.047080993652344,https://www.tripadvisor.com.br/Restaurant_Review-g1747395-d11488006-Reviews-Restaurante_Carpe_Diem-Brumadinho_State_of_Minas_Gerais.html
14052059,Cervejaria Artesanal Piacenza,"Rua Feliciano Pinto Brandao 500, Brumadinho, Minas Gerais 35460-000 Brasil",Brumadinho ,5.0,5,$$ - $$$,-20.189931869506836,-44.10014343261719,https://www.tripadvisor.com.br/Restaurant_Review-g1747395-d14052059-Reviews-Cervejaria_Artesanal_Piacenza-Brumadinho_State_of_Minas_Gerais.html
12226071,Bistrô Casa do Chiari,"Rua Quaresmeira Rosa 406 Contact first for booking, Brumadinho, Minas Gerais 35460-000 Brasil",Brumadinho ,5.0,6,$$$$,-20.080995559692383,-43.996150970458984,https://www.tripadvisor.com.br/Restaurant_Review-g1747395-d12226071-Reviews-Bistro_Casa_do_Chiari-Brumadinho_State_of_Minas_Gerais.html
5363912,Restaurante Dona Carmita,"Rua 1 SN Dist Monte Verde, Brumadinho, Minas Gerais 35460-000 Brasil",Brumadinho ,4.0,14,$$ - $$$,-20.15523910522461,-44.158111572265625,https://www.tripadvisor.com.br/Restaurant_Review-g1747395-d5363912-Reviews-Restaurante_Dona_Carmita-Brumadinho_State_of_Minas_Gerais.html
19611381,Restaurante Horizontes,"Estrada da Serra 10 Ao Lado da pista de Parapente., Brumadinho, Minas Gerais 35460-000 Brasil",Brumadinho ,4.0,9,$$ - $$$,-20.19489097595215,-43.97917175292969,https://www.tripadvisor.com.br/Restaurant_Review-g1747395-d19611381-Reviews-Restaurante_Horizontes-Brumadinho_State_of_Minas_Gerais.html
14927775,Rota V8 Rock Bar,"Rua Itaguá 150 São Sebastião, Brumadinho, Minas Gerais 35460-000 Brasil",Brumadinho ,5.0,3,$,-20.141695022583008,-44.20587158203125,https://www.tripadvisor.com.br/Restaurant_Review-g1747395-d14927775-Reviews-Rota_V8_Rock_Bar-Brumadinho_State_of_Minas_Gerais.html
5759669,Sorveteria Sabor Gelado,"Praca Paulo Alves Moreira 57 Centro, Brumadinho, Minas Gerais 35460-000 Brasil",Brumadinho ,4.0,9,$,-20.137853622436523,-44.219627380371094,https://www.tripadvisor.com.br/Restaurant_Review-g1747395-d5759669-Reviews-Sorveteria_Sabor_Gelado-Brumadinho_State_of_Minas_Gerais.html
6425636,Restaurante Cerrado Mineiro,"Rodovia Mg 040 Povoado Do Caju, Brumadinho, Minas Gerais 35460-000 Brasil",Brumadinho ,5.0,4,indef,-20.147720336914062,-44.19932174682617,https://www.tripadvisor.com.br/Restaurant_Review-g1747395-d6425636-Reviews-Restaurante_Cerrado_Mineiro-Brumadinho_State_of_Minas_Gerais.html
12871955,#Hashtag Bar,"Rua Rio Sao Francisco 196, Brumadinho, Minas Gerais 35460-000 Brasil",Brumadinho ,4.5,3,indef,-20.146324157714844,-44.19820785522461,https://www.tripadvisor.com.br/Restaurant_Review-g1747395-d12871955-Reviews-Hashtag_Bar-Brumadinho_State_of_Minas_Gerais.html
12252739,Açaiteria Mix,"Rua Rio Paraopeba 14 AO Lado DO Antigo Predio DO Inss., Brumadinho, Minas Gerais 35460-000 Brasil",Brumadinho ,5.0,2,indef,-20.1453857421875,-44.2001838684082,https://www.tripadvisor.com.br/Restaurant_Review-g1747395-d12252739-Reviews-Acaiteria_Mix-Brumadinho_State_of_Minas_Gerais.html
11925544,Almazen Gourmet,"Avenida Francisco dos Santos, 350 Corrego Ferreira, Brumadinho, Minas Gerais 35460-000 Brasil",Brumadinho ,4.5,3,indef,-20.097593307495117,-44.05508041381836,https://www.tripadvisor.com.br/Restaurant_Review-g1747395-d11925544-Reviews-Almazen_Gourmet-Brumadinho_State_of_Minas_Gerais.html
7234353,World Burguer,"Rua Reinaldo Pinto Vieira 408, Brumadinho, Minas Gerais 35460-000 Brasil",Brumadinho ,4.0,5,indef,-20.148664474487305,-44.202396392822266,https://www.tripadvisor.com.br/Restaurant_Review-g1747395-d7234353-Reviews-World_Burguer-Brumadinho_State_of_Minas_Gerais.html
5657931,Panificadora & Lanchonete Machado,"Rua Itagua, 191 S Sebastiao, Brumadinho, Minas Gerais 35460-000 Brasil",Brumadinho ,4.5,4,indef,-20.142269134521484,-44.20610809326172,https://www.tripadvisor.com.br/Restaurant_Review-g1747395-d5657931-Reviews-Panificadora_Lanchonete_Machado-Brumadinho_State_of_Minas_Gerais.html
5868758,Restaurante Dona Carmita,"Mg 040, Km 49, Brumadinho, Minas Gerais Brasil",Brumadinho ,3.0,27,$$ - $$$,-20.13990020751953,-44.17604064941406,https://www.tripadvisor.com.br/Restaurant_Review-g1747395-d5868758-Reviews-Restaurante_Dona_Carmita-Brumadinho_State_of_Minas_Gerais.html
11435813,Restaurante Aconchego da Serra Nao existe mais,"Avenida Casa Branca 2472, Brumadinho, Minas Gerais 35460-000 Brasil",Brumadinho ,4.5,3,$$ - $$$,-20.0833797454834,-44.0436897277832,https://www.tripadvisor.com.br/Restaurant_Review-g1747395-d11435813-Reviews-Restaurante_Aconchego_da_Serra_Nao_existe_mais-Brumadinho_State_of_Minas_Gerais.html
8430371,Venda dos Turcos,"Rua Jesuina Bernardino Pinto 413, Brumadinho, Minas Gerais 35460-000 Brasil",Brumadinho ,5.0,5,$$ - $$$,-20.199188232421875,-44.100921630859375,https://www.tripadvisor.com.br/Restaurant_Review-g1747395-d8430371-Reviews-Venda_dos_Turcos-Brumadinho_State_of_Minas_Gerais.html
23120697,Café Da Cleide,"Avenida Casa Branca, 75 Casa Branca, Brumadinho, Minas Gerais 35460-000 Brasil",Brumadinho ,5.0,1,$,-20.093809127807617,-44.04618835449219,https://www.tripadvisor.com.br/Restaurant_Review-g1747395-d23120697-Reviews-Cafe_Da_Cleide-Brumadinho_State_of_Minas_Gerais.html
8238438,Burgueria Trem Bao,"Rua Aurora Gomes do Prado 23 Grajau, Brumadinho, Minas Gerais 35460-000 Brasil",Brumadinho ,4.0,3,indef,-20.147701263427734,-44.217498779296875,https://www.tripadvisor.com.br/Restaurant_Review-g1747395-d8238438-Reviews-Burgueria_Trem_Bao-Brumadinho_State_of_Minas_Gerais.html
5348415,Casa De Massas - Trattoria,"Avenida Casa Branca, 562 Centro, Brumadinho, Minas Gerais 35460-000 Brasil",Brumadinho ,4.0,3,indef,-20.081262588500977,-44.04541778564453,https://www.tripadvisor.com.br/Restaurant_Review-g1747395-d5348415-Reviews-Casa_De_Massas_Trattoria-Brumadinho_State_of_Minas_Gerais.html
17733339,Confraria 49,"Rod. MG 040 Km 49, Brumadinho, Minas Gerais 35460-000 Brasil",Brumadinho ,5.0,1,$,-20.323810577392578,-44.242069244384766,https://www.tripadvisor.com.br/Restaurant_Review-g1747395-d17733339-Reviews-Confraria_49-Brumadinho_State_of_Minas_Gerais.html
8015684,Café Adora Ltda,"Avenida Casa Branca 524B, Brumadinho, Minas Gerais 35460-000 Brasil",Brumadinho ,4.5,2,indef,-20.080974578857422,-44.04561233520508,https://www.tripadvisor.com.br/Restaurant_Review-g1747395-d8015684-Reviews-Cafe_Adora_Ltda-Brumadinho_State_of_Minas_Gerais.html
5377745,Delicima,"Rua Quintino Bocaiuva 179 Funcionarios, Brumadinho, Minas Gerais 35460-000 Brasil",Brumadinho ,4.0,3,indef,-20.14212989807129,-44.20070266723633,https://www.tripadvisor.com.br/Restaurant_Review-g1747395-d5377745-Reviews-Delicima-Brumadinho_State_of_Minas_Gerais.html
8242503,Padaria Sao Conrado,"Rua Carlos Nogueira 2 S Conrado, Brumadinho, Minas Gerais 35460-000 Brasil",Brumadinho ,4.5,2,indef,-20.142602920532227,-44.20924758911133,https://www.tripadvisor.com.br/Restaurant_Review-g1747395-d8242503-Reviews-Padaria_Sao_Conrado-Brumadinho_State_of_Minas_Gerais.html
5752223,Restaurante e Lanchonete Nossa Casa,"Praca Paulo Alves Moreira 57 Centro, Brumadinho, Minas Gerais 35460-000 Brasil",Brumadinho ,4.0,3,$,-20.137853622436523,-44.219627380371094,https://www.tripadvisor.com.br/Restaurant_Review-g1747395-d5752223-Reviews-Restaurante_e_Lanchonete_Nossa_Casa-Brumadinho_State_of_Minas_Gerais.html
10322679,Angu & Couve Restaurante,"Avenida Casa Branca, 121 Centro, Brumadinho, Minas Gerais Brasil",Brumadinho ,3.5,11,$,-20.07680892944336,-44.047271728515625,https://www.tripadvisor.com.br/Restaurant_Review-g1747395-d10322679-Reviews-Angu_Couve_Restaurante-Brumadinho_State_of_Minas_Gerais.html
5365722,Salgados Maria,"Rua Carlos Nogueira 908 Cidade Da Esperanca, Brumadinho, Minas Gerais 35460-000 Brasil",Brumadinho ,4.5,2,indef,-20.13437843322754,-44.204322814941406,https://www.tripadvisor.com.br/Restaurant_Review-g1747395-d5365722-Reviews-Salgados_Maria-Brumadinho_State_of_Minas_Gerais.html
8177189,Bar E Lanchonete Casa Branca,"Avenida Piedade Paraopeba 19 Casa Branca, Brumadinho, Minas Gerais Brasil",Brumadinho ,4.0,2,indef,-20.119129180908203,-44.047767639160156,https://www.tripadvisor.com.br/Restaurant_Review-g1747395-d8177189-Reviews-Bar_E_Lanchonete_Casa_Branca-Brumadinho_State_of_Minas_Gerais.html
5703815,Dalva Maria Gomes Lima,"Rua Itagua, 2549 D Bosco, Brumadinho, Minas Gerais 35460-000 Brasil",Brumadinho ,4.0,2,indef,-20.14893913269043,-44.21876525878906,https://www.tripadvisor.com.br/Restaurant_Review-g1747395-d5703815-Reviews-Dalva_Maria_Gomes_Lima-Brumadinho_State_of_Minas_Gerais.html
5658652,Panificadora Copacabana,"Praca da Bandeira 91 Centro, Brumadinho, Minas Gerais 35460-000 Brasil",Brumadinho ,5.0,1,indef,-20.120710372924805,-44.160648345947266,https://www.tripadvisor.com.br/Restaurant_Review-g1747395-d5658652-Reviews-Panificadora_Copacabana-Brumadinho_State_of_Minas_Gerais.html
10886147,Sorveteria Sonho Gelado + Gostosurasdasu,"Avenida Casa Branca 20, Brumadinho, Minas Gerais 35460-000 Brasil",Brumadinho ,5.0,1,indef,-20.077035903930664,-44.047515869140625,https://www.tripadvisor.com.br/Restaurant_Review-g1747395-d10886147-Reviews-Sorveteria_Sonho_Gelado_Gostosurasdasu-Brumadinho_State_of_Minas_Gerais.html
5362467,Choperia Montiada,"Rua Esmael Neto 13 Alecrim, Brumadinho, Minas Gerais 35460-000 Brasil",Brumadinho ,5.0,1,indef,-20.10055923461914,-44.043819427490234,https://www.tripadvisor.com.br/Restaurant_Review-g1747395-d5362467-Reviews-Choperia_Montiada-Brumadinho_State_of_Minas_Gerais.html
8860926,Amores & Sabores,"Rua Governador Valadares 150 Centro, Brumadinho, Minas Gerais 35460-000 Brasil",Brumadinho ,5.0,1,indef,-20.1427059173584,-44.20296859741211,https://www.tripadvisor.com.br/Restaurant_Review-g1747395-d8860926-Reviews-Amores_Sabores-Brumadinho_State_of_Minas_Gerais.html
13087474,Komboza Bar,"Avenida Vigilato Braga 278 Loja 2, Brumadinho, Minas Gerais 35460-000 Brasil",Brumadinho ,4.0,8,$,-20.144229888916016,-44.201663970947266,https://www.tripadvisor.com.br/Restaurant_Review-g1747395-d13087474-Reviews-Komboza_Bar-Brumadinho_State_of_Minas_Gerais.html
5747403,Pizzaria Rocha,"Avenida Vigilato Braga 153 Centro, Brumadinho, Minas Gerais 35460-000 Brasil",Brumadinho ,3.5,3,indef,-20.142040252685547,-44.201454162597656,https://www.tripadvisor.com.br/Restaurant_Review-g1747395-d5747403-Reviews-Pizzaria_Rocha-Brumadinho_State_of_Minas_Gerais.html
5381095,Luna Lanches,"Rua Quintino Bocaiuva 299 Barro Preto, Brumadinho, Minas Gerais 35460-000 Brasil",Brumadinho ,4.0,2,indef,-20.141714096069336,-44.2027587890625,https://www.tripadvisor.com.br/Restaurant_Review-g1747395-d5381095-Reviews-Luna_Lanches-Brumadinho_State_of_Minas_Gerais.html
2423806,Recanto com Sabor,"Rua Tao, 10 Recanto da Serra, Brumadinho, Minas Gerais 35460-000 Brasil",Brumadinho ,4.5,5,$$ - $$$,-20.101579666137695,-44.04462814331055,https://www.tripadvisor.com.br/Restaurant_Review-g1747395-d2423806-Reviews-Recanto_com_Sabor-Brumadinho_State_of_Minas_Gerais.html
5377147,Restaurante Verde Vida,"Avenida Rui Barbosa 18 Jd Betania, Brumadinho, Minas Gerais 35460-000 Brasil",Brumadinho ,4.0,1,indef,-20.15165138244629,-44.2286491394043,https://www.tripadvisor.com.br/Restaurant_Review-g1747395-d5377147-Reviews-Restaurante_Verde_Vida-Brumadinho_State_of_Minas_Gerais.html
5391598,Genis Bar,"Avenida a 194 Cumbuco, Brumadinho, Minas Gerais 35460-000 Brasil",Brumadinho ,4.0,1,indef,-20.099870681762695,-44.04378128051758,https://www.tripadvisor.com.br/Restaurant_Review-g1747395-d5391598-Reviews-Genis_Bar-Brumadinho_State_of_Minas_Gerais.html
5337420,Restaurante Kid Casa,"Rua Itagua, 2327 Centro, Brumadinho, Minas Gerais 35460-000 Brasil",Brumadinho ,3.5,3,indef,-20.14903450012207,-44.21893310546875,https://www.tripadvisor.com.br/Restaurant_Review-g1747395-d5337420-Reviews-Restaurante_Kid_Casa-Brumadinho_State_of_Minas_Gerais.html
5342412,Bar Do Marco Aurelio,"Rua Aranha 179 Telegrafo Sem Fio, Brumadinho, Minas Gerais 35460-000 Brasil",Brumadinho ,3.5,2,indef,-20.1466064453125,-44.21003723144531,https://www.tripadvisor.com.br/Restaurant_Review-g1747395-d5342412-Reviews-Bar_Do_Marco_Aurelio-Brumadinho_State_of_Minas_Gerais.html
5760524,Space Burguer,"Avenida Vigilato Braga 120 Centro, Brumadinho, Minas Gerais 35460-000 Brasil",Brumadinho ,4.0,1,indef,-20.142040252685547,-44.201454162597656,https://www.tripadvisor.com.br/Restaurant_Review-g1747395-d5760524-Reviews-Space_Burguer-Brumadinho_State_of_Minas_Gerais.html
5365961,Restaurante Madeira Rodrigues,"Rua Girassol 54 Costeira, Brumadinho, Minas Gerais 35460-000 Brasil",Brumadinho ,4.0,1,indef,-20.14476203918457,-44.191383361816406,https://www.tripadvisor.com.br/Restaurant_Review-g1747395-d5365961-Reviews-Restaurante_Madeira_Rodrigues-Brumadinho_State_of_Minas_Gerais.html
10723794,Piedade do Paraopeba Restaurante Bar,"Rua Rio Paraopeba 85, Brumadinho, Minas Gerais 35460-000 Brasil",Brumadinho ,3.0,9,indef,-20.14543914794922,-44.19979476928711,https://www.tripadvisor.com.br/Restaurant_Review-g1747395-d10723794-Reviews-Piedade_do_Paraopeba_Restaurante_Bar-Brumadinho_State_of_Minas_Gerais.html
5709200,Esquinao Burguer,"Rua Presidente Vargas 40 Centro, Brumadinho, Minas Gerais 35460-000 Brasil",Brumadinho ,3.0,11,indef,-20.141435623168945,-44.201133728027344,https://www.tripadvisor.com.br/Restaurant_Review-g1747395-d5709200-Reviews-Esquinao_Burguer-Brumadinho_State_of_Minas_Gerais.html
8228967,Bom Apetite,"Rua Presidente Vargas 172 Lj a Centro, Brumadinho, Minas Gerais 35460-000 Brasil",Brumadinho ,3.0,1,indef,-20.14261245727539,-44.20132064819336,https://www.tripadvisor.com.br/Restaurant_Review-g1747395-d8228967-Reviews-Bom_Apetite-Brumadinho_State_of_Minas_Gerais.html
5662388,Panificadora Trigo De Ouro,"Rua Reinaldo Pinto Vieira 390 Silva Prado, Brumadinho, Minas Gerais 35460-000 Brasil",Brumadinho ,3.0,3,indef,-20.149032592773438,-44.202510833740234,https://www.tripadvisor.com.br/Restaurant_Review-g1747395-d5662388-Reviews-Panificadora_Trigo_De_Ouro-Brumadinho_State_of_Minas_Gerais.html
5764052,Trailers Nossa Senhora Aparecida,"Avenida Inhotim 495 Progresso, Brumadinho, Minas Gerais 35460-000 Brasil",Brumadinho ,3.0,2,indef,-20.13821029663086,-44.21476745605469,https://www.tripadvisor.com.br/Restaurant_Review-g1747395-d5764052-Reviews-Trailers_Nossa_Senhora_Aparecida-Brumadinho_State_of_Minas_Gerais.html
5355926,Restaurante Gaucho,"Avenida Vigilato Braga 172 Centro, Brumadinho, Minas Gerais 35460-000 Brasil",Brumadinho ,3.0,1,indef,-20.14323616027832,-44.201873779296875,https://www.tripadvisor.com.br/Restaurant_Review-g1747395-d5355926-Reviews-Restaurante_Gaucho-Brumadinho_State_of_Minas_Gerais.html
5681144,Bar e Lanchonete Da Rania,"Rua Jose Henriques 516 Jose Henriques, Brumadinho, Minas Gerais 35460-000 Brasil",Brumadinho ,3.0,1,indef,-20.148910522460938,-44.21320343017578,https://www.tripadvisor.com.br/Restaurant_Review-g1747395-d5681144-Reviews-Bar_e_Lanchonete_Da_Rania-Brumadinho_State_of_Minas_Gerais.html
5338821,La Bella,"Avenida Vigilato Braga 261 Centro Historico, Brumadinho, Minas Gerais 35460-000 Brasil",Brumadinho ,2.5,8,$,-20.144193649291992,-44.20140838623047,https://www.tripadvisor.com.br/Restaurant_Review-g1747395-d5338821-Reviews-La_Bella-Brumadinho_State_of_Minas_Gerais.html
8309295,Belarmina Bistro,"Fazenda Sao Jose do Bom Retiro, Brumadinho, Minas Gerais 35460-000 Brasil",Brumadinho ,1.0,1,indef,0.0,0.0,https://www.tripadvisor.com.br/Restaurant_Review-g1747395-d8309295-Reviews-Belarmina_Bistro-Brumadinho_State_of_Minas_Gerais.html
5764750,Tudo De Bom - Pizzaria e Sanduicheria,"Avenida Casa Branca 168 Casa Branca, Brumadinho, Minas Gerais 35460-000 Brasil",Brumadinho ,1.5,2,indef,-20.078123092651367,-44.04670715332031,https://www.tripadvisor.com.br/Restaurant_Review-g1747395-d5764750-Reviews-Tudo_De_Bom_Pizzaria_e_Sanduicheria-Brumadinho_State_of_Minas_Gerais.html
14946061,Ticontrei Restaurante Gourmet,"Rua Rui Barbosa 14 córrego Ferreira Próximo ao condomínio águas claras, Brumadinho, Minas Gerais 35460-000 Brasil",Brumadinho ,4.0,3,$,-20.140657424926758,-44.213829040527344,https://www.tripadvisor.com.br/Restaurant_Review-g1747395-d14946061-Reviews-Ticontrei_Restaurante_Gourmet-Brumadinho_State_of_Minas_Gerais.html
15748183,M&M's Game Bar,"Rua Itaguá, 142, Brumadinho, Brumadinho, Minas Gerais 35460-000 Brasil",Brumadinho ,5.0,1,$$ - $$$,-20.141569137573242,-44.20577621459961,https://www.tripadvisor.com.br/Restaurant_Review-g1747395-d15748183-Reviews-M_M_s_Game_Bar-Brumadinho_State_of_Minas_Gerais.html
8230650,Restaurante Segredos de Minas,"Rua Quintino Bocaiuva 339 - Lj 11 - Lj 12 Centro, Brumadinho, Minas Gerais 35460-000 Brasil",Brumadinho ,indef,0,indef,-20.141695022583008,-44.202903747558594,https://www.tripadvisor.com.br/Restaurant_Review-g1747395-d8230650-Reviews-Restaurante_Segredos_de_Minas-Brumadinho_State_of_Minas_Gerais.html
12565625,Lacerda's Bar,"Rua João Fernandes do Carmo Neto 80 Bairro Carmo, Brumadinho, Minas Gerais 35460-000 Brasil",Brumadinho ,indef,0,indef,-20.146055221557617,-44.20595932006836,https://www.tripadvisor.com.br/Restaurant_Review-g1747395-d12565625-Reviews-Lacerda_s_Bar-Brumadinho_State_of_Minas_Gerais.html
8238437,M. D. Biscoitos,"Rua Aurora Gomes do Prado 107 Grajau, Brumadinho, Minas Gerais 35460-000 Brasil",Brumadinho ,indef,0,indef,-20.148021697998047,-44.216915130615234,https://www.tripadvisor.com.br/Restaurant_Review-g1747395-d8238437-Reviews-M_D_Biscoitos-Brumadinho_State_of_Minas_Gerais.html
5726438,Lanchonete e Restaurante Bom Sabor,"Rua Joao Fernandes do Carmo 331 Centro, Brumadinho, Minas Gerais 35460-000 Brasil",Brumadinho ,indef,0,indef,-20.145008087158203,-44.19765853881836,https://www.tripadvisor.com.br/Restaurant_Review-g1747395-d5726438-Reviews-Lanchonete_e_Restaurante_Bom_Sabor-Brumadinho_State_of_Minas_Gerais.html
8207491,Emporio Grao de Ouro,"Rua a 2 Progresso, Brumadinho, Minas Gerais 35460-000 Brasil",Brumadinho ,indef,0,indef,-20.152557373046875,-44.20083999633789,https://www.tripadvisor.com.br/Restaurant_Review-g1747395-d8207491-Reviews-Emporio_Grao_de_Ouro-Brumadinho_State_of_Minas_Gerais.html
5689766,Bello & Souza,"Rua Quintino Bocaiuva 97 Centro, Brumadinho, Minas Gerais 35460-000 Brasil",Brumadinho ,indef,0,indef,-20.141590118408203,-44.20507049560547,https://www.tripadvisor.com.br/Restaurant_Review-g1747395-d5689766-Reviews-Bello_Souza-Brumadinho_State_of_Minas_Gerais.html
7868736,Laurinha Iguarias Mineiras,"Rua Jatoba, 383 Centro, Brumadinho, Minas Gerais 35460-000 Brasil",Brumadinho ,indef,0,indef,-20.08669662475586,-44.05104064941406,https://www.tripadvisor.com.br/Restaurant_Review-g1747395-d7868736-Reviews-Laurinha_Iguarias_Mineiras-Brumadinho_State_of_Minas_Gerais.html
7868732,Cantinho E Cantina D'Angela,"Rua Presidente Kennedy 268 Cj Hab Centenario, Brumadinho, Minas Gerais 35460-000 Brasil",Brumadinho ,indef,0,indef,-20.143274307250977,-44.20570755004883,https://www.tripadvisor.com.br/Restaurant_Review-g1747395-d7868732-Reviews-Cantinho_E_Cantina_D_Angela-Brumadinho_State_of_Minas_Gerais.html
8256845,Lanchonete Da Shirley,"Rua Galena 86 Centro, Brumadinho, Minas Gerais 35460-000 Brasil",Brumadinho ,indef,0,indef,-20.144495010375977,-44.20370864868164,https://www.tripadvisor.com.br/Restaurant_Review-g1747395-d8256845-Reviews-Lanchonete_Da_Shirley-Brumadinho_State_of_Minas_Gerais.html
8209013,Padaria Demais,"Rua 11 Aguas Claras, Brumadinho, Minas Gerais 35460-000 Brasil",Brumadinho ,indef,0,indef,-19.537179946899414,-45.969600677490234,https://www.tripadvisor.com.br/Restaurant_Review-g1747395-d8209013-Reviews-Padaria_Demais-Brumadinho_State_of_Minas_Gerais.html
8230527,Lanchonete Ki Delicia,"Rua Quatro, 400 Lj 1 Rec Da Serra, Brumadinho, Minas Gerais 35460-000 Brasil",Brumadinho ,indef,0,indef,-20.16307830810547,-44.194053649902344,https://www.tripadvisor.com.br/Restaurant_Review-g1747395-d8230527-Reviews-Lanchonete_Ki_Delicia-Brumadinho_State_of_Minas_Gerais.html
8186691,Lanchonete Oasis,"Avenida Vigilato Braga 95 Centro, Brumadinho, Minas Gerais 35460-000 Brasil",Brumadinho ,indef,0,indef,-20.143535614013672,-44.201480865478516,https://www.tripadvisor.com.br/Restaurant_Review-g1747395-d8186691-Reviews-Lanchonete_Oasis-Brumadinho_State_of_Minas_Gerais.html
5719164,Kome Keto,"Praca a 34 Casa Branca, Brumadinho, Minas Gerais 35460-000 Brasil",Brumadinho ,indef,0,indef,-20.162450790405273,-44.027191162109375,https://www.tripadvisor.com.br/Restaurant_Review-g1747395-d5719164-Reviews-Kome_Keto-Brumadinho_State_of_Minas_Gerais.html
5869779,Bar do Beto,"Rua Seis, 48 Melo Franco, Brumadinho, Minas Gerais 35460-000 Brasil",Brumadinho ,indef,0,indef,-20.102985382080078,-44.04130935668945,https://www.tripadvisor.com.br/Restaurant_Review-g1747395-d5869779-Reviews-Bar_do_Beto-Brumadinho_State_of_Minas_Gerais.html
5652179,Ki Belo Pao,"Rua Presidente Vargas 485 Centro, Brumadinho, Minas Gerais 35460-000 Brasil",Brumadinho ,indef,0,indef,-20.145849227905273,-44.20043182373047,https://www.tripadvisor.com.br/Restaurant_Review-g1747395-d5652179-Reviews-Ki_Belo_Pao-Brumadinho_State_of_Minas_Gerais.html
5768029,Unibier,"Rua Presidente Vargas, 676 830, Brumadinho, Minas Gerais 35460-000 Brasil",Brumadinho ,indef,0,indef,-20.149904251098633,-44.198665618896484,https://www.tripadvisor.com.br/Restaurant_Review-g1747395-d5768029-Reviews-Unibier-Brumadinho_State_of_Minas_Gerais.html
8245580,Bar Do Toninho,"Rua Corrego de Almas 51 Lj Aranha, Brumadinho, Minas Gerais Brasil",Brumadinho ,indef,0,indef,-20.14625358581543,-44.211204528808594,https://www.tripadvisor.com.br/Restaurant_Review-g1747395-d8245580-Reviews-Bar_Do_Toninho-Brumadinho_State_of_Minas_Gerais.html
8212891,Totot's Bar,"Rua Itagua 2137 Grajau, Brumadinho, Minas Gerais Brasil",Brumadinho ,indef,0,indef,-20.146329879760742,-44.216888427734375,https://www.tripadvisor.com.br/Restaurant_Review-g1747395-d8212891-Reviews-Totot_s_Bar-Brumadinho_State_of_Minas_Gerais.html
13430840,Mr. Shake,"Rua Presidente Vargas 114, Brumadinho, Minas Gerais 35460-000 Brasil",Brumadinho ,indef,0,indef,-20.14249038696289,-44.20122146606445,https://www.tripadvisor.com.br/Restaurant_Review-g1747395-d13430840-Reviews-Mr_Shake-Brumadinho_State_of_Minas_Gerais.html
5370761,Authentico Cucinare,"Rua 4 400 Centro Historico, Brumadinho, Minas Gerais 35460-000 Brasil",Brumadinho ,indef,0,indef,-20.16307830810547,-44.194053649902344,https://www.tripadvisor.com.br/Restaurant_Review-g1747395-d5370761-Reviews-Authentico_Cucinare-Brumadinho_State_of_Minas_Gerais.html
15752480,Primus Lanches,"R. Quintino Bocaiúva, 97, Brumadinho, Minas Gerais 35460-000 Brasil",Brumadinho ,indef,0,indef,-20.142187118530273,-44.20006561279297,https://www.tripadvisor.com.br/Restaurant_Review-g1747395-d15752480-Reviews-Primus_Lanches-Brumadinho_State_of_Minas_Gerais.html
15300372,Restaurante da Lu,"Rua Chicona Rede Mais, Brumadinho, Minas Gerais 35460-000 Brasil",Brumadinho ,indef,0,$$ - $$$,-20.13698959350586,-44.1998291015625,https://www.tripadvisor.com.br/Restaurant_Review-g1747395-d15300372-Reviews-Restaurante_da_Lu-Brumadinho_State_of_Minas_Gerais.html
5748502,Ponto Da Empada Frois,"Rua 3 10 Casa Branca, Brumadinho, Minas Gerais 35460-000 Brasil",Brumadinho ,indef,0,indef,-20.149877548217773,-44.22004699707031,https://www.tripadvisor.com.br/Restaurant_Review-g1747395-d5748502-Reviews-Ponto_Da_Empada_Frois-Brumadinho_State_of_Minas_Gerais.html
8187318,Tinhos Bar,"Praca Bandeira 120 Centro, Brumadinho, Minas Gerais 35460-000 Brasil",Brumadinho ,indef,0,indef,-20.086816787719727,-44.05132293701172,https://www.tripadvisor.com.br/Restaurant_Review-g1747395-d8187318-Reviews-Tinhos_Bar-Brumadinho_State_of_Minas_Gerais.html
8221580,Irmas Vieira,"Rua Maria Maia 13 Grajau, Brumadinho, Minas Gerais 35460-000 Brasil",Brumadinho ,indef,0,indef,-20.229440689086914,-44.10057067871094,https://www.tripadvisor.com.br/Restaurant_Review-g1747395-d8221580-Reviews-Irmas_Vieira-Brumadinho_State_of_Minas_Gerais.html
5357944,Restaurante Do Marco Aurelio,"Rua 1 277 Centro, Brumadinho, Minas Gerais 35460-000 Brasil",Brumadinho ,indef,0,indef,-20.102046966552734,-44.06548309326172,https://www.tripadvisor.com.br/Restaurant_Review-g1747395-d5357944-Reviews-Restaurante_Do_Marco_Aurelio-Brumadinho_State_of_Minas_Gerais.html
7882009,Na Trilha,"Estrada Municipal Rui Barbosa 11 Aguas Claras, Brumadinho, Minas Gerais 35460-000 Brasil",Brumadinho ,indef,0,indef,-20.155370712280273,-44.19438171386719,https://www.tripadvisor.com.br/Restaurant_Review-g1747395-d7882009-Reviews-Na_Trilha-Brumadinho_State_of_Minas_Gerais.html
8189650,Irmaos Oliveira,"Praca da Matriz 42 Crg Do Feijao, Brumadinho, Minas Gerais 35460-000 Brasil",Brumadinho ,indef,0,indef,-20.12131690979004,-44.161094665527344,https://www.tripadvisor.com.br/Restaurant_Review-g1747395-d8189650-Reviews-Irmaos_Oliveira-Brumadinho_State_of_Minas_Gerais.html
5723702,Lanchonete Campos,"Rua Presidente Vargas 172 Centro, Brumadinho, Minas Gerais 35460-000 Brasil",Brumadinho ,indef,0,indef,-20.14261245727539,-44.20132064819336,https://www.tripadvisor.com.br/Restaurant_Review-g1747395-d5723702-Reviews-Lanchonete_Campos-Brumadinho_State_of_Minas_Gerais.html
5765942,Vide Gula,"Rua Quintino Bocaiuva 131 Centro, Brumadinho, Minas Gerais 35460-000 Brasil",Brumadinho ,indef,0,indef,-20.141630172729492,-44.20534896850586,https://www.tripadvisor.com.br/Restaurant_Review-g1747395-d5765942-Reviews-Vide_Gula-Brumadinho_State_of_Minas_Gerais.html
8214325,Q Delicia Lanches,"Rua Joao dos Santos 205 Tejuco, Brumadinho, Minas Gerais 35460-000 Brasil",Brumadinho ,indef,0,indef,-20.09743881225586,-44.05624771118164,https://www.tripadvisor.com.br/Restaurant_Review-g1747395-d8214325-Reviews-Q_Delicia_Lanches-Brumadinho_State_of_Minas_Gerais.html
5891029,Restaurante Jerimum,"Alameda das Candeais, 339 Zona Rural, Brumadinho, Minas Gerais 34000-000 Brasil",Brumadinho ,indef,0,indef,-20.061080932617188,-43.92131042480469,https://www.tripadvisor.com.br/Restaurant_Review-g1747395-d5891029-Reviews-Restaurante_Jerimum-Brumadinho_State_of_Minas_Gerais.html
12551520,Estação Canela,"Rua Canela de Ema, 33 Casa Branca, Brumadinho, Minas Gerais 35460-000 Brasil",Brumadinho ,indef,0,$,-20.094852447509766,-44.045265197753906,https://www.tripadvisor.com.br/Restaurant_Review-g1747395-d12551520-Reviews-Estacao_Canela-Brumadinho_State_of_Minas_Gerais.html
15065250,Cozinha de Quintal,"Rua Francisco dos Santos 50 Córrego Ferreira, Brumadinho, Minas Gerais 35460-000 Brasil",Brumadinho ,indef,0,$,-20.189645767211914,-44.01490020751953,https://www.tripadvisor.com.br/Restaurant_Review-g1747395-d15065250-Reviews-Cozinha_de_Quintal-Brumadinho_State_of_Minas_Gerais.html
21210915,Empório Brumadinho,"Av. Nair Martins Drumond 12 Córrego Ferreira, Brumadinho, Minas Gerais 35460-000 Brasil",Brumadinho ,indef,0,$,-20.1889591217041,-44.01105880737305,https://www.tripadvisor.com.br/Restaurant_Review-g1747395-d21210915-Reviews-Emporio_Brumadinho-Brumadinho_State_of_Minas_Gerais.html
14930454,Mix Ice,"Rua Rio Paraopeba numero 14 Centro, Brumadinho, Minas Gerais 35460-000 Brasil",Brumadinho ,indef,0,$,-20.1453857421875,-44.2001838684082,https://www.tripadvisor.com.br/Restaurant_Review-g1747395-d14930454-Reviews-Mix_Ice-Brumadinho_State_of_Minas_Gerais.html
8194290,Cantina Da Gaucha,"Praca Paulo Alves Moreira 57 Centro, Brumadinho, Minas Gerais 35460-000 Brasil",Brumadinho ,indef,0,indef,-20.137853622436523,-44.219627380371094,https://www.tripadvisor.com.br/Restaurant_Review-g1747395-d8194290-Reviews-Cantina_Da_Gaucha-Brumadinho_State_of_Minas_Gerais.html
5749828,Pururucas,"Estrada Para Fazenda do Japao SN Rural, Brumadinho, Minas Gerais 35460-000 Brasil",Brumadinho ,indef,0,indef,-20.149009704589844,-44.20185089111328,https://www.tripadvisor.com.br/Restaurant_Review-g1747395-d5749828-Reviews-Pururucas-Brumadinho_State_of_Minas_Gerais.html
5746584,Pizzaria Casanova,"Rodovia Mg 040 Km 40 50 Zona Rural, Brumadinho, Minas Gerais 35460-000 Brasil",Brumadinho ,indef,0,indef,-20.198230743408203,-44.00952911376953,https://www.tripadvisor.com.br/Restaurant_Review-g1747395-d5746584-Reviews-Pizzaria_Casanova-Brumadinho_State_of_Minas_Gerais.html
8250744,Cantinho Do Bigode Lanches,"Rua Aristides Passos, 227 Lj a Piedade Do Paraopeba, Brumadinho, Minas Gerais 35460-000 Brasil",Brumadinho ,indef,0,indef,-20.14333724975586,-44.19865417480469,https://www.tripadvisor.com.br/Restaurant_Review-g1747395-d8250744-Reviews-Cantinho_Do_Bigode_Lanches-Brumadinho_State_of_Minas_Gerais.html
5384728,Restaurante Maia Gourmet,"Rua Aristides Passos 388 Jd Campomar, Brumadinho, Minas Gerais 35460-000 Brasil",Brumadinho ,indef,0,indef,-20.142778396606445,-44.20037841796875,https://www.tripadvisor.com.br/Restaurant_Review-g1747395-d5384728-Reviews-Restaurante_Maia_Gourmet-Brumadinho_State_of_Minas_Gerais.html
5343234,Restaurante Brasao,"Rua Padre Eustaquio 86 Me De Deus, Brumadinho, Minas Gerais 35460-000 Brasil",Brumadinho ,indef,0,indef,-20.1397762298584,-44.20130157470703,https://www.tripadvisor.com.br/Restaurant_Review-g1747395-d5343234-Reviews-Restaurante_Brasao-Brumadinho_State_of_Minas_Gerais.html
8192507,Canto Da Serra Restaurantes,"Fazenda Corrego Feijao SN Alberto Flores, Brumadinho, Minas Gerais Brasil",Brumadinho ,indef,0,indef,0.0,0.0,https://www.tripadvisor.com.br/Restaurant_Review-g1747395-d8192507-Reviews-Canto_Da_Serra_Restaurantes-Brumadinho_State_of_Minas_Gerais.html
5768028,Unibier,"Rua Presidente Vargas 870, Brumadinho, Minas Gerais 35460-000 Brasil",Brumadinho ,indef,0,indef,-20.149280548095703,-44.19857406616211,https://www.tripadvisor.com.br/Restaurant_Review-g1747395-d5768028-Reviews-Unibier-Brumadinho_State_of_Minas_Gerais.html
17679181,Kyödai Sushi bar,"Rua Itagua, 142 Loja 02, Brumadinho, Minas Gerais 35460-000 Brasil",Brumadinho ,indef,0,$,-20.141620635986328,-44.20573043823242,https://www.tripadvisor.com.br/Restaurant_Review-g1747395-d17679181-Reviews-Kyodai_Sushi_bar-Brumadinho_State_of_Minas_Gerais.html
5663604,Sabor & Arte,"Avenida Casa Branca 562 Rec Da Aldeia Cs Branca, Brumadinho, Minas Gerais 35460-000 Brasil",Brumadinho ,indef,0,indef,-20.081262588500977,-44.04541778564453,https://www.tripadvisor.com.br/Restaurant_Review-g1747395-d5663604-Reviews-Sabor_Arte-Brumadinho_State_of_Minas_Gerais.html
8229135,Restaurante E Lanchonete Saborzao,"Rua Presidente Vargas 1101 Jota, Brumadinho, Minas Gerais 35460-000 Brasil",Brumadinho ,indef,0,indef,-20.150733947753906,-44.198123931884766,https://www.tripadvisor.com.br/Restaurant_Review-g1747395-d8229135-Reviews-Restaurante_E_Lanchonete_Saborzao-Brumadinho_State_of_Minas_Gerais.html
12948757,Padaria E Lanchonete Tia Nenzinha,"Rua Presidente Vargas 152 Estela Passos, Brumadinho, Minas Gerais 35460-000 Brasil",Brumadinho ,indef,0,indef,-20.142549514770508,-44.201316833496094,https://www.tripadvisor.com.br/Restaurant_Review-g1747395-d12948757-Reviews-Padaria_E_Lanchonete_Tia_Nenzinha-Brumadinho_State_of_Minas_Gerais.html
5744069,Pastelaria Mais,"Praca a 37 Sta Cruz, Brumadinho, Minas Gerais 35460-000 Brasil",Brumadinho ,indef,0,indef,-20.097089767456055,-44.04478073120117,https://www.tripadvisor.com.br/Restaurant_Review-g1747395-d5744069-Reviews-Pastelaria_Mais-Brumadinho_State_of_Minas_Gerais.html
8206760,Bar & Restaurante Aquarius,"Rua Um, 520 Lj 1 Crg Do Feijao, Brumadinho, Minas Gerais 35460-000 Brasil",Brumadinho ,indef,0,indef,-20.119314193725586,-44.18086242675781,https://www.tripadvisor.com.br/Restaurant_Review-g1747395-d8206760-Reviews-Bar_Restaurante_Aquarius-Brumadinho_State_of_Minas_Gerais.html
8206756,Recanto Do Grilo,"Rua Um 490 Taquaracu, Brumadinho, Minas Gerais 35460-000 Brasil",Brumadinho ,indef,0,indef,-20.119434356689453,-44.181121826171875,https://www.tripadvisor.com.br/Restaurant_Review-g1747395-d8206756-Reviews-Recanto_Do_Grilo-Brumadinho_State_of_Minas_Gerais.html
5686646,Bar Santa Luzia,"Praca Paulo Alves Moreira 57 Centro, Brumadinho, Minas Gerais 35460-000 Brasil",Brumadinho ,indef,0,indef,-20.137853622436523,-44.219627380371094,https://www.tripadvisor.com.br/Restaurant_Review-g1747395-d5686646-Reviews-Bar_Santa_Luzia-Brumadinho_State_of_Minas_Gerais.html
5692993,Bruma Lanches,"Cnd Ferteco 86 Crg Do Feijao, Brumadinho, Minas Gerais 35460-000 Brasil",Brumadinho ,indef,0,indef,-20.191429138183594,-43.99053955078125,https://www.tripadvisor.com.br/Restaurant_Review-g1747395-d5692993-Reviews-Bruma_Lanches-Brumadinho_State_of_Minas_Gerais.html
5868330,Emporio Caipira Picolé Artesanal,"R. Água Branca, 177 Piedade do Paraopeba, Brumadinho, Minas Gerais 35460-000 Brasil",Brumadinho ,indef,0,indef,-20.162797927856445,-44.026451110839844,https://www.tripadvisor.com.br/Restaurant_Review-g1747395-d5868330-Reviews-Emporio_Caipira_Picole_Artesanal-Brumadinho_State_of_Minas_Gerais.html
8156503,Restaurante Pais E Filhos,"A, 39 Lj 1 Santa Cruz, Brumadinho, Minas Gerais 35460-000 Brasil",Brumadinho ,indef,0,indef,-19.767860412597656,-43.93526840209961,https://www.tripadvisor.com.br/Restaurant_Review-g1747395-d8156503-Reviews-Restaurante_Pais_E_Filhos-Brumadinho_State_of_Minas_Gerais.html
