hotel_id,nome,endereco,cidade,preco,tipo,qtd_quartos,qtd_avaliacoes,nota,categoria,nota_pedestres,restaurantes_perto,atracoes_perto,latitude,longitude,fonte
585481,NH Alicante,"Calle Mexico 18 Esquina Rosa Chacel Babel, 03008 Alicante Espanha",Alicante ,461,indef,indef,964,4.0,4.0,63,73,8,38.336280822753906,-0.5072159767150879,https://www.tripadvisor.com.br/Hotel_Review-g1064230-d585481-Reviews-NH_Alicante-Alicante_Costa_Blanca_Province_of_Alicante_Valencian_Country.html
270981,Hotel Spa Porta Maris by Meliá,"Plaza de la Puerta del Mar 3, 03002 Alicante Espanha",Alicante ,1789,Hotel,indef,1779,4.0,4.0,99,140,28,38.34208297729492,-0.4784480035305023,https://www.tripadvisor.com.br/Hotel_Review-g1064230-d270981-Reviews-Hotel_Spa_Porta_Maris_by_Melia-Alicante_Costa_Blanca_Province_of_Alicante_Valencian_Co.html
206947,Occidental Alicante,"Calle Tomas Lopez Torregrosa 11 Num. 7-9, 03002 Alicante Espanha",Alicante ,497,indef,indef,118,4.5,3.0,100,545,94,38.34736633300781,-0.4852040112018585,https://www.tripadvisor.com.br/Hotel_Review-g1064230-d206947-Reviews-Occidental_Alicante-Alicante_Costa_Blanca_Province_of_Alicante_Valencian_Country.html
228631,Hotel Maya Alicante,"Calle Canonigo Manuel Lorenzo Penalva 2, 03013 Alicante Espanha",Alicante ,568,Hotel,indef,1866,4.0,3.0,87,225,49,38.35189437866211,-0.47467300295829773,https://www.tripadvisor.com.br/Hotel_Review-g1064230-d228631-Reviews-Hotel_Maya_Alicante-Alicante_Costa_Blanca_Province_of_Alicante_Valencian_Country.html
228649,Hotel Alicante Gran Sol affiliated by Meliá,"Rambla de Mendez Nunez 3, 03002 Alicante Espanha",Alicante ,928,Hotel,indef,1074,4.0,4.0,100,490,99,38.343910217285156,-0.4830479919910431,https://www.tripadvisor.com.br/Hotel_Review-g1064230-d228649-Reviews-Hotel_Alicante_Gran_Sol_affiliated_by_Melia-Alicante_Costa_Blanca_Province_of_Alicante.html
1370879,Hotel Boutique Calas de Alicante,"Avenida Costablanca, 22-A Cabo de las Huertas, 3540 Alicante Espanha",Alicante ,838,Hotel,indef,149,4.5,3.0,69,13,3,38.35768508911133,-0.4308370053768158,https://www.tripadvisor.com.br/Hotel_Review-g1064230-d1370879-Reviews-Hotel_Boutique_Calas_de_Alicante-Alicante_Costa_Blanca_Province_of_Alicante_Valencian.html
19012371,"Casa Alberola Alicante, Curio Collection by Hilton","Calle Canalejas 1, 03001 Alicante Espanha",Alicante ,1120,indef,indef,81,4.5,indef,100,399,55,38.34214401245117,-0.48639601469039917,https://www.tripadvisor.com.br/Hotel_Review-g1064230-d19012371-Reviews-Casa_Alberola_Alicante_Curio_Collection_by_Hilton-Alicante_Costa_Blanca_Province_of_.html
1168477,Hotel Castilla Alicante,"Avenida Paises Escandinavos 7, 03540 Alicante Espanha",Alicante ,361,Hotel,indef,758,4.0,3.0,71,129,7,38.37305450439453,-0.41244399547576904,https://www.tripadvisor.com.br/Hotel_Review-g1064230-d1168477-Reviews-Hotel_Castilla_Alicante-Alicante_Costa_Blanca_Province_of_Alicante_Valencian_Country.html
483592,Eurostars Centrum Alicante,"Calle Pintor Lorenzo Casanova 31-33, 03003 Alicante Espanha",Alicante ,628,indef,indef,1096,4.0,4.0,95,149,17,38.340843200683594,-0.49192801117897034,https://www.tripadvisor.com.br/Hotel_Review-g1064230-d483592-Reviews-Eurostars_Centrum_Alicante-Alicante_Costa_Blanca_Province_of_Alicante_Valencian_Countr.html
605649,Eurostars Lucentum,"Avenida Alfonso X El Sabio 11, 03002 Alicante Espanha",Alicante ,592,indef,indef,1359,4.0,4.0,100,527,84,38.34748840332031,-0.4861850142478943,https://www.tripadvisor.com.br/Hotel_Review-g1064230-d605649-Reviews-Eurostars_Lucentum-Alicante_Costa_Blanca_Province_of_Alicante_Valencian_Country.html
228599,Melia Alicante,"Plaza del Puerto 3, 03001 Alicante Espanha",Alicante ,848,indef,indef,6763,4.0,4.0,100,201,43,38.34347152709961,-0.47863098978996277,https://www.tripadvisor.com.br/Hotel_Review-g1064230-d228599-Reviews-Melia_Alicante-Alicante_Costa_Blanca_Province_of_Alicante_Valencian_Country.html
289504,Hotel Almirante,"Avenida Niza 38 Playa de San Juan, 03540 Alicante Espanha",Alicante ,371,Hotel,indef,625,4.0,3.0,56,43,4,38.38328170776367,-0.410535991191864,https://www.tripadvisor.com.br/Hotel_Review-g1064230-d289504-Reviews-Hotel_Almirante-Alicante_Costa_Blanca_Province_of_Alicante_Valencian_Country.html
13005679,Hotel Boutique Alicante,"Calle Miguel Soler 22, 03002 Alicante Espanha",Alicante ,634,Hotel,indef,144,5.0,4.0,100,469,94,38.34536361694336,-0.4821850061416626,https://www.tripadvisor.com.br/Hotel_Review-g1064230-d13005679-Reviews-Hotel_Boutique_Alicante-Alicante_Costa_Blanca_Province_of_Alicante_Valencian_Country.html
277469,Campanile Alicante,"Avenida Elche Esquina Federico Mayo, 21, 03008 Alicante Espanha",Alicante ,318,indef,indef,366,3.5,3.0,64,107,8,38.33705520629883,-0.5017539858818054,https://www.tripadvisor.com.br/Hotel_Review-g1064230-d277469-Reviews-Campanile_Alicante-Alicante_Costa_Blanca_Province_of_Alicante_Valencian_Country.html
16668326,The Level at Meliá Alicante,"Plaza de la Puerta del Mar 3, 03002 Alicante Espanha",Alicante ,1442,indef,indef,59,4.0,4.0,100,157,32,38.342681884765625,-0.4783659875392914,https://www.tripadvisor.com.br/Hotel_Review-g1064230-d16668326-Reviews-The_Level_at_Melia_Alicante-Alicante_Costa_Blanca_Province_of_Alicante_Valencian_Cou.html
1210723,B&B Hotel Alicante,"Calle Belgica 1, 03008 Alicante Espanha",Alicante ,260,Hotel,indef,559,3.5,3.0,indef,indef,indef,38.3140754699707,-0.517192006111145,https://www.tripadvisor.com.br/Hotel_Review-g1064230-d1210723-Reviews-B_B_Hotel_Alicante-Alicante_Costa_Blanca_Province_of_Alicante_Valencian_Country.html
241895,Hotel Albahia,"Calle Sol Naciente 6 Albufereta, 03016 Alicante Espanha",Alicante ,293,Hotel,indef,816,3.5,3.0,indef,indef,indef,38.35907745361328,-0.45383599400520325,https://www.tripadvisor.com.br/Hotel_Review-g1064230-d241895-Reviews-Hotel_Albahia-Alicante_Costa_Blanca_Province_of_Alicante_Valencian_Country.html
19738504,Serawa Alicante,"San Fernando, 16, 03002 Alicante Espanha",Alicante ,832,indef,indef,22,4.5,4.0,100,471,96,38.34423065185547,-0.4822230041027069,https://www.tripadvisor.com.br/Hotel_Review-g1064230-d19738504-Reviews-Serawa_Alicante-Alicante_Costa_Blanca_Province_of_Alicante_Valencian_Country.html
1084312,Hotel La City Estacion,"Avenida de Salamanca 16, 03005 Alicante Espanha",Alicante ,476,Hotel,indef,240,4.0,3.0,95,148,12,38.344852447509766,-0.49461299180984497,https://www.tripadvisor.com.br/Hotel_Review-g1064230-d1084312-Reviews-Hotel_La_City_Estacion-Alicante_Costa_Blanca_Province_of_Alicante_Valencian_Country.html
20266524,Hotel Suites del Mar by Melia,"Plaza de la Puerta del Mar 3, 03002 Alicante Espanha",Alicante ,indef,Hotel,indef,21,4.0,4.0,97,115,28,38.34197235107422,-0.47824299335479736,https://www.tripadvisor.com.br/Hotel_Review-g1064230-d20266524-Reviews-Hotel_Suites_del_Mar_by_Melia-Alicante_Costa_Blanca_Province_of_Alicante_Valencian_C.html
19095430,Myflats,"Calle Bailen 21, 03001 Alicante Espanha",Alicante ,377,indef,indef,22,4.5,indef,100,554,103,38.34523010253906,-0.4845699965953827,https://www.tripadvisor.com.br/Hotel_Review-g1064230-d19095430-Reviews-Myflats-Alicante_Costa_Blanca_Province_of_Alicante_Valencian_Country.html
10817387,Hotel la City Mercado,"Avenida de Alfonso El Sabio 26, 03004 Alicante Espanha",Alicante ,509,Hotel,indef,129,4.0,3.0,100,491,76,38.34702682495117,-0.488101989030838,https://www.tripadvisor.com.br/Hotel_Review-g1064230-d10817387-Reviews-Hotel_la_City_Mercado-Alicante_Costa_Blanca_Province_of_Alicante_Valencian_Country.html
630331,Eurostars Mediterranea Plaza,"Plaza del Ayuntamiento, 6, 03002 Alicante Espanha",Alicante ,652,indef,indef,747,4.0,4.0,100,429,86,38.34489059448242,-0.48124000430107117,https://www.tripadvisor.com.br/Hotel_Review-g1064230-d630331-Reviews-Eurostars_Mediterranea_Plaza-Alicante_Costa_Blanca_Province_of_Alicante_Valencian_Coun.html
1526898,El Plantio Golf Resort,"Antigua Ctra Alicante - Elche (A-79) Km3, 03114 Alicante Espanha",Alicante ,509,indef,indef,641,4.0,4.0,indef,indef,indef,38.309600830078125,-0.5408629775047302,https://www.tripadvisor.com.br/Hotel_Review-g1064230-d1526898-Reviews-El_Plantio_Golf_Resort-Alicante_Costa_Blanca_Province_of_Alicante_Valencian_Country.html
248966,Hotel Alicante Golf,"Calle de l'Escultor Jose Gutierrez 23, 03540 Alicante Espanha",Alicante ,533,Hotel,indef,705,3.5,4.0,59,11,2,38.375213623046875,-0.4214099943637848,https://www.tripadvisor.com.br/Hotel_Review-g1064230-d248966-Reviews-Hotel_Alicante_Golf-Alicante_Costa_Blanca_Province_of_Alicante_Valencian_Country.html
644799,Ibis Budget Alicante,"Calle Belgica 3B, 03008 Alicante Espanha",Alicante ,221,indef,indef,496,3.0,1.0,indef,indef,indef,38.31340408325195,-0.517844021320343,https://www.tripadvisor.com.br/Hotel_Review-g1064230-d644799-Reviews-Ibis_Budget_Alicante-Alicante_Costa_Blanca_Province_of_Alicante_Valencian_Country.html
21349253,Arenal Suites Alicante,"Calle de los Labradores 24, 03002 Alicante Espanha",Alicante ,461,indef,indef,5,5.0,4.0,100,529,99,38.346435546875,-0.4834589958190918,https://www.tripadvisor.com.br/Hotel_Review-g1064230-d21349253-Reviews-Arenal_Suites_Alicante-Alicante_Costa_Blanca_Province_of_Alicante_Valencian_Country.html
6874966,Chameleon Hostel Alicante,"Calle Pintor Gisbert 46, 03005 Alicante Espanha",Alicante ,613,Hostel,indef,78,3.5,2.0,84,53,3,38.347938537597656,-0.49707600474357605,https://www.tripadvisor.com.br/Hotel_Review-g1064230-d6874966-Reviews-Chameleon_Hostel_Alicante-Alicante_Costa_Blanca_Province_of_Alicante_Valencian_Countr.html
16748256,Amelia Habitaciones,"Calle de Miguel Soler N. 10, 03002 Alicante Espanha",Alicante ,359,indef,indef,12,4.5,indef,100,498,99,38.345149993896484,-0.4829399883747101,https://www.tripadvisor.com.br/Hotel_Review-g1064230-d16748256-Reviews-Amelia_Habitaciones-Alicante_Costa_Blanca_Province_of_Alicante_Valencian_Country.html
487077,Hospes Amerigo,"Calle Rafael Altamira 7, 03002 Alicante Espanha",Alicante ,1185,indef,indef,1944,4.5,5.0,100,482,98,38.344444274902344,-0.4826529920101166,https://www.tripadvisor.com.br/Hotel_Review-g1064230-d487077-Reviews-Hospes_Amerigo-Alicante_Costa_Blanca_Province_of_Alicante_Valencian_Country.html
11778431,Tomate Rooms,"Calle de Rafael Altamira 3 1st floor, Office 101, 03002 Alicante Espanha",Alicante ,500,indef,indef,53,5.0,3.0,100,493,100,38.34454345703125,-0.4829919934272766,https://www.tripadvisor.com.br/Hotel_Review-g1064230-d11778431-Reviews-Tomate_Rooms-Alicante_Costa_Blanca_Province_of_Alicante_Valencian_Country.html
4716734,Hotel Mendez Nunez,"Rambla de Mendez Nunez 9, 03002 Alicante Espanha",Alicante ,485,Hotel,indef,290,4.0,2.0,100,509,103,38.34475326538086,-0.4835990071296692,https://www.tripadvisor.com.br/Hotel_Review-g1064230-d4716734-Reviews-Hotel_Mendez_Nunez-Alicante_Costa_Blanca_Province_of_Alicante_Valencian_Country.html
8009792,Hostel Ole,"Calle Poeta Quintana 26, 03004 Alicante Espanha",Alicante ,indef,Hostel,indef,119,4.5,indef,100,363,56,38.34822463989258,-0.48823899030685425,https://www.tripadvisor.com.br/Hotel_Review-g1064230-d8009792-Reviews-Hostel_Ole-Alicante_Costa_Blanca_Province_of_Alicante_Valencian_Country.html
7998423,Luces de Catedral,"Calle San Nicolas 2 Cerca del Ayuntamiento de Alicante, 03002 Alicante Espanha",Alicante ,626,indef,indef,82,4.5,3.0,100,466,93,38.34519958496094,-0.482012003660202,https://www.tripadvisor.com.br/Hotel_Review-g1064230-d7998423-Reviews-Luces_de_Catedral-Alicante_Costa_Blanca_Province_of_Alicante_Valencian_Country.html
1423246,La Lonja,"Calle Capitan Segarra 10, 03004 Alicante Espanha",Alicante ,211,indef,indef,381,3.5,2.0,100,303,54,38.349525451660156,-0.4868350028991699,https://www.tripadvisor.com.br/Hotel_Review-g1064230-d1423246-Reviews-La_Lonja-Alicante_Costa_Blanca_Province_of_Alicante_Valencian_Country.html
21159989,4STUDIOS B&B Alicante,"Carrer Ab el Hamet, 7, 1C, 03003 Alicante Espanha",Alicante ,1795,indef,indef,21,5.0,indef,95,123,18,38.33963394165039,-0.4895780086517334,https://www.tripadvisor.com.br/Hotel_Review-g1064230-d21159989-Reviews-4STUDIOS_B_B_Alicante-Alicante_Costa_Blanca_Province_of_Alicante_Valencian_Country.html
7623565,Apartamentos Living Alicante,"Calle Cid 11, 03001 Alicante Espanha",Alicante ,544,indef,indef,71,4.5,indef,100,500,75,38.34322738647461,-0.4868279993534088,https://www.tripadvisor.com.br/Hotel_Review-g1064230-d7623565-Reviews-Apartamentos_Living_Alicante-Alicante_Costa_Blanca_Province_of_Alicante_Valencian_Cou.html
535571,Hotel Rambla,"Rambla Mendez Nunez 9 9th Rambla Mendez Nunez Av, 03002 Alicante Espanha",Alicante ,479,Hotel,indef,256,4.0,2.0,100,508,103,38.34477996826172,-0.483585000038147,https://www.tripadvisor.com.br/Hotel_Review-g1064230-d535571-Reviews-Hotel_Rambla-Alicante_Costa_Blanca_Province_of_Alicante_Valencian_Country.html
12456039,Palacio Salvetti Suites,"Carrer Castanos, 7, 03001 Alicante Espanha",Alicante ,2073,indef,indef,27,5.0,indef,100,553,103,38.34455871582031,-0.4851360023021698,https://www.tripadvisor.com.br/Hotel_Review-g1064230-d12456039-Reviews-Palacio_Salvetti_Suites-Alicante_Costa_Blanca_Province_of_Alicante_Valencian_Country.html
3400962,Pension Arena Alicante,"Calle San Vicente 49, 03004 Alicante Espanha",Alicante ,251,indef,indef,105,4.0,indef,100,230,47,38.35029602050781,-0.4849970042705536,https://www.tripadvisor.com.br/Hotel_Review-g1064230-d3400962-Reviews-Pension_Arena_Alicante-Alicante_Costa_Blanca_Province_of_Alicante_Valencian_Country.html
648269,Hotel Gravina Cinco,"Calle Gravina 5, 03002 Alicante Espanha",Alicante ,688,Hotel,indef,224,4.0,indef,100,363,79,38.34507751464844,-0.4803999960422516,https://www.tripadvisor.com.br/Hotel_Review-g1064230-d648269-Reviews-Hotel_Gravina_Cinco-Alicante_Costa_Blanca_Province_of_Alicante_Valencian_Country.html
2026821,X Hostel Alicante,"Calle Tucuman 28, 03005 Alicante Espanha",Alicante ,indef,Hostel,indef,123,4.5,2.0,98,136,13,38.34775924682617,-0.4932279884815216,https://www.tripadvisor.com.br/Hotel_Review-g1064230-d2026821-Reviews-X_Hostel_Alicante-Alicante_Costa_Blanca_Province_of_Alicante_Valencian_Country.html
19176310,Balmis Plaza Apartments,"Placa del Doctor Balmis 1, 03001 Alicante Espanha",Alicante ,796,indef,indef,17,5.0,indef,100,481,71,38.34318161010742,-0.48726099729537964,https://www.tripadvisor.com.br/Hotel_Review-g1064230-d19176310-Reviews-Balmis_Plaza_Apartments-Alicante_Costa_Blanca_Province_of_Alicante_Valencian_Country.html
8048095,The Lucky Flats,"Calle de Tomas Lopez Torregrosa 5, 03002 Alicante Espanha",Alicante ,501,indef,indef,66,4.5,indef,100,566,99,38.347110748291016,-0.48500001430511475,https://www.tripadvisor.com.br/Hotel_Review-g1064230-d8048095-Reviews-The_Lucky_Flats-Alicante_Costa_Blanca_Province_of_Alicante_Valencian_Country.html
1737649,Explanada Hotel Alicante,"Calle San Fernando 18, 03002 Alicante Espanha",Alicante ,indef,Hotel,indef,179,3.5,3.0,100,475,99,38.34406661987305,-0.4824250042438507,https://www.tripadvisor.com.br/Hotel_Review-g1064230-d1737649-Reviews-Explanada_Hotel_Alicante-Alicante_Costa_Blanca_Province_of_Alicante_Valencian_Country.html
231492,Estudiotel,"Calle Poeta Vila y Blanco 4 Al lado El Corte Ingles, 03003 Alicante Espanha",Alicante ,419,indef,indef,295,3.5,2.0,100,373,43,38.344444274902344,-0.4904400110244751,https://www.tripadvisor.com.br/Hotel_Review-g1064230-d231492-Reviews-Estudiotel-Alicante_Costa_Blanca_Province_of_Alicante_Valencian_Country.html
10321487,Barrio Boutik Hotel,"Calle de Carmen 9, 03002 Alicante Espanha",Alicante ,353,Hotel,indef,45,4.5,indef,100,475,89,38.34679412841797,-0.48214998841285706,https://www.tripadvisor.com.br/Hotel_Review-g1064230-d10321487-Reviews-Barrio_Boutik_Hotel-Alicante_Costa_Blanca_Province_of_Alicante_Valencian_Country.html
594115,Hotel Cervantes,"Calle Medico Pascual Perez 19, 03001 Alicante Espanha",Alicante ,291,Hotel,indef,249,3.5,2.0,100,581,91,38.346073150634766,-0.4873180091381073,https://www.tripadvisor.com.br/Hotel_Review-g1064230-d594115-Reviews-Hotel_Cervantes-Alicante_Costa_Blanca_Province_of_Alicante_Valencian_Country.html
1464131,Hotel Rialto,"Calle Castanos 30, 03001 Alicante Espanha",Alicante ,413,Hotel,indef,138,3.5,1.0,100,589,102,38.345760345458984,-0.4854870140552521,https://www.tripadvisor.com.br/Hotel_Review-g1064230-d1464131-Reviews-Hotel_Rialto-Alicante_Costa_Blanca_Province_of_Alicante_Valencian_Country.html
5532426,Santa Barbara Guesthouse,"Del Carmen, 8, 3002 Alicante Espanha",Alicante ,indef,indef,indef,47,4.0,2.0,100,471,90,38.34674835205078,-0.4820989966392517,https://www.tripadvisor.com.br/Hotel_Review-g1064230-d5532426-Reviews-Santa_Barbara_Guesthouse-Alicante_Costa_Blanca_Province_of_Alicante_Valencian_Country.html
1807038,Guesthouse Alicante,"Calle Segura 20, 03004 Alicante Espanha",Alicante ,299,indef,indef,58,4.5,indef,100,304,36,38.34764099121094,-0.4903799891471863,https://www.tripadvisor.com.br/Hotel_Review-g1064230-d1807038-Reviews-Guesthouse_Alicante-Alicante_Costa_Blanca_Province_of_Alicante_Valencian_Country.html
8869301,Color Suites Alicante,"Calle Italia 20 Entresuelo, 03003 Alicante Espanha",Alicante ,419,indef,indef,63,4.5,3.0,96,143,17,38.340599060058594,-0.49114900827407837,https://www.tripadvisor.com.br/Hotel_Review-g1064230-d8869301-Reviews-Color_Suites_Alicante-Alicante_Costa_Blanca_Province_of_Alicante_Valencian_Country.html
312213,Hotel les Monges Palace Boutique,"Calle San Agustin 4 San Agustin Nº 4, 03002 Alicante Espanha",Alicante ,389,Hotel,indef,336,4.0,indef,100,433,86,38.34590148925781,-0.4815270006656647,https://www.tripadvisor.com.br/Hotel_Review-g1064230-d312213-Reviews-Hotel_les_Monges_Palace_Boutique-Alicante_Costa_Blanca_Province_of_Alicante_Valencian_.html
655881,Hostal Mont Royal,"Calle Tridente 27-29 Cabo Huerta, 03540 Alicante Espanha",Alicante ,377,indef,indef,80,4.0,2.0,70,132,21,38.36027908325195,-0.42472198605537415,https://www.tripadvisor.com.br/Hotel_Review-g1064230-d655881-Reviews-Hostal_Mont_Royal-Alicante_Costa_Blanca_Province_of_Alicante_Valencian_Country.html
16954942,Myflats - Ds Villavieja,"Calle Villavieja 4, 03002 Alicante Espanha",Alicante ,2693,indef,indef,13,4.5,indef,100,329,70,38.34599304199219,-0.48004698753356934,https://www.tripadvisor.com.br/Hotel_Review-g1064230-d16954942-Reviews-Myflats_Ds_Villavieja-Alicante_Costa_Blanca_Province_of_Alicante_Valencian_Country.html
16740486,Pinzon Studios,"Calle de Bazan 8-10, 03001 Alicante Espanha",Alicante ,586,indef,indef,7,5.0,indef,100,574,100,38.34476089477539,-0.48565998673439026,https://www.tripadvisor.com.br/Hotel_Review-g1064230-d16740486-Reviews-Pinzon_Studios-Alicante_Costa_Blanca_Province_of_Alicante_Valencian_Country.html
4234476,Apartamentos Concorde,"Plaza San Juan de Dios 10, Alicante, Avda.de Bruselas, 03540, 03010 Alicante Espanha",Alicante ,indef,indef,indef,122,3.5,indef,73,92,2,38.37055587768555,-0.41343098878860474,https://www.tripadvisor.com.br/Hotel_Review-g1064230-d4234476-Reviews-Apartamentos_Concorde-Alicante_Costa_Blanca_Province_of_Alicante_Valencian_Country.html
5483116,Old Centre Inn Alicante,"Plaza del Ayuntamiento, 3, 3002 Alicante Espanha",Alicante ,239,indef,indef,35,4.0,indef,100,396,79,38.34524154663086,-0.4807110130786896,https://www.tripadvisor.com.br/Hotel_Review-g1064230-d5483116-Reviews-Old_Centre_Inn_Alicante-Alicante_Costa_Blanca_Province_of_Alicante_Valencian_Country.html
13531578,Old Town Alicante,"Calle Pintor Cabrera 15, 1 Izquierda, 03003 Alicante Espanha",Alicante ,280,indef,indef,13,4.0,3.0,100,246,28,38.34446334838867,-0.49169600009918213,https://www.tripadvisor.com.br/Hotel_Review-g1064230-d13531578-Reviews-Old_Town_Alicante-Alicante_Costa_Blanca_Province_of_Alicante_Valencian_Country.html
14139527,Apartamentos Odysea by Mc,"Avenida Mariners de la Vila Joiosa 16, 03570 Alicante Espanha",Alicante ,428,indef,indef,10,4.0,indef,86,47,3,38.52537155151367,-0.16857999563217163,https://www.tripadvisor.com.br/Hotel_Review-g1064230-d14139527-Reviews-Apartamentos_Odysea_by_Mc-Alicante_Costa_Blanca_Province_of_Alicante_Valencian_Count.html
20146222,Hostal Numero Trece,"Calle del Maestro Caballero 13, 03004 Alicante Espanha",Alicante ,indef,indef,indef,3,5.0,3.0,99,104,18,38.352256774902344,-0.4877519905567169,https://www.tripadvisor.com.br/Hotel_Review-g1064230-d20146222-Reviews-Hostal_Numero_Trece-Alicante_Costa_Blanca_Province_of_Alicante_Valencian_Country.html
16640913,Apartamentos Plaza,"Calle de Rafael Terol 10, 03001 Alicante Espanha",Alicante ,1646,indef,indef,9,4.0,indef,100,504,84,38.343299865722656,-0.486050009727478,https://www.tripadvisor.com.br/Hotel_Review-g1064230-d16640913-Reviews-Apartamentos_Plaza-Alicante_Costa_Blanca_Province_of_Alicante_Valencian_Country.html
12952960,San Francisco 40 Apartments,"Calle San Francisco 40, 03001 Alicante Espanha",Alicante ,582,indef,indef,4,5.0,4.0,100,542,93,38.34381866455078,-0.4862000048160553,https://www.tripadvisor.com.br/Hotel_Review-g1064230-d12952960-Reviews-San_Francisco_40_Apartments-Alicante_Costa_Blanca_Province_of_Alicante_Valencian_Cou.html
8784727,Pension Alemania,"Calle Alemania n 15, 03003 Alicante Espanha",Alicante ,indef,indef,indef,16,3.5,3.0,100,296,39,38.34172821044922,-0.4890100061893463,https://www.tripadvisor.com.br/Hotel_Review-g1064230-d8784727-Reviews-Pension_Alemania-Alicante_Costa_Blanca_Province_of_Alicante_Valencian_Country.html
23342245,Urban Hotel By Mc,"Calle de los Castanos 30, 03001 Alicante Espanha",Alicante ,389,Hotel,indef,2,5.0,2.0,100,588,102,38.345706939697266,-0.485491007566452,https://www.tripadvisor.com.br/Hotel_Review-g1064230-d23342245-Reviews-Urban_Hotel_By_Mc-Alicante_Costa_Blanca_Province_of_Alicante_Valencian_Country.html
19977217,AH Hotel,"Calle Elisa Tomas Yusti 4, 03540 Alicante Espanha",Alicante ,indef,Hotel,indef,2,5.0,3.0,67,111,18,38.3603515625,-0.4178999960422516,https://www.tripadvisor.com.br/Hotel_Review-g1064230-d19977217-Reviews-AH_Hotel-Alicante_Costa_Blanca_Province_of_Alicante_Valencian_Country.html
21151416,MyFlats Luxury City Center,"Calle de San Francisco 40, 03001 Alicante Espanha",Alicante ,582,indef,indef,3,4.5,4.0,100,541,93,38.34379577636719,-0.48619401454925537,https://www.tripadvisor.com.br/Hotel_Review-g1064230-d21151416-Reviews-MyFlats_Luxury_City_Center-Alicante_Costa_Blanca_Province_of_Alicante_Valencian_Coun.html
15744045,El Pont,"Plaza del Puente 7 Atico, 03002 Alicante Espanha",Alicante ,898,indef,indef,5,4.0,2.0,100,483,91,38.34722137451172,-0.4825800061225891,https://www.tripadvisor.com.br/Hotel_Review-g1064230-d15744045-Reviews-El_Pont-Alicante_Costa_Blanca_Province_of_Alicante_Valencian_Country.html
14251687,Casa Ojala B&B,"Calle Cerda 99, 03009 Alicante Espanha",Alicante ,322,indef,indef,3,4.5,2.0,67,64,16,38.36431884765625,-0.496069997549057,https://www.tripadvisor.com.br/Hotel_Review-g1064230-d14251687-Reviews-Casa_Ojala_B_B-Alicante_Costa_Blanca_Province_of_Alicante_Valencian_Country.html
18436812,Hotel B&B Alicante,"Avenida de Elche 112, 03008 Alicante Espanha",Alicante ,312,Hotel,indef,3,4.5,4.0,indef,indef,indef,38.31003952026367,-0.5175600051879883,https://www.tripadvisor.com.br/Hotel_Review-g1064230-d18436812-Reviews-Hotel_B_B_Alicante-Alicante_Costa_Blanca_Province_of_Alicante_Valencian_Country.html
17765512,Collection Bed&Breakfast Centro Alicante,"Calle Calderon de la Barca 35 Escalera 1 1 Planta Puerta 1, 03004 Alicante Espanha",Alicante ,281,indef,indef,2,5.0,4.0,100,197,36,38.35074996948242,-0.4855400025844574,https://www.tripadvisor.com.br/Hotel_Review-g1064230-d17765512-Reviews-Collection_Bed_Breakfast_Centro_Alicante-Alicante_Costa_Blanca_Province_of_Alicante_.html
15809515,Alicante Aparthotel Evolution,"Calle de San Francisco 20,2º, 03001 Alicante Espanha",Alicante ,455,indef,indef,2,5.0,4.0,100,527,96,38.34400177001953,-0.48517000675201416,https://www.tripadvisor.com.br/Hotel_Review-g1064230-d15809515-Reviews-Alicante_Aparthotel_Evolution-Alicante_Costa_Blanca_Province_of_Alicante_Valencian_C.html
19604654,Apartamentos Santa Barbara,"Calle de Carmen 2, 03002 Alicante Espanha",Alicante ,428,indef,indef,2,4.5,4.0,100,506,92,38.34682083129883,-0.4828509986400604,https://www.tripadvisor.com.br/Hotel_Review-g1064230-d19604654-Reviews-Apartamentos_Santa_Barbara-Alicante_Costa_Blanca_Province_of_Alicante_Valencian_Coun.html
9977684,WellRenting Alicante SF,"51 Carrer Baron de Finestrat, 03001 Alicante Espanha",Alicante ,indef,indef,indef,3,4.5,4.0,100,533,79,38.343788146972656,-0.48750001192092896,https://www.tripadvisor.com.br/Hotel_Review-g1064230-d9977684-Reviews-WellRenting_Alicante_SF-Alicante_Costa_Blanca_Province_of_Alicante_Valencian_Country.html
15841869,City Center Alicante,"Santa Lucia 12, 1, 3002 Alicante Espanha",Alicante ,indef,indef,indef,4,4.0,4.0,100,428,86,38.344974517822266,-0.4811890125274658,https://www.tripadvisor.com.br/Hotel_Review-g1064230-d15841869-Reviews-City_Center_Alicante-Alicante_Costa_Blanca_Province_of_Alicante_Valencian_Country.html
12431732,Sweet San Francisco,"Calle San Francisco 42, 03001 Alicante Espanha",Alicante ,indef,indef,indef,6,4.0,indef,100,544,93,38.34381103515625,-0.48625999689102173,https://www.tripadvisor.com.br/Hotel_Review-g1064230-d12431732-Reviews-Sweet_San_Francisco-Alicante_Costa_Blanca_Province_of_Alicante_Valencian_Country.html
7786864,Amerigo Premium Apartments,"Calle Rafael Altamira 17, 03002 Alicante Espanha",Alicante ,indef,indef,indef,23,3.5,4.0,100,457,93,38.34489822387695,-0.4817799925804138,https://www.tripadvisor.com.br/Hotel_Review-g1064230-d7786864-Reviews-Amerigo_Premium_Apartments-Alicante_Costa_Blanca_Province_of_Alicante_Valencian_Count.html
15687158,Estudios Munoz,"Calle Munoz, 3. 2-8, 3002 Alicante Espanha",Alicante ,indef,indef,indef,1,5.0,4.0,100,489,97,38.34505844116211,-0.4826500117778778,https://www.tripadvisor.com.br/Hotel_Review-g1064230-d15687158-Reviews-Estudios_Munoz-Alicante_Costa_Blanca_Province_of_Alicante_Valencian_Country.html
23323098,Apartamentos Tandem Portal De Elche,"2 Carrer de Bailen, 03001 Alicante Espanha",Alicante ,389,indef,indef,1,5.0,4.0,100,510,101,38.34434127807617,-0.4837909936904907,https://www.tripadvisor.com.br/Hotel_Review-g1064230-d23323098-Reviews-Apartamentos_Tandem_Portal_De_Elche-Alicante_Costa_Blanca_Province_of_Alicante_Valen.html
23198334,Reina Victoria Prado Sastre,"Placa de Gabriel Miro 16, 03001 Alicante Espanha",Alicante ,945,indef,indef,1,5.0,3.0,100,523,94,38.34375,-0.4853299856185913,https://www.tripadvisor.com.br/Hotel_Review-g1064230-d23198334-Reviews-Reina_Victoria_Prado_Sastre-Alicante_Costa_Blanca_Province_of_Alicante_Valencian_Cou.html
21232124,Acogedor Y Centrico Apartamento,indef,Alicante ,indef,indef,indef,1,5.0,4.0,indef,indef,indef,indef,indef,https://www.tripadvisor.com.br/Hotel_Review-g1064230-d21232124-Reviews-Acogedor_Y_Centrico_Apartamento-Alicante_Costa_Blanca_Province_of_Alicante_Valencian.html
15815626,Alicante Centro Mercado,"Calle Manuel Anton 12 1 Derecha, 3004 Alicante Espanha",Alicante ,indef,indef,indef,2,4.0,3.0,100,285,49,38.34975051879883,-0.48657000064849854,https://www.tripadvisor.com.br/Hotel_Review-g1064230-d15815626-Reviews-Alicante_Centro_Mercado-Alicante_Costa_Blanca_Province_of_Alicante_Valencian_Country.html
17710279,Alicante Rambla Rooms,"Calle de San Vicente 19, 03004 Alicante Espanha",Alicante ,indef,indef,indef,1,5.0,4.0,100,343,62,38.349239349365234,-0.48497000336647034,https://www.tripadvisor.com.br/Hotel_Review-g1064230-d17710279-Reviews-Alicante_Rambla_Rooms-Alicante_Costa_Blanca_Province_of_Alicante_Valencian_Country.html
1077442,Hotel Alamo,"Calle San Fernando 56, 03001 Alicante Espanha",Alicante ,512,Hotel,indef,89,3.0,2.0,100,408,52,38.34237289428711,-0.48725900053977966,https://www.tripadvisor.com.br/Hotel_Review-g1064230-d1077442-Reviews-Hotel_Alamo-Alicante_Costa_Blanca_Province_of_Alicante_Valencian_Country.html
19921223,BN Suites,"Calle de San José 2, 03002 Alicante Espanha",Alicante ,indef,indef,indef,1,5.0,3.0,100,516,99,38.34531784057617,-0.48344001173973083,https://www.tripadvisor.com.br/Hotel_Review-g1064230-d19921223-Reviews-BN_Suites-Alicante_Costa_Blanca_Province_of_Alicante_Valencian_Country.html
15697538,Alicante Top Sea View 29th Apts Downtown & Beach,"Poeta Vila y Blanco N 2 y N 4, 3003 Alicante Espanha",Alicante ,449,indef,indef,1,5.0,1.0,100,381,44,38.344459533691406,-0.4903799891471863,https://www.tripadvisor.com.br/Hotel_Review-g1064230-d15697538-Reviews-Alicante_Top_Sea_View_29th_Apts_Downtown_Beach-Alicante_Costa_Blanca_Province_of_Ali.html
17656706,Big Room In The City Centre,"Rambla de Mendez Nunez 48, 03002 Alicante Espanha",Alicante ,156,indef,indef,1,5.0,4.0,100,543,95,38.347389221191406,-0.48447999358177185,https://www.tripadvisor.com.br/Hotel_Review-g1064230-d17656706-Reviews-Big_Room_In_The_City_Centre-Alicante_Costa_Blanca_Province_of_Alicante_Valencian_Cou.html
15072680,CasaCec Guesthouse,"Calle Maestro Gaztambide 20 2I, 03004 Alicante Espanha",Alicante ,indef,indef,indef,1,5.0,4.0,100,207,26,38.34996032714844,-0.48976001143455505,https://www.tripadvisor.com.br/Hotel_Review-g1064230-d15072680-Reviews-CasaCec_Guesthouse-Alicante_Costa_Blanca_Province_of_Alicante_Valencian_Country.html
15324131,Sweet Dreams,"Calle Aspe 14-16-18, Primero C, 03012 Alicante Espanha",Alicante ,indef,indef,indef,1,5.0,3.0,84,61,6,38.356231689453125,-0.4834499955177307,https://www.tripadvisor.com.br/Hotel_Review-g1064230-d15324131-Reviews-Sweet_Dreams-Alicante_Costa_Blanca_Province_of_Alicante_Valencian_Country.html
20260278,Casa Teniente Duran,"Calle del Teniente Duran 28 Escalera 1 Planta 2 Puerta 1, 03004 Alicante Espanha",Alicante ,375,indef,indef,3,3.5,4.0,95,98,15,38.35224151611328,-0.489300012588501,https://www.tripadvisor.com.br/Hotel_Review-g1064230-d20260278-Reviews-Casa_Teniente_Duran-Alicante_Costa_Blanca_Province_of_Alicante_Valencian_Country.html
15655664,Apartamentos Alfonso X,"Avenida Alfonso X El Sabio, 9, 3002 Alicante Espanha",Alicante ,indef,indef,indef,1,5.0,3.0,100,517,84,38.347679138183594,-0.48576998710632324,https://www.tripadvisor.com.br/Hotel_Review-g1064230-d15655664-Reviews-Apartamentos_Alfonso_X-Alicante_Costa_Blanca_Province_of_Alicante_Valencian_Country.html
23728379,Occidental Alicante,"Tomas Lopez Torregrosa 7,9, 003002 Alicante Espanha",Alicante ,450,indef,indef,1,4.0,4.0,100,559,98,38.34716033935547,-0.485044002532959,https://www.tripadvisor.com.br/Hotel_Review-g1064230-d23728379-Reviews-Occidental_Alicante-Alicante_Costa_Blanca_Province_of_Alicante_Valencian_Country.html
23236654,VIL5 by Be Alicante,"Calle Villavieja 5 5, 03002 Alicante Espanha",Alicante ,359,indef,indef,1,4.0,4.0,100,316,67,38.3461799621582,-0.47988998889923096,https://www.tripadvisor.com.br/Hotel_Review-g1064230-d23236654-Reviews-VIL5_by_Be_Alicante-Alicante_Costa_Blanca_Province_of_Alicante_Valencian_Country.html
23337456,Villamartin Golf Health & Beauty,"Carretera Villamartin 0, 03189 Alicante Espanha",Alicante ,592,indef,indef,2,3.5,1.0,53,61,9,37.92888641357422,-0.7415670156478882,https://www.tripadvisor.com.br/Hotel_Review-g1064230-d23337456-Reviews-Villamartin_Golf_Health_Beauty-Alicante_Costa_Blanca_Province_of_Alicante_Valencian_.html
21199448,3 Calle Donoso Cortes,"Calle Donoso Cortes 3, 03012 Alicante Espanha",Alicante ,indef,indef,indef,1,4.0,2.0,84,58,6,38.3563117980957,-0.48399999737739563,https://www.tripadvisor.com.br/Hotel_Review-g1064230-d21199448-Reviews-3_Calle_Donoso_Cortes-Alicante_Costa_Blanca_Province_of_Alicante_Valencian_Country.html
12959039,San Vicente Rooms,"Calle de San Vicente 19 4 Left, 03004 Alicante Espanha",Alicante ,indef,indef,indef,4,3.5,3.0,100,343,62,38.349239349365234,-0.48497000336647034,https://www.tripadvisor.com.br/Hotel_Review-g1064230-d12959039-Reviews-San_Vicente_Rooms-Alicante_Costa_Blanca_Province_of_Alicante_Valencian_Country.html
14087145,ABAL Apartments - Teatro,"Calle del Angel Lozano 14, 03001 Alicante Espanha",Alicante ,510,indef,indef,1,4.0,4.0,100,526,77,38.34629821777344,-0.48837000131607056,https://www.tripadvisor.com.br/Hotel_Review-g1064230-d14087145-Reviews-ABAL_Apartments_Teatro-Alicante_Costa_Blanca_Province_of_Alicante_Valencian_Country.html
15565103,Hola Hostel Alicante,"Calle Gral. Primo De Rivera, 03002 Alicante Espanha",Alicante ,indef,Hostel,indef,1,4.0,5.0,100,525,89,38.347591400146484,-0.48429998755455017,https://www.tripadvisor.com.br/Hotel_Review-g1064230-d15565103-Reviews-Hola_Hostel_Alicante-Alicante_Costa_Blanca_Province_of_Alicante_Valencian_Country.html
1106911,Playa Golf II,"Campoamor, Costa Blanca La Zenia, Alicante Espanha",Alicante ,indef,indef,indef,3,4.5,3.0,68,34,10,38.362159729003906,-0.436489999294281,https://www.tripadvisor.com.br/Hotel_Review-g1064230-d1106911-Reviews-Playa_Golf_II-Alicante_Costa_Blanca_Province_of_Alicante_Valencian_Country.html
20881255,Rooms Estacion,"Avenida de la Estacion 27, 03003 Alicante Espanha",Alicante ,150,indef,indef,2,1.0,4.0,95,157,13,38.34458923339844,-0.49417001008987427,https://www.tripadvisor.com.br/Hotel_Review-g1064230-d20881255-Reviews-Rooms_Estacion-Alicante_Costa_Blanca_Province_of_Alicante_Valencian_Country.html
1508931,Hostal Bahia Alicante,"Carrer Elisa Yusti Tomas 4 Playa de San Juan, 03540 Alicante Espanha",Alicante ,indef,indef,indef,8,2.5,1.0,67,111,18,38.3603515625,-0.4178999960422516,https://www.tripadvisor.com.br/Hotel_Review-g1064230-d1508931-Reviews-Hostal_Bahia_Alicante-Alicante_Costa_Blanca_Province_of_Alicante_Valencian_Country.html
15695483,Alicante Skylights Apartments,"Calle Poeta Vila y Blanco 4, 03003 Alicante Espanha",Alicante ,579,indef,indef,2,1.0,4.0,100,406,47,38.34459686279297,-0.4902389943599701,https://www.tripadvisor.com.br/Hotel_Review-g1064230-d15695483-Reviews-Alicante_Skylights_Apartments-Alicante_Costa_Blanca_Province_of_Alicante_Valencian_C.html
16756083,Hostal El Paraiso,"Av. Albufereta, 85, 03016 Alicante Espanha",Alicante ,266,indef,indef,5,2.0,4.0,42,27,7,38.36408996582031,-0.448309987783432,https://www.tripadvisor.com.br/Hotel_Review-g1064230-d16756083-Reviews-Hostal_El_Paraiso-Alicante_Costa_Blanca_Province_of_Alicante_Valencian_Country.html
1211475,Leuka Hotel,"Calle Segura 23, 03004 Alicante Espanha",Alicante ,259,Hotel,indef,275,2.5,3.0,100,275,31,38.34788131713867,-0.4907299876213074,https://www.tripadvisor.com.br/Hotel_Review-g1064230-d1211475-Reviews-Leuka_Hotel-Alicante_Costa_Blanca_Province_of_Alicante_Valencian_Country.html
2711866,Apartamentos Mediterraneo,"Calle Virgen del Socorro 50, 03002 Alicante Espanha",Alicante ,indef,indef,indef,21,2.0,indef,87,41,4,38.35007095336914,-0.4740000069141388,https://www.tripadvisor.com.br/Hotel_Review-g1064230-d2711866-Reviews-Apartamentos_Mediterraneo-Alicante_Costa_Blanca_Province_of_Alicante_Valencian_Countr.html
23183387,Cave Rooms,"Calle de Toledo 21, 03002 Alicante Espanha",Alicante ,353,indef,indef,5,2.0,4.0,100,438,84,38.34703826904297,-0.4817099869251251,https://www.tripadvisor.com.br/Hotel_Review-g1064230-d23183387-Reviews-Cave_Rooms-Alicante_Costa_Blanca_Province_of_Alicante_Valencian_Country.html
22826772,Apartamentos Bahia Alicante,indef,Alicante ,indef,indef,indef,0,indef,4.0,indef,indef,indef,indef,indef,https://www.tripadvisor.com.br/Hotel_Review-g1064230-d22826772-Reviews-Apartamentos_Bahia_Alicante-Alicante_Costa_Blanca_Province_of_Alicante_Valencian_Cou.html
23392047,Rodolfo Salazar,indef,Alicante ,indef,indef,indef,0,indef,4.0,indef,indef,indef,indef,indef,https://www.tripadvisor.com.br/Hotel_Review-g1064230-d23392047-Reviews-Rodolfo_Salazar-Alicante_Costa_Blanca_Province_of_Alicante_Valencian_Country.html
19806720,Socorro 11,"Calle Virgen del Socorro Numero: 11 3 Drcha, 03002 Alicante Espanha",Alicante ,296,indef,indef,3,1.0,5.0,89,32,3,38.348968505859375,-0.47453999519348145,https://www.tripadvisor.com.br/Hotel_Review-g1064230-d19806720-Reviews-Socorro_11-Alicante_Costa_Blanca_Province_of_Alicante_Valencian_Country.html
21181276,Vintage & Cosy Auditorium,indef,Alicante ,indef,indef,indef,0,indef,4.0,indef,indef,indef,indef,indef,https://www.tripadvisor.com.br/Hotel_Review-g1064230-d21181276-Reviews-Vintage_Cosy_Auditorium-Alicante_Costa_Blanca_Province_of_Alicante_Valencian_Country.html
17761696,Los Jardines De Lola,"Poligono 2 43A Partida Torrellano Bajo, 03320 Alicante Espanha",Alicante ,598,indef,indef,0,indef,4.0,indef,indef,indef,38.5311393737793,-0.807889997959137,https://www.tripadvisor.com.br/Hotel_Review-g1064230-d17761696-Reviews-Los_Jardines_De_Lola-Alicante_Costa_Blanca_Province_of_Alicante_Valencian_Country.html
20063042,Gran Notch Apartments,"Calle Espronceda 24, 03013 Alicante Espanha",Alicante ,indef,indef,indef,0,indef,4.0,88,43,7,38.35395431518555,-0.4800899922847748,https://www.tripadvisor.com.br/Hotel_Review-g1064230-d20063042-Reviews-Gran_Notch_Apartments-Alicante_Costa_Blanca_Province_of_Alicante_Valencian_Country.html
17710159,Apartamento En La Playa San Juan Benancantil,"Avenida Holanda 15 Urbanizacion Benancantil, Fase 1,Bloque 1,Escalera C, Piso 3 Derecha, 03540 Alicante Espanha",Alicante ,395,indef,indef,0,indef,4.0,69,156,8,38.36813735961914,-0.41741299629211426,https://www.tripadvisor.com.br/Hotel_Review-g1064230-d17710159-Reviews-Apartamento_En_La_Playa_San_Juan_Benancantil-Alicante_Costa_Blanca_Province_of_Alica.html
21347564,Apartamentos Boutique Luxury,indef,Alicante ,indef,indef,indef,0,indef,2.0,indef,indef,indef,indef,indef,https://www.tripadvisor.com.br/Hotel_Review-g1064230-d21347564-Reviews-Apartamentos_Boutique_Luxury-Alicante_Costa_Blanca_Province_of_Alicante_Valencian_Co.html
23429490,VT Rooms,indef,Alicante ,indef,indef,indef,0,indef,5.0,indef,indef,indef,indef,indef,https://www.tripadvisor.com.br/Hotel_Review-g1064230-d23429490-Reviews-VT_Rooms-Alicante_Costa_Blanca_Province_of_Alicante_Valencian_Country.html
22953857,Cienfuegos Apartments,indef,Alicante ,indef,indef,indef,0,indef,3.0,indef,indef,indef,indef,indef,https://www.tripadvisor.com.br/Hotel_Review-g1064230-d22953857-Reviews-Cienfuegos_Apartments-Alicante_Costa_Blanca_Province_of_Alicante_Valencian_Country.html
21372757,Room Near the Beach,"Calle Rafael Altamira, 03002 Alicante Espanha",Alicante ,150,indef,indef,0,indef,4.0,100,471,95,38.34458923339844,-0.48214998841285706,https://www.tripadvisor.com.br/Hotel_Review-g1064230-d21372757-Reviews-Room_Near_the_Beach-Alicante_Costa_Blanca_Province_of_Alicante_Valencian_Country.html
23259409,ABAL Apartments - Central Market,indef,Alicante ,indef,indef,indef,0,indef,4.0,indef,indef,indef,indef,indef,https://www.tripadvisor.com.br/Hotel_Review-g1064230-d23259409-Reviews-ABAL_Apartments_Central_Market-Alicante_Costa_Blanca_Province_of_Alicante_Valencian_.html
17696762,Room in Apartment,"Pasaje Artesania Num.2, Piso 2. Puerto 7, 03540 Alicante Espanha",Alicante ,indef,indef,indef,0,indef,4.0,55,33,4,38.371158599853516,-0.4841800034046173,https://www.tripadvisor.com.br/Hotel_Review-g1064230-d17696762-Reviews-Room_in_Apartment-Alicante_Costa_Blanca_Province_of_Alicante_Valencian_Country.html
12189823,Cerda House,"Calle Cerda 99, 03009 Alicante Espanha",Alicante ,311,indef,indef,0,indef,3.0,67,64,16,38.36431884765625,-0.496069997549057,https://www.tripadvisor.com.br/Hotel_Review-g1064230-d12189823-Reviews-Cerda_House-Alicante_Costa_Blanca_Province_of_Alicante_Valencian_Country.html
23274863,Start home,"10 Calle General Primo de Rivera entreplanta izquierda, 03002 Alicante Espanha",Alicante ,299,indef,indef,0,indef,4.0,100,522,92,38.34757995605469,-0.4841740131378174,https://www.tripadvisor.com.br/Hotel_Review-g1064230-d23274863-Reviews-Start_home-Alicante_Costa_Blanca_Province_of_Alicante_Valencian_Country.html
231494,Hotel Goya,"Calle Maestro Breton 19, 03004 Alicante Espanha",Alicante ,indef,Hotel,indef,319,2.5,2.0,100,182,17,38.3488883972168,-0.4915960133075714,https://www.tripadvisor.com.br/Hotel_Review-g1064230-d231494-Reviews-Hotel_Goya-Alicante_Costa_Blanca_Province_of_Alicante_Valencian_Country.html
23261979,San Francisco Full Apartments Alicante Postiguet Beach Sleeps 4/6,"Calle de San Francisco 10, 03001 Alicante Espanha",Alicante ,indef,indef,indef,0,indef,4.0,100,519,100,38.344120025634766,-0.4844000041484833,https://www.tripadvisor.com.br/Hotel_Review-g1064230-d23261979-Reviews-San_Francisco_Full_Apartments_Alicante_Postiguet_Beach_Sleeps_4_6-Alicante_Costa_Bla.html
23518492,BH San Francisco Urban Hotel,indef,Alicante ,458,Hotel,indef,0,indef,2.0,indef,indef,indef,indef,indef,https://www.tripadvisor.com.br/Hotel_Review-g1064230-d23518492-Reviews-BH_San_Francisco_Urban_Hotel-Alicante_Costa_Blanca_Province_of_Alicante_Valencian_Co.html
23721728,Apartments Casa Toledo,"Calle Toledo 6, 03002 Alicante Espanha",Alicante ,indef,indef,indef,0,indef,4.0,100,474,88,38.346923828125,-0.48215198516845703,https://www.tripadvisor.com.br/Hotel_Review-g1064230-d23721728-Reviews-Apartments_Casa_Toledo-Alicante_Costa_Blanca_Province_of_Alicante_Valencian_Country.html
21333469,Blue Sky,"Calle Antonio Maura, 03013 Alicante Espanha",Alicante ,868,indef,indef,0,indef,2.0,88,210,25,38.355369567871094,-0.4777590036392212,https://www.tripadvisor.com.br/Hotel_Review-g1064230-d21333469-Reviews-Blue_Sky-Alicante_Costa_Blanca_Province_of_Alicante_Valencian_Country.html
17696007,Recovery Mountain,"El Rebolledo La Ballestera 10, 03113 Alicante Espanha",Alicante ,299,indef,indef,0,indef,4.0,indef,indef,indef,38.352508544921875,-0.6050699949264526,https://www.tripadvisor.com.br/Hotel_Review-g1064230-d17696007-Reviews-Recovery_Mountain-Alicante_Costa_Blanca_Province_of_Alicante_Valencian_Country.html
23286908,Mush- Rooms,"Calle Baron de Finestrat 51, 03001 Alicante Espanha",Alicante ,479,indef,indef,0,indef,4.0,100,533,79,38.343788146972656,-0.48750001192092896,https://www.tripadvisor.com.br/Hotel_Review-g1064230-d23286908-Reviews-Mush_Rooms-Alicante_Costa_Blanca_Province_of_Alicante_Valencian_Country.html
12850339,Segura 20,"Calle Segura 20, 03004 Alicante Espanha",Alicante ,indef,indef,indef,0,indef,4.0,100,304,36,38.34764099121094,-0.4903799891471863,https://www.tripadvisor.com.br/Hotel_Review-g1064230-d12850339-Reviews-Segura_20-Alicante_Costa_Blanca_Province_of_Alicante_Valencian_Country.html
15684749,Apartamentos Europa House Jorge Juan,"Calle de Jorge Juan 6, 03002 Alicante Espanha",Alicante ,indef,indef,indef,1,1.0,3.0,100,373,79,38.34540939331055,-0.48045000433921814,https://www.tripadvisor.com.br/Hotel_Review-g1064230-d15684749-Reviews-Apartamentos_Europa_House_Jorge_Juan-Alicante_Costa_Blanca_Province_of_Alicante_Vale.html
15217515,Appartamento Turistico,"Calle Del Maestro Caballero 53 2i, 03010 Alicante Espanha",Alicante ,indef,indef,indef,1,1.0,3.0,86,45,11,38.354190826416016,-0.4884200096130371,https://www.tripadvisor.com.br/Hotel_Review-g1064230-d15217515-Reviews-Appartamento_Turistico-Alicante_Costa_Blanca_Province_of_Alicante_Valencian_Country.html
2535009,Moraira Beach Bed & Breakfast,"Calle Olmo, 03724 Alicante Espanha",Alicante ,indef,indef,indef,4,4.0,4.0,62,77,16,38.69178009033203,0.12392999976873398,https://www.tripadvisor.com.br/Hotel_Review-g1064230-d2535009-Reviews-Moraira_Beach_Bed_Breakfast-Alicante_Costa_Blanca_Province_of_Alicante_Valencian_Coun.html
16666702,Rooms Plaza De Toros Alicante,"Plaza del Hospital Viejo San Anton 9, 03004 Alicante Espanha",Alicante ,indef,indef,indef,4,2.5,2.0,98,84,15,38.352420806884766,-0.48350998759269714,https://www.tripadvisor.com.br/Hotel_Review-g1064230-d16666702-Reviews-Rooms_Plaza_De_Toros_Alicante-Alicante_Costa_Blanca_Province_of_Alicante_Valencian_C.html
21192635,Traveller El Postiguet,"Calle de la Virgen del Socorro 47, 03002 Alicante Espanha",Alicante ,indef,indef,indef,1,1.0,4.0,90,33,6,38.34870147705078,-0.47481000423431396,https://www.tripadvisor.com.br/Hotel_Review-g1064230-d21192635-Reviews-Traveller_El_Postiguet-Alicante_Costa_Blanca_Province_of_Alicante_Valencian_Country.html
21377694,Rooms in the Heart of Alicante!,"Calle Rafael Altamira 24, 3D, 03002 Alicante Espanha",Alicante ,150,indef,indef,1,1.0,4.0,100,458,92,38.3446159362793,-0.4817419946193695,https://www.tripadvisor.com.br/Hotel_Review-g1064230-d21377694-Reviews-Rooms_in_the_Heart_of_Alicante-Alicante_Costa_Blanca_Province_of_Alicante_Valencian_.html
12900381,Finca el Belon,"Partida el Volador 41 Muchamiel, 03110 Alicante Espanha",Alicante ,indef,indef,indef,1,1.0,3.0,65,30,11,38.355838775634766,-0.4255400002002716,https://www.tripadvisor.com.br/Hotel_Review-g1064230-d12900381-Reviews-Finca_el_Belon-Alicante_Costa_Blanca_Province_of_Alicante_Valencian_Country.html
16885035,Apartamentos Kasa 25 - Apartamentos Loft,"Bazan 20, 3001 Alicante Espanha",Alicante ,indef,indef,indef,3,2.0,4.0,100,586,100,38.34527587890625,-0.48571598529815674,https://www.tripadvisor.com.br/Hotel_Review-g1064230-d16885035-Reviews-Apartamentos_Kasa_25_Apartamentos_Loft-Alicante_Costa_Blanca_Province_of_Alicante_Va.html
23286905,Lara,indef,Alicante ,indef,indef,indef,0,indef,4.0,indef,indef,indef,indef,indef,https://www.tripadvisor.com.br/Hotel_Review-g1064230-d23286905-Reviews-Lara-Alicante_Costa_Blanca_Province_of_Alicante_Valencian_Country.html
20857574,Portal de Elche,"Plaza del Portal de Elche # 4 Escalera 1 Piso 2 Puerta 1, 03001 Alicante Espanha",Alicante ,indef,indef,indef,0,indef,4.0,100,515,101,38.344303131103516,-0.4839339852333069,https://www.tripadvisor.com.br/Hotel_Review-g1064230-d20857574-Reviews-Portal_de_Elche-Alicante_Costa_Blanca_Province_of_Alicante_Valencian_Country.html
23415297,Habitación Privada,indef,Alicante ,indef,indef,indef,0,indef,4.0,indef,indef,indef,indef,indef,https://www.tripadvisor.com.br/Hotel_Review-g1064230-d23415297-Reviews-Habitacion_Privada-Alicante_Costa_Blanca_Province_of_Alicante_Valencian_Country.html
23402383,Habitaciones Margarita,indef,Alicante ,indef,indef,indef,0,indef,4.0,indef,indef,indef,indef,indef,https://www.tripadvisor.com.br/Hotel_Review-g1064230-d23402383-Reviews-Habitaciones_Margarita-Alicante_Costa_Blanca_Province_of_Alicante_Valencian_Country.html
19700693,Sunny Apartments,"Calle del Maestro Breton 20, 03004 Alicante Espanha",Alicante ,indef,indef,indef,0,indef,2.0,100,178,16,38.349098205566406,-0.4916499853134155,https://www.tripadvisor.com.br/Hotel_Review-g1064230-d19700693-Reviews-Sunny_Apartments-Alicante_Costa_Blanca_Province_of_Alicante_Valencian_Country.html
23299386,SunCastle Apartments,"Calle Alcala Galiano 28, 03012 Alicante Espanha",Alicante ,indef,indef,indef,0,indef,4.0,89,57,9,38.35462951660156,-0.4842599928379059,https://www.tripadvisor.com.br/Hotel_Review-g1064230-d23299386-Reviews-SunCastle_Apartments-Alicante_Costa_Blanca_Province_of_Alicante_Valencian_Country.html
20831560,Centro Historico Alicante,"Calle de Bazan 20, 03001 Alicante Espanha",Alicante ,indef,indef,indef,0,indef,5.0,100,586,100,38.34527587890625,-0.48571598529815674,https://www.tripadvisor.com.br/Hotel_Review-g1064230-d20831560-Reviews-Centro_Historico_Alicante-Alicante_Costa_Blanca_Province_of_Alicante_Valencian_Count.html
15844539,Welcome,"19 Calle Gran Vi­a, 3009 Alicante Espanha",Alicante ,209,indef,indef,0,indef,4.0,84,146,35,38.350341796875,-0.4724299907684326,https://www.tripadvisor.com.br/Hotel_Review-g1064230-d15844539-Reviews-Welcome-Alicante_Costa_Blanca_Province_of_Alicante_Valencian_Country.html
17643940,Country Retreat,"La Ballestera 10 El Rebelledo, 03113 Alicante Espanha",Alicante ,indef,indef,indef,0,indef,4.0,indef,indef,indef,38.352508544921875,-0.6050699949264526,https://www.tripadvisor.com.br/Hotel_Review-g1064230-d17643940-Reviews-Country_Retreat-Alicante_Costa_Blanca_Province_of_Alicante_Valencian_Country.html
21156661,Apartamentos Casa Turis Los Labradores,indef,Alicante ,indef,indef,indef,0,indef,5.0,indef,indef,indef,indef,indef,https://www.tripadvisor.com.br/Hotel_Review-g1064230-d21156661-Reviews-Apartamentos_Casa_Turis_Los_Labradores-Alicante_Costa_Blanca_Province_of_Alicante_Va.html
15690103,Downtown Apartments,"Calle Alferez Dias Sanchis 22, Ground Floor , First Floor Apartments, 3009 Alicante Espanha",Alicante ,750,indef,indef,0,indef,4.0,81,27,11,38.35560989379883,-0.48875001072883606,https://www.tripadvisor.com.br/Hotel_Review-g1064230-d15690103-Reviews-Downtown_Apartments-Alicante_Costa_Blanca_Province_of_Alicante_Valencian_Country.html
21405805,Apartamentos Quijano By Be Alicante,"10 Carrer Del Carmen, 03002 Alicante Espanha",Alicante ,indef,indef,indef,0,indef,3.0,100,464,88,38.34671401977539,-0.48199498653411865,https://www.tripadvisor.com.br/Hotel_Review-g1064230-d21405805-Reviews-Apartamentos_Quijano_By_Be_Alicante-Alicante_Costa_Blanca_Province_of_Alicante_Valen.html
21371001,Rooms In Alicante,"Calle de Rafael Altamira 3 24, 03002 Alicante Espanha",Alicante ,180,indef,indef,0,indef,4.0,100,458,92,38.344730377197266,-0.4818100035190582,https://www.tripadvisor.com.br/Hotel_Review-g1064230-d21371001-Reviews-Rooms_In_Alicante-Alicante_Costa_Blanca_Province_of_Alicante_Valencian_Country.html
19700238,Micasita Alicante,"Calle del Capitan Segarra, 41-43 2A, 03004 Alicante Espanha",Alicante ,indef,indef,indef,0,indef,4.0,100,234,34,38.35027313232422,-0.48715901374816895,https://www.tripadvisor.com.br/Hotel_Review-g1064230-d19700238-Reviews-Micasita_Alicante-Alicante_Costa_Blanca_Province_of_Alicante_Valencian_Country.html
23425013,Apartment Alicante Torres,"Calle Músico Torres Climent 3, 5A, 03011 Alicante Espanha",Alicante ,indef,indef,indef,0,indef,3.0,50,19,3,38.37533187866211,-0.49212199449539185,https://www.tripadvisor.com.br/Hotel_Review-g1064230-d23425013-Reviews-Apartment_Alicante_Torres-Alicante_Costa_Blanca_Province_of_Alicante_Valencian_Count.html
19751195,Hostal Olozaga,"Calle de Olozaga, 03012 Alicante Espanha",Alicante ,560,indef,indef,0,indef,3.0,87,56,9,38.35500717163086,-0.48429998755455017,https://www.tripadvisor.com.br/Hotel_Review-g1064230-d19751195-Reviews-Hostal_Olozaga-Alicante_Costa_Blanca_Province_of_Alicante_Valencian_Country.html
23323823,Apartamentos Tandem Portal De Elche,"Plaza del Portal de Elche 5, 03001 Alicante Espanha",Alicante ,484,indef,indef,0,indef,4.0,100,505,101,38.34450149536133,-0.48357999324798584,https://www.tripadvisor.com.br/Hotel_Review-g1064230-d23323823-Reviews-Apartamentos_Tandem_Portal_De_Elche-Alicante_Costa_Blanca_Province_of_Alicante_Valen.html
19699565,Herrera Center Rooms,"Calle Juan de Herrera 10, Apartamento 3, 03004 Alicante Espanha",Alicante ,indef,indef,indef,0,indef,3.0,100,227,46,38.35034942626953,-0.485150009393692,https://www.tripadvisor.com.br/Hotel_Review-g1064230-d19699565-Reviews-Herrera_Center_Rooms-Alicante_Costa_Blanca_Province_of_Alicante_Valencian_Country.html
15354414,Columbia 47,"Calle Virgen del Socorro 47, 4ºB, 03002 Alicante Espanha",Alicante ,indef,indef,indef,0,indef,4.0,91,36,8,38.34844970703125,-0.4749700129032135,https://www.tripadvisor.com.br/Hotel_Review-g1064230-d15354414-Reviews-Columbia_47-Alicante_Costa_Blanca_Province_of_Alicante_Valencian_Country.html
21330962,Mercado Rooms,"Calle Juan de Herrera, 03004 Alicante Espanha",Alicante ,indef,indef,indef,0,indef,2.0,100,224,35,38.35038757324219,-0.48638901114463806,https://www.tripadvisor.com.br/Hotel_Review-g1064230-d21330962-Reviews-Mercado_Rooms-Alicante_Costa_Blanca_Province_of_Alicante_Valencian_Country.html
19749395,Hostal Olozaga,indef,Alicante ,410,indef,indef,0,indef,4.0,indef,indef,indef,indef,indef,https://www.tripadvisor.com.br/Hotel_Review-g1064230-d19749395-Reviews-Hostal_Olozaga-Alicante_Costa_Blanca_Province_of_Alicante_Valencian_Country.html
16639115,Guest House Capitan Meca,"Calle Capitan Meca , 4 . 2 D, 03002 Alicante Espanha",Alicante ,227,indef,indef,0,indef,4.0,100,447,88,38.34461975097656,-0.4815100133419037,https://www.tripadvisor.com.br/Hotel_Review-g1064230-d16639115-Reviews-Guest_House_Capitan_Meca-Alicante_Costa_Blanca_Province_of_Alicante_Valencian_Countr.html
17628549,Plaza Manila New,"Calle de Enrique Perez Cascales 10, 03013 Alicante Espanha",Alicante ,indef,indef,indef,0,indef,3.0,83,171,13,38.35771942138672,-0.47576001286506653,https://www.tripadvisor.com.br/Hotel_Review-g1064230-d17628549-Reviews-Plaza_Manila_New-Alicante_Costa_Blanca_Province_of_Alicante_Valencian_Country.html
19736393,La Carrasca,indef,Alicante ,indef,indef,indef,0,indef,3.0,indef,indef,indef,indef,indef,https://www.tripadvisor.com.br/Hotel_Review-g1064230-d19736393-Reviews-La_Carrasca-Alicante_Costa_Blanca_Province_of_Alicante_Valencian_Country.html
19914082,Casa SaMARa,"Calle del Jazmin 4, 03012 Alicante Espanha",Alicante ,252,indef,indef,0,indef,3.0,86,49,8,38.35491180419922,-0.4825499951839447,https://www.tripadvisor.com.br/Hotel_Review-g1064230-d19914082-Reviews-Casa_SaMARa-Alicante_Costa_Blanca_Province_of_Alicante_Valencian_Country.html
21329851,Habitacion Centrica,"Avda. Federico Soto, 8 4ºD Avda., 03001 Alicante Espanha",Alicante ,indef,indef,indef,0,indef,4.0,100,478,61,38.34423065185547,-0.48903098702430725,https://www.tripadvisor.com.br/Hotel_Review-g1064230-d21329851-Reviews-Habitacion_Centrica-Alicante_Costa_Blanca_Province_of_Alicante_Valencian_Country.html
21149800,Apart - Hotel Wayteko,"Calle Nueva Alta 46, 03004 Alicante Espanha",Alicante ,indef,Hotel,indef,0,indef,2.0,95,69,14,38.3520393371582,-0.4820699989795685,https://www.tripadvisor.com.br/Hotel_Review-g1064230-d21149800-Reviews-Apart_Hotel_Wayteko-Alicante_Costa_Blanca_Province_of_Alicante_Valencian_Country.html
15687138,Apartamentos Rivera,"Calle General Primo de Rivera 2 3-I, 03002 Alicante Espanha",Alicante ,indef,indef,indef,0,indef,4.0,100,532,94,38.34735107421875,-0.4840399920940399,https://www.tripadvisor.com.br/Hotel_Review-g1064230-d15687138-Reviews-Apartamentos_Rivera-Alicante_Costa_Blanca_Province_of_Alicante_Valencian_Country.html
21406461,Apartamentos Plaza de Toros,"Calle Botella de Hornos 4, 03004 Alicante Espanha",Alicante ,indef,indef,indef,0,indef,3.0,100,158,21,38.35139083862305,-0.4868299961090088,https://www.tripadvisor.com.br/Hotel_Review-g1064230-d21406461-Reviews-Apartamentos_Plaza_de_Toros-Alicante_Costa_Blanca_Province_of_Alicante_Valencian_Cou.html
16676556,Central Parke,"Calle de Manuel Anton 8, 03004 Alicante Espanha",Alicante ,indef,indef,indef,0,indef,2.0,100,294,56,38.3497314453125,-0.4858599901199341,https://www.tripadvisor.com.br/Hotel_Review-g1064230-d16676556-Reviews-Central_Parke-Alicante_Costa_Blanca_Province_of_Alicante_Valencian_Country.html
18193108,Plaza De Toro Guest Rooms,"Calle General Serrano, 03012 Alicante Espanha",Alicante ,indef,indef,indef,0,indef,4.0,86,45,9,38.35464859008789,-0.48155999183654785,https://www.tripadvisor.com.br/Hotel_Review-g1064230-d18193108-Reviews-Plaza_De_Toro_Guest_Rooms-Alicante_Costa_Blanca_Province_of_Alicante_Valencian_Count.html
17588830,Eldorado,"Calderon de la Barca, 24 Esc.1Entreplanta1, 03004 Alicante Espanha",Alicante ,indef,indef,indef,0,indef,2.0,100,265,50,38.34992980957031,-0.48555999994277954,https://www.tripadvisor.com.br/Hotel_Review-g1064230-d17588830-Reviews-Eldorado-Alicante_Costa_Blanca_Province_of_Alicante_Valencian_Country.html
23385456,El Reposo Del Guerrero,indef,Alicante ,indef,indef,indef,0,indef,3.0,indef,indef,indef,indef,indef,https://www.tripadvisor.com.br/Hotel_Review-g1064230-d23385456-Reviews-El_Reposo_Del_Guerrero-Alicante_Costa_Blanca_Province_of_Alicante_Valencian_Country.html
23320815,Encanto en el centro de Alicante,"Calle Poeta Quintana 28, 03004 Alicante Espanha",Alicante ,indef,indef,indef,0,indef,3.0,100,364,56,38.34817123413086,-0.488290011882782,https://www.tripadvisor.com.br/Hotel_Review-g1064230-d23320815-Reviews-Encanto_en_el_centro_de_Alicante-Alicante_Costa_Blanca_Province_of_Alicante_Valencia.html
21174117,Concept Suites,"Calle Mayor 7, 03002 Alicante Espanha",Alicante ,296,indef,indef,0,indef,4.0,100,491,97,38.344886779785156,-0.4828070104122162,https://www.tripadvisor.com.br/Hotel_Review-g1064230-d21174117-Reviews-Concept_Suites-Alicante_Costa_Blanca_Province_of_Alicante_Valencian_Country.html
21392595,Habitaciones en Alicante,indef,Alicante ,indef,indef,indef,0,indef,4.0,indef,indef,indef,indef,indef,https://www.tripadvisor.com.br/Hotel_Review-g1064230-d21392595-Reviews-Habitaciones_en_Alicante-Alicante_Costa_Blanca_Province_of_Alicante_Valencian_Countr.html
13552143,Azaleas,"Calle Catedratico Abelardo Rigual 15, 03540 Alicante Espanha",Alicante ,indef,indef,indef,0,indef,3.0,71,158,9,38.36526870727539,-0.4226199984550476,https://www.tripadvisor.com.br/Hotel_Review-g1064230-d13552143-Reviews-Azaleas-Alicante_Costa_Blanca_Province_of_Alicante_Valencian_Country.html
21186679,Castle Apartment,"Calle de la Huerta 77, 03004 Alicante Espanha",Alicante ,282,indef,indef,0,indef,4.0,95,119,33,38.350830078125,-0.48197001218795776,https://www.tripadvisor.com.br/Hotel_Review-g1064230-d21186679-Reviews-Castle_Apartment-Alicante_Costa_Blanca_Province_of_Alicante_Valencian_Country.html
15685556,Skylights Explanada 25,"Calle Valdes 15, 03001 Alicante Espanha",Alicante ,indef,indef,indef,0,indef,4.0,100,464,77,38.34286880493164,-0.4858500063419342,https://www.tripadvisor.com.br/Hotel_Review-g1064230-d15685556-Reviews-Skylights_Explanada_25-Alicante_Costa_Blanca_Province_of_Alicante_Valencian_Country.html
15467025,Habitaciones Privadas Alicante Centro,"Calle Procion 11, 03006 Alicante Espanha",Alicante ,312,indef,indef,0,indef,4.0,70,82,12,38.345218658447266,-0.5078499913215637,https://www.tripadvisor.com.br/Hotel_Review-g1064230-d15467025-Reviews-Habitaciones_Privadas_Alicante_Centro-Alicante_Costa_Blanca_Province_of_Alicante_Val.html
21212342,O´Donell Apartment,indef,Alicante ,indef,indef,indef,0,indef,4.0,indef,indef,indef,indef,indef,https://www.tripadvisor.com.br/Hotel_Review-g1064230-d21212342-Reviews-O_Donell_Apartment-Alicante_Costa_Blanca_Province_of_Alicante_Valencian_Country.html
15736894,Apartamentos Teatro Alicante,"Teatro 14, 1Ro, 3001 Alicante Espanha",Alicante ,736,indef,indef,0,indef,4.0,100,471,64,38.3448486328125,-0.4893200099468231,https://www.tripadvisor.com.br/Hotel_Review-g1064230-d15736894-Reviews-Apartamentos_Teatro_Alicante-Alicante_Costa_Blanca_Province_of_Alicante_Valencian_Co.html
15749721,Altamira Apartments,"Calle de Rafael Altamira 11, 03002 Alicante Espanha",Alicante ,indef,indef,indef,0,indef,4.0,100,469,97,38.34471893310547,-0.4820699989795685,https://www.tripadvisor.com.br/Hotel_Review-g1064230-d15749721-Reviews-Altamira_Apartments-Alicante_Costa_Blanca_Province_of_Alicante_Valencian_Country.html
14117389,Bazan 16,"Calle de Bazan 16, 03001 Alicante Espanha",Alicante ,indef,indef,indef,0,indef,4.0,100,582,99,38.34510040283203,-0.4857900142669678,https://www.tripadvisor.com.br/Hotel_Review-g1064230-d14117389-Reviews-Bazan_16-Alicante_Costa_Blanca_Province_of_Alicante_Valencian_Country.html
22844462,Como en casa,"Carrer Alona 21, 03007 Alicante Espanha",Alicante ,263,indef,indef,0,indef,4.0,90,102,5,38.34148025512695,-0.49589699506759644,https://www.tripadvisor.com.br/Hotel_Review-g1064230-d22844462-Reviews-Como_en_casa-Alicante_Costa_Blanca_Province_of_Alicante_Valencian_Country.html
23178399,Casa Brava,"Calle Nueva Baja 38, 03004 Alicante Espanha",Alicante ,251,indef,indef,0,indef,4.0,97,77,15,38.352020263671875,-0.48260998725891113,https://www.tripadvisor.com.br/Hotel_Review-g1064230-d23178399-Reviews-Casa_Brava-Alicante_Costa_Blanca_Province_of_Alicante_Valencian_Country.html
12921743,Mr Higgins Golf & Beach Resort,"4 Carrer de Gongora Residencial Hispamar, 03560 Alicante Espanha",Alicante ,indef,indef,indef,0,indef,3.0,57,40,3,38.386878967285156,-0.4106299877166748,https://www.tripadvisor.com.br/Hotel_Review-g1064230-d12921743-Reviews-Mr_Higgins_Golf_Beach_Resort-Alicante_Costa_Blanca_Province_of_Alicante_Valencian_Co.html
12690340,Casa Carlos 2,"Avenida Benito Perez Galdos, 03004 Alicante Espanha",Alicante ,indef,indef,indef,0,indef,4.0,100,260,32,38.34849166870117,-0.49048998951911926,https://www.tripadvisor.com.br/Hotel_Review-g1064230-d12690340-Reviews-Casa_Carlos_2-Alicante_Costa_Blanca_Province_of_Alicante_Valencian_Country.html
15646436,Cute Apartments near the beach,indef,Alicante ,indef,indef,indef,0,indef,3.0,indef,indef,indef,indef,indef,https://www.tripadvisor.com.br/Hotel_Review-g1064230-d15646436-Reviews-Cute_Apartments_near_the_beach-Alicante_Costa_Blanca_Province_of_Alicante_Valencian_.html
15697771,Baby-Friendly Terrace Apartment,"Gaston Castello, 4,, 3560 Alicante Espanha",Alicante ,indef,indef,indef,0,indef,3.0,indef,indef,indef,38.411251068115234,-0.4041700065135956,https://www.tripadvisor.com.br/Hotel_Review-g1064230-d15697771-Reviews-Baby_Friendly_Terrace_Apartment-Alicante_Costa_Blanca_Province_of_Alicante_Valencian.html
17573787,Building City Center,"Calle de Sevilla 57, 03012 Alicante Espanha",Alicante ,indef,indef,indef,0,indef,3.0,88,57,9,38.35451126098633,-0.4830999970436096,https://www.tripadvisor.com.br/Hotel_Review-g1064230-d17573787-Reviews-Building_City_Center-Alicante_Costa_Blanca_Province_of_Alicante_Valencian_Country.html
15041586,San Roque 13 15,"Calle de San Roque 13, 03002 Alicante Espanha",Alicante ,indef,indef,indef,0,indef,4.0,100,460,84,38.34733963012695,-0.48208001255989075,https://www.tripadvisor.com.br/Hotel_Review-g1064230-d15041586-Reviews-San_Roque_13_15-Alicante_Costa_Blanca_Province_of_Alicante_Valencian_Country.html
23318887,Flat,"Calle Baritono Paco Latorre 32 Apt. 2A, 03015 Alicante Espanha",Alicante ,indef,indef,indef,0,indef,3.0,indef,indef,indef,38.37609100341797,-0.481361985206604,https://www.tripadvisor.com.br/Hotel_Review-g1064230-d23318887-Reviews-Flat-Alicante_Costa_Blanca_Province_of_Alicante_Valencian_Country.html
16647823,Views Apartamento Compartido,"Calle Virgen del Socorro 47, 4C, 03002 Alicante Espanha",Alicante ,indef,indef,indef,0,indef,5.0,90,32,3,38.3486442565918,-0.4745579957962036,https://www.tripadvisor.com.br/Hotel_Review-g1064230-d16647823-Reviews-Views_Apartamento_Compartido-Alicante_Costa_Blanca_Province_of_Alicante_Valencian_Co.html
23357176,San Carlos 16 Apartamento,"Calle de San Carlos 16, 03012 Alicante Espanha",Alicante ,indef,indef,indef,0,indef,3.0,97,73,12,38.353431701660156,-0.4846630096435547,https://www.tripadvisor.com.br/Hotel_Review-g1064230-d23357176-Reviews-San_Carlos_16_Apartamento-Alicante_Costa_Blanca_Province_of_Alicante_Valencian_Count.html
19783942,Casa Paul,"Calle del Musico Alfosea 2, 03011 Alicante Espanha",Alicante ,indef,indef,indef,0,indef,2.0,52,23,5,38.37297058105469,-0.4893699884414673,https://www.tripadvisor.com.br/Hotel_Review-g1064230-d19783942-Reviews-Casa_Paul-Alicante_Costa_Blanca_Province_of_Alicante_Valencian_Country.html
23279809,Wellrentingcom - Alicante Cs,"Calle Catedratico Senante Llaudes 7, 03005 Alicante Espanha",Alicante ,indef,indef,indef,0,indef,4.0,96,149,11,38.34513854980469,-0.4942300021648407,https://www.tripadvisor.com.br/Hotel_Review-g1064230-d23279809-Reviews-Wellrentingcom_Alicante_Cs-Alicante_Costa_Blanca_Province_of_Alicante_Valencian_Coun.html
17663063,Rooms in Plaza Toros,"Calle Teniente Llorca 16 Escalera 1 Planta 2 Puerta 1, 03009 Alicante Espanha",Alicante ,indef,indef,indef,0,indef,4.0,91,64,13,38.353668212890625,-0.4876900017261505,https://www.tripadvisor.com.br/Hotel_Review-g1064230-d17663063-Reviews-Rooms_in_Plaza_Toros-Alicante_Costa_Blanca_Province_of_Alicante_Valencian_Country.html
15349470,Sunny Days,"Avenida De Niza 4, 03010 Alicante Espanha",Alicante ,indef,indef,indef,0,indef,3.0,65,64,4,38.366580963134766,-0.4104500114917755,https://www.tripadvisor.com.br/Hotel_Review-g1064230-d15349470-Reviews-Sunny_Days-Alicante_Costa_Blanca_Province_of_Alicante_Valencian_Country.html
23523821,Sandra Rooms,"Avinguda Albufereta 96, 03016 Alicante Espanha",Alicante ,395,indef,indef,0,indef,4.0,41,31,6,38.36309051513672,-0.44813698530197144,https://www.tripadvisor.com.br/Hotel_Review-g1064230-d23523821-Reviews-Sandra_Rooms-Alicante_Costa_Blanca_Province_of_Alicante_Valencian_Country.html
23305307,Luceros By Jupalca,"Calle Segura 30, 03004 Alicante Espanha",Alicante ,indef,indef,indef,0,indef,3.0,100,266,28,38.34817123413086,-0.4907799959182739,https://www.tripadvisor.com.br/Hotel_Review-g1064230-d23305307-Reviews-Luceros_By_Jupalca-Alicante_Costa_Blanca_Province_of_Alicante_Valencian_Country.html
23202419,VillaVieja17 Studio-Apartments,"Calle Villavieja 1 Pietro 17, 03002 Alicante Espanha",Alicante ,indef,indef,indef,0,indef,4.0,100,222,59,38.34645080566406,-0.4791199862957001,https://www.tripadvisor.com.br/Hotel_Review-g1064230-d23202419-Reviews-VillaVieja17_Studio_Apartments-Alicante_Costa_Blanca_Province_of_Alicante_Valencian_.html
23202390,Alicante Hils Serenity,"Glorieta del Reino Unido 6, 03008 Alicante Espanha",Alicante ,indef,indef,indef,0,indef,4.0,indef,indef,indef,38.313785552978516,-0.5201600193977356,https://www.tripadvisor.com.br/Hotel_Review-g1064230-d23202390-Reviews-Alicante_Hils_Serenity-Alicante_Costa_Blanca_Province_of_Alicante_Valencian_Country.html
15361933,AticoAlikante,"Calle de San Mateo 47 5derecho, 03012 Alicante Espanha",Alicante ,indef,indef,indef,0,indef,2.0,88,227,24,38.35615158081055,-0.4797999858856201,https://www.tripadvisor.com.br/Hotel_Review-g1064230-d15361933-Reviews-AticoAlikante-Alicante_Costa_Blanca_Province_of_Alicante_Valencian_Country.html
16675650,Mercado Central,"Vicente Inglada, N7, 1B, 03004 Alicante Espanha",Alicante ,indef,indef,indef,0,indef,4.0,100,431,74,38.34852600097656,-0.48514801263809204,https://www.tripadvisor.com.br/Hotel_Review-g1064230-d16675650-Reviews-Mercado_Central-Alicante_Costa_Blanca_Province_of_Alicante_Valencian_Country.html
17662344,Mi Refugio,"Avenida Ansaldo 28, 03540 Alicante Espanha",Alicante ,290,indef,indef,0,indef,3.0,73,119,16,38.36857986450195,-0.4330599904060364,https://www.tripadvisor.com.br/Hotel_Review-g1064230-d17662344-Reviews-Mi_Refugio-Alicante_Costa_Blanca_Province_of_Alicante_Valencian_Country.html
20116980,Pension Mexico,"Calle General Primo de Rivera N 10 Piso 01, 03002 Alicante Espanha",Alicante ,299,indef,indef,0,indef,4.0,100,531,90,38.347618103027344,-0.4845280051231384,https://www.tripadvisor.com.br/Hotel_Review-g1064230-d20116980-Reviews-Pension_Mexico-Alicante_Costa_Blanca_Province_of_Alicante_Valencian_Country.html
23009112,Apartamento Casaturis San Francisco,"Calle de San Francisco 4, 03001 Alicante Espanha",Alicante ,indef,indef,indef,0,indef,4.0,100,514,101,38.344181060791016,-0.4840199947357178,https://www.tripadvisor.com.br/Hotel_Review-g1064230-d23009112-Reviews-Apartamento_Casaturis_San_Francisco-Alicante_Costa_Blanca_Province_of_Alicante_Valen.html
19682693,Apartamentos de la Huerta,"Calle de la Huerta 109, 03004 Alicante Espanha",Alicante ,indef,indef,indef,0,indef,3.0,92,60,14,38.351558685302734,-0.48151999711990356,https://www.tripadvisor.com.br/Hotel_Review-g1064230-d19682693-Reviews-Apartamentos_de_la_Huerta-Alicante_Costa_Blanca_Province_of_Alicante_Valencian_Count.html
17803275,Hostal Jireh,"Calle Maestro Alonso #71, 03012 Alicante Espanha",Alicante ,indef,indef,indef,0,indef,3.0,71,133,14,38.363311767578125,-0.4841899871826172,https://www.tripadvisor.com.br/Hotel_Review-g1064230-d17803275-Reviews-Hostal_Jireh-Alicante_Costa_Blanca_Province_of_Alicante_Valencian_Country.html
15836562,Temporary Alicante TM,"Carrer Taquigrafo Marti 25, 03004 Alicante Espanha",Alicante ,indef,indef,indef,0,indef,3.0,100,111,17,38.352081298828125,-0.48871999979019165,https://www.tripadvisor.com.br/Hotel_Review-g1064230-d15836562-Reviews-Temporary_Alicante_TM-Alicante_Costa_Blanca_Province_of_Alicante_Valencian_Country.html
19769556,Appart City Alicante,"Calle de Bazan 47, 03001 Alicante Espanha",Alicante ,750,indef,indef,0,indef,4.0,100,592,94,38.3463134765625,-0.4865019917488098,https://www.tripadvisor.com.br/Hotel_Review-g1064230-d19769556-Reviews-Appart_City_Alicante-Alicante_Costa_Blanca_Province_of_Alicante_Valencian_Country.html
15836462,Apartamentos Marin,"Carrer Cesar Elguezabal, 03001 Alicante Espanha",Alicante ,688,indef,indef,0,indef,2.0,100,593,95,38.34571838378906,-0.4864799976348877,https://www.tripadvisor.com.br/Hotel_Review-g1064230-d15836462-Reviews-Apartamentos_Marin-Alicante_Costa_Blanca_Province_of_Alicante_Valencian_Country.html
15836300,Temporary Alicante Hm,"Calle Capitan Hernandez Mira, 3004 Alicante Espanha",Alicante ,indef,indef,indef,0,indef,3.0,99,91,16,38.35266876220703,-0.4874800145626068,https://www.tripadvisor.com.br/Hotel_Review-g1064230-d15836300-Reviews-Temporary_Alicante_Hm-Alicante_Costa_Blanca_Province_of_Alicante_Valencian_Country.html
16646015,Plaza De Toros,"Calle del Marques de Molins 16, 03004 Alicante Espanha",Alicante ,indef,indef,indef,0,indef,3.0,100,181,21,38.35042953491211,-0.48934999108314514,https://www.tripadvisor.com.br/Hotel_Review-g1064230-d16646015-Reviews-Plaza_De_Toros-Alicante_Costa_Blanca_Province_of_Alicante_Valencian_Country.html
20283285,Guest House Abad Fernandez Homestay,"Calle del Abad Fernandez Helguera 20 Bajo, 03014 Alicante Espanha",Alicante ,indef,indef,indef,0,indef,4.0,54,29,4,38.37176513671875,-0.4835900068283081,https://www.tripadvisor.com.br/Hotel_Review-g1064230-d20283285-Reviews-Guest_House_Abad_Fernandez_Homestay-Alicante_Costa_Blanca_Province_of_Alicante_Valen.html
21401162,VillaVieja17,"Calle Villavieja 17, 03002 Alicante Espanha",Alicante ,indef,indef,indef,0,indef,4.0,100,222,59,38.34645080566406,-0.4791199862957001,https://www.tripadvisor.com.br/Hotel_Review-g1064230-d21401162-Reviews-VillaVieja17-Alicante_Costa_Blanca_Province_of_Alicante_Valencian_Country.html
21195422,Mini-Apartment Donna Rosa D'Alvadorez,"Calle de Barcelona 2 Puerta 2 Izquierda, 03013 Alicante Espanha",Alicante ,indef,indef,indef,0,indef,2.0,87,283,49,38.3543701171875,-0.47824999690055847,https://www.tripadvisor.com.br/Hotel_Review-g1064230-d21195422-Reviews-Mini_Apartment_Donna_Rosa_D_Alvadorez-Alicante_Costa_Blanca_Province_of_Alicante_Val.html
23675919,Apartamentos Boutique Villavieja,indef,Alicante ,indef,indef,indef,0,indef,4.0,indef,indef,indef,indef,indef,https://www.tripadvisor.com.br/Hotel_Review-g1064230-d23675919-Reviews-Apartamentos_Boutique_Villavieja-Alicante_Costa_Blanca_Province_of_Alicante_Valencia.html
21213106,Apartamentos Kasa 25 Panoramic 2,"Calle Poeta Vila y Blanco 4 Atico, 03003 Alicante Espanha",Alicante ,indef,indef,indef,0,indef,3.0,100,401,45,38.3445930480957,-0.4902440011501312,https://www.tripadvisor.com.br/Hotel_Review-g1064230-d21213106-Reviews-Apartamentos_Kasa_25_Panoramic_2-Alicante_Costa_Blanca_Province_of_Alicante_Valencia.html
1205707,Hotel Residencia Covadonya,"Plaza Luceros 17 3004, 03004 Alicante Espanha",Alicante ,indef,Hotel,indef,0,indef,1.0,100,351,45,38.346500396728516,-0.490339994430542,https://www.tripadvisor.com.br/Hotel_Review-g1064230-d1205707-Reviews-Hotel_Residencia_Covadonya-Alicante_Costa_Blanca_Province_of_Alicante_Valencian_Count.html
1772674,GSM Hotel Europa,"Avenida Denia 93, 03015 Alicante Espanha",Alicante ,indef,Hotel,indef,0,indef,3.0,69,73,4,38.36246109008789,-0.4639100134372711,https://www.tripadvisor.com.br/Hotel_Review-g1064230-d1772674-Reviews-GSM_Hotel_Europa-Alicante_Costa_Blanca_Province_of_Alicante_Valencian_Country.html
8846987,Casa Rural El Castellot,"c/ Raval, 9, 03787 Alicante Espanha",Alicante ,indef,indef,indef,28,5.0,indef,indef,indef,indef,38.82196807861328,-0.2616029977798462,https://www.tripadvisor.com.br/Hotel_Review-g1064230-d8846987-Reviews-Casa_Rural_El_Castellot-Alicante_Costa_Blanca_Province_of_Alicante_Valencian_Country.html
1476530,Villa Universitaria,"Avd. Vicente Savall Pascual, 16, 03690 Alicante Espanha",Alicante ,indef,indef,indef,48,3.5,indef,50,77,9,38.389286041259766,-0.5188689827919006,https://www.tripadvisor.com.br/Hotel_Review-g1064230-d1476530-Reviews-Villa_Universitaria-Alicante_Costa_Blanca_Province_of_Alicante_Valencian_Country.html
259323,ibis Alicante Hotel,"Calle Belgica 5 Avenida de Elche 114, 03008 Alicante Espanha",Alicante ,297,Hotel,indef,388,3.5,1.0,indef,indef,indef,38.313480377197266,-0.517179012298584,https://www.tripadvisor.com.br/Hotel_Review-g1064230-d259323-Reviews-Ibis_Alicante_Hotel-Alicante_Costa_Blanca_Province_of_Alicante_Valencian_Country.html
3337475,Pension Versalles,"Calle Villavieja 3 2o, 03002 Alicante Espanha",Alicante ,indef,indef,indef,34,4.0,indef,100,322,67,38.34614944458008,-0.47995999455451965,https://www.tripadvisor.com.br/Hotel_Review-g1064230-d3337475-Reviews-Pension_Versalles-Alicante_Costa_Blanca_Province_of_Alicante_Valencian_Country.html
2734339,Albergue Juvenil La Florida,"Avenida Orihuela 59, 03007 Alicante Espanha",Alicante ,indef,indef,indef,13,4.0,indef,65,29,5,38.34477996826172,-0.5120999813079834,https://www.tripadvisor.com.br/Hotel_Review-g1064230-d2734339-Reviews-Albergue_Juvenil_La_Florida-Alicante_Costa_Blanca_Province_of_Alicante_Valencian_Coun.html
2174072,Central Station,"Avenida Salamanca 18 Entrance at Calle Catedratico Senante Llaudes, 7, 03005 Alicante Espanha",Alicante ,indef,indef,indef,13,4.0,3.0,95,147,11,38.345130920410156,-0.4944800138473511,https://www.tripadvisor.com.br/Hotel_Review-g1064230-d2174072-Reviews-Central_Station-Alicante_Costa_Blanca_Province_of_Alicante_Valencian_Country.html
12720829,San Fernando Salud,"Calle San Fernando 48 Planta 2, 03001 Alicante Espanha",Alicante ,indef,indef,indef,8,4.5,indef,100,431,62,38.342529296875,-0.4864799976348877,https://www.tripadvisor.com.br/Hotel_Review-g1064230-d12720829-Reviews-San_Fernando_Salud-Alicante_Costa_Blanca_Province_of_Alicante_Valencian_Country.html
6949682,Pension Con Encanto,"Calle Segura 20, 03004 Alicante Espanha",Alicante ,indef,indef,indef,4,4.5,4.0,100,304,36,38.34764099121094,-0.4903799891471863,https://www.tripadvisor.com.br/Hotel_Review-g1064230-d6949682-Reviews-Pension_Con_Encanto-Alicante_Costa_Blanca_Province_of_Alicante_Valencian_Country.html
1497863,Hostal Cataluna,"Calle Gerona 11, 03001 Alicante Espanha",Alicante ,indef,indef,indef,7,4.5,indef,100,559,103,38.34449005126953,-0.4853299856185913,https://www.tripadvisor.com.br/Hotel_Review-g1064230-d1497863-Reviews-Hostal_Cataluna-Alicante_Costa_Blanca_Province_of_Alicante_Valencian_Country.html
12393426,Sweet Home,"Calle del Pozo 103 Bajo, 03004 Alicante Espanha",Alicante ,indef,indef,indef,2,4.5,4.0,100,134,26,38.35129928588867,-0.4835900068283081,https://www.tripadvisor.com.br/Hotel_Review-g1064230-d12393426-Reviews-Sweet_Home-Alicante_Costa_Blanca_Province_of_Alicante_Valencian_Country.html
15071489,Buenos Dias,"Calle Agost 1, 03012 Alicante Espanha",Alicante ,indef,indef,indef,1,5.0,3.0,89,53,9,38.35408020019531,-0.4821400046348572,https://www.tripadvisor.com.br/Hotel_Review-g1064230-d15071489-Reviews-Buenos_Dias-Alicante_Costa_Blanca_Province_of_Alicante_Valencian_Country.html
13826371,Old Casc Alicante,"Calle Virgen de Socorro 11,1B, 03002 Alicante Espanha",Alicante ,indef,indef,indef,1,5.0,4.0,91,36,8,38.34844970703125,-0.4749700129032135,https://www.tripadvisor.com.br/Hotel_Review-g1064230-d13826371-Reviews-Old_Casc_Alicante-Alicante_Costa_Blanca_Province_of_Alicante_Valencian_Country.html
6510880,BED’SS,"Calle Vicente Savall Pascual 16, 03690 Alicante Espanha",Alicante ,indef,indef,indef,4,4.0,1.0,66,157,9,38.368980407714844,-0.42458999156951904,https://www.tripadvisor.com.br/Hotel_Review-g1064230-d6510880-Reviews-BED_SS-Alicante_Costa_Blanca_Province_of_Alicante_Valencian_Country.html
3244612,Pension Galicia,"Calle Arquitecto Morell 1 Entresuelo, 03003 Alicante Espanha",Alicante ,indef,indef,indef,7,3.5,indef,100,241,36,38.342708587646484,-0.4910399913787842,https://www.tripadvisor.com.br/Hotel_Review-g1064230-d3244612-Reviews-Pension_Galicia-Alicante_Costa_Blanca_Province_of_Alicante_Valencian_Country.html
15421154,Habitaciones Engel,"Calle Bailen 9 Escalera 1 5 Piso Puerta 1, 03001 Alicante Espanha",Alicante ,indef,indef,indef,1,4.0,4.0,100,526,102,38.34474182128906,-0.4843200147151947,https://www.tripadvisor.com.br/Hotel_Review-g1064230-d15421154-Reviews-Habitaciones_Engel-Alicante_Costa_Blanca_Province_of_Alicante_Valencian_Country.html
15321402,Camper Area Alicante,"Av. de la Costa Blanca, 141, 03540 Alicante Espanha",Alicante ,indef,indef,indef,1,4.0,3.0,66,113,4,38.37588119506836,-0.4123699963092804,https://www.tripadvisor.com.br/Hotel_Review-g1064230-d15321402-Reviews-Camper_Area_Alicante-Alicante_Costa_Blanca_Province_of_Alicante_Valencian_Country.html
2665886,Camping Playa Muchavista,"Km.8'5 de la crta. A-190 El Campello, 03560 Alicante Espanha",Alicante ,indef,indef,indef,1,3.0,4.0,66,41,4,38.36412811279297,-0.4119099974632263,https://www.tripadvisor.com.br/Hotel_Review-g1064230-d2665886-Reviews-Camping_Playa_Muchavista-Alicante_Costa_Blanca_Province_of_Alicante_Valencian_Country.html
10970828,Federico Soto,"Calle Pintor Cabrera 4 Escalera 1 Planta EN Puerta D, 03003 Alicante Espanha",Alicante ,indef,indef,indef,2,3.0,3.0,100,376,38,38.345130920410156,-0.49052000045776367,https://www.tripadvisor.com.br/Hotel_Review-g1064230-d10970828-Reviews-Federico_Soto-Alicante_Costa_Blanca_Province_of_Alicante_Valencian_Country.html
1497857,Hostal Ventura,"Calle San Fernando 10, 03002 Alicante Espanha",Alicante ,indef,indef,indef,9,3.0,indef,100,451,90,38.34437942504883,-0.4816100001335144,https://www.tripadvisor.com.br/Hotel_Review-g1064230-d1497857-Reviews-Hostal_Ventura-Alicante_Costa_Blanca_Province_of_Alicante_Valencian_Country.html
3626237,Apartamentos de Sol,"Avenida Villajoyosa 115, 03016 Alicante Espanha",Alicante ,indef,indef,indef,4,3.0,3.0,40,30,6,38.36222839355469,-0.44822999835014343,https://www.tripadvisor.com.br/Hotel_Review-g1064230-d3626237-Reviews-Apartamentos_de_Sol-Alicante_Costa_Blanca_Province_of_Alicante_Valencian_Country.html
3165773,Apartamentos de Luz,"Calle Carmen 8, 03002 Alicante Espanha",Alicante ,indef,indef,indef,7,2.5,indef,100,476,90,38.346771240234375,-0.4821600019931793,https://www.tripadvisor.com.br/Hotel_Review-g1064230-d3165773-Reviews-Apartamentos_de_Luz-Alicante_Costa_Blanca_Province_of_Alicante_Valencian_Country.html
2007905,Pension Mateos,"Calle San Vicente 49, 03004 Alicante Espanha",Alicante ,indef,indef,indef,2,2.5,4.0,100,214,44,38.35047149658203,-0.48493000864982605,https://www.tripadvisor.com.br/Hotel_Review-g1064230-d2007905-Reviews-Pension_Mateos-Alicante_Costa_Blanca_Province_of_Alicante_Valencian_Country.html
1625263,Hostal de Sal,"Calle Carmen 9, 03002 Alicante Espanha",Alicante ,indef,indef,indef,21,3.0,2.0,100,468,88,38.346858978271484,-0.4820699989795685,https://www.tripadvisor.com.br/Hotel_Review-g1064230-d1625263-Reviews-Hostal_de_Sal-Alicante_Costa_Blanca_Province_of_Alicante_Valencian_Country.html
7187936,Alicante Hostel,"Calle Santiago Rusinol 9, 03015 Alicante Espanha",Alicante ,indef,Hostel,indef,1,1.0,2.0,64,42,4,38.36711120605469,-0.46768999099731445,https://www.tripadvisor.com.br/Hotel_Review-g1064230-d7187936-Reviews-Alicante_Hostel-Alicante_Costa_Blanca_Province_of_Alicante_Valencian_Country.html
17604100,Blabla House,"Calle Poeta Campos Vasallo 12 Entresuelo, 03004 Alicante Espanha",Alicante ,indef,indef,indef,1,1.0,2.0,100,441,73,38.347808837890625,-0.4875499904155731,https://www.tripadvisor.com.br/Hotel_Review-g1064230-d17604100-Reviews-Blabla_House-Alicante_Costa_Blanca_Province_of_Alicante_Valencian_Country.html
15521559,WellRenting - Alicante CS,"Calle Catedratico Senante Llaudes 7, 03005 Alicante Espanha",Alicante ,indef,indef,indef,1,1.0,4.0,96,149,11,38.34513854980469,-0.4942300021648407,https://www.tripadvisor.com.br/Hotel_Review-g1064230-d15521559-Reviews-WellRenting_Alicante_CS-Alicante_Costa_Blanca_Province_of_Alicante_Valencian_Country.html
264040,Hostal San Fernando,"Calle San Fernando 34, 03001 Alicante Espanha",Alicante ,293,indef,indef,23,4.5,indef,100,497,96,38.34339141845703,-0.484250009059906,https://www.tripadvisor.com.br/Hotel_Review-g1064230-d264040-Reviews-Hostal_San_Fernando-Alicante_Costa_Blanca_Province_of_Alicante_Valencian_Country.html
10429701,Hostal Mayor,"5, Calle Mayor Building of 04 Floors, 03002 Alicante Espanha",Alicante ,269,indef,indef,8,3.0,indef,100,357,75,38.34600830078125,-0.480320006608963,https://www.tripadvisor.com.br/Hotel_Review-g1064230-d10429701-Reviews-Hostal_Mayor-Alicante_Costa_Blanca_Province_of_Alicante_Valencian_Country.html
20152927,Hostal Alicante Renfe,"Calle Profesores Hermanos Munoz 2, 03006 Alicante Espanha",Alicante ,indef,indef,indef,1,1.0,4.0,67,28,5,38.344886779785156,-0.5108680129051208,https://www.tripadvisor.com.br/Hotel_Review-g1064230-d20152927-Reviews-Hostal_Alicante_Renfe-Alicante_Costa_Blanca_Province_of_Alicante_Valencian_Country.html
14917705,Apartamentos Astoria,"Plaza de la Virgen del Remedio 7, 03002 Alicante Espanha",Alicante ,indef,indef,indef,4,2.0,4.0,100,409,81,38.345951080322266,-0.4808099865913391,https://www.tripadvisor.com.br/Hotel_Review-g1064230-d14917705-Reviews-Apartamentos_Astoria-Alicante_Costa_Blanca_Province_of_Alicante_Valencian_Country.html
7794034,Residencial Rasa,"Calle Poeta Garcia Lorca 7, 03690 Alicante Espanha",Alicante ,indef,indef,indef,5,1.5,2.0,49,85,11,38.39124298095703,-0.5210630297660828,https://www.tripadvisor.com.br/Hotel_Review-g1064230-d7794034-Reviews-Residencial_Rasa-Alicante_Costa_Blanca_Province_of_Alicante_Valencian_Country.html
3544693,Casa Miguel,"Calle Poeta Quintana 4, 03004 Alicante Espanha",Alicante ,indef,indef,indef,11,2.5,1.0,100,381,68,38.348548889160156,-0.48695001006126404,https://www.tripadvisor.com.br/Hotel_Review-g1064230-d3544693-Reviews-Casa_Miguel-Alicante_Costa_Blanca_Province_of_Alicante_Valencian_Country.html
15074552,Las Habitaciones En El Centro,"C/ Ceuta, 03005 Alicante Espanha",Alicante ,indef,indef,indef,2,1.0,3.0,74,178,18,38.35013961791992,-0.4996599853038788,https://www.tripadvisor.com.br/Hotel_Review-g1064230-d15074552-Reviews-Las_Habitaciones_En_El_Centro-Alicante_Costa_Blanca_Province_of_Alicante_Valencian_C.html
6963142,Apartamentos Labradores24,"Calle Labradores 24, 03002 Alicante Espanha",Alicante ,indef,indef,indef,25,2.5,indef,100,526,98,38.346500396728516,-0.4833900034427643,https://www.tripadvisor.com.br/Hotel_Review-g1064230-d6963142-Reviews-Apartamentos_Labradores24-Alicante_Costa_Blanca_Province_of_Alicante_Valencian_Countr.html
21134536,Family Hotel Astoria,indef,Alicante ,indef,Hotel,indef,0,indef,4.0,indef,indef,indef,indef,indef,https://www.tripadvisor.com.br/Hotel_Review-g1064230-d21134536-Reviews-Family_Hotel_Astoria-Alicante_Costa_Blanca_Province_of_Alicante_Valencian_Country.html
23536702,El Mercat,indef,Alicante ,indef,indef,indef,0,indef,4.0,indef,indef,indef,indef,indef,https://www.tripadvisor.com.br/Hotel_Review-g1064230-d23536702-Reviews-El_Mercat-Alicante_Costa_Blanca_Province_of_Alicante_Valencian_Country.html
1480821,Covadonga,"Plaza Luceros 17, 03004 Alicante Espanha",Alicante ,indef,indef,indef,0,indef,4.0,100,351,45,38.346500396728516,-0.490339994430542,https://www.tripadvisor.com.br/Hotel_Review-g1064230-d1480821-Reviews-Covadonga-Alicante_Costa_Blanca_Province_of_Alicante_Valencian_Country.html
12148313,Apartamentos Ocean Palais,"Virgen del Socorro, 50 Oficina 3, 03002 Alicante Espanha",Alicante ,indef,indef,indef,0,indef,4.0,87,41,4,38.35007095336914,-0.4740000069141388,https://www.tripadvisor.com.br/Hotel_Review-g1064230-d12148313-Reviews-Apartamentos_Ocean_Palais-Alicante_Costa_Blanca_Province_of_Alicante_Valencian_Count.html
15836354,Apartamentos Cocos,"Calle de Santa Ana 3, 03002 Alicante Espanha",Alicante ,indef,indef,indef,0,indef,4.0,87,37,4,38.34986114501953,-0.47374001145362854,https://www.tripadvisor.com.br/Hotel_Review-g1064230-d15836354-Reviews-Apartamentos_Cocos-Alicante_Costa_Blanca_Province_of_Alicante_Valencian_Country.html
20283114,Pension Picasso,"Calle del Padre Mariana N 5 Entre Planta izq., 03004 Alicante Espanha",Alicante ,indef,indef,indef,0,indef,4.0,100,164,22,38.35121536254883,-0.48733898997306824,https://www.tripadvisor.com.br/Hotel_Review-g1064230-d20283114-Reviews-Pension_Picasso-Alicante_Costa_Blanca_Province_of_Alicante_Valencian_Country.html
8381208,Alicante Nudists,"Carretera de Agost, Alicante Espanha",Alicante ,indef,indef,indef,0,indef,4.0,indef,indef,indef,38.41352081298828,-0.5728700160980225,https://www.tripadvisor.com.br/Hotel_Review-g1064230-d8381208-Reviews-Alicante_Nudists-Alicante_Costa_Blanca_Province_of_Alicante_Valencian_Country.html
15347258,Victor's Paradise Rooms,"Bungalow 69 Calle Currican 43, 03540 Alicante Espanha",Alicante ,indef,indef,indef,0,indef,3.0,66,36,8,38.359169006347656,-0.4216800034046173,https://www.tripadvisor.com.br/Hotel_Review-g1064230-d15347258-Reviews-Victor_s_Paradise_Rooms-Alicante_Costa_Blanca_Province_of_Alicante_Valencian_Country.html
14030396,Melia San Nicolas Rooms,"Calle de Miguel Soler 10, 03002 Alicante Espanha",Alicante ,indef,indef,indef,0,indef,1.0,100,498,99,38.345149993896484,-0.4829399883747101,https://www.tripadvisor.com.br/Hotel_Review-g1064230-d14030396-Reviews-Melia_San_Nicolas_Rooms-Alicante_Costa_Blanca_Province_of_Alicante_Valencian_Country.html
10526409,NWT Paradise Urban Hostel,"Calle Primitivo Perez 4, 03010 Alicante Espanha",Alicante ,indef,Hostel,indef,20,3.0,2.0,83,46,6,38.35594177246094,-0.48646000027656555,https://www.tripadvisor.com.br/Hotel_Review-g1064230-d10526409-Reviews-NWT_Paradise_Urban_Hostel-Alicante_Costa_Blanca_Province_of_Alicante_Valencian_Count.html
16661013,Apartamentos Globus,"Calle de San Francisco Javier 2, 03002 Alicante Espanha",Alicante ,indef,indef,indef,6,3.0,3.5,100,470,95,38.344940185546875,-0.48212000727653503,https://www.tripadvisor.com.br/Hotel_Review-g1064230-d16661013-Reviews-Apartamentos_Globus-Alicante_Costa_Blanca_Province_of_Alicante_Valencian_Country.html
10438760,The Station Room,"Avenida Salamanca 10 8b, 03003 Alicante Espanha",Alicante ,indef,indef,indef,3,2.0,4.0,95,157,13,38.34400939941406,-0.4943299889564514,https://www.tripadvisor.com.br/Hotel_Review-g1064230-d10438760-Reviews-The_Station_Room-Alicante_Costa_Blanca_Province_of_Alicante_Valencian_Country.html
15631976,Luca's House,"Calle del Sargento Vaillo 22, 03004 Alicante Espanha",Alicante ,indef,indef,indef,4,1.5,2.0,100,153,20,38.351009368896484,-0.48919999599456787,https://www.tripadvisor.com.br/Hotel_Review-g1064230-d15631976-Reviews-Luca_s_House-Alicante_Costa_Blanca_Province_of_Alicante_Valencian_Country.html
15692726,WellRenting Aticos Alicante,"Calle Poeta Vila y Blanco 4 Edificio Riscal, Piso 31, Atico 6, 03003 Alicante Espanha",Alicante ,indef,indef,indef,0,indef,4.0,100,406,47,38.34459686279297,-0.4902389943599701,https://www.tripadvisor.com.br/Hotel_Review-g1064230-d15692726-Reviews-WellRenting_Aticos_Alicante-Alicante_Costa_Blanca_Province_of_Alicante_Valencian_Cou.html
1862873,Casa Roja Holidays,"Off Calle Mayor, Alicante Espanha",Alicante ,indef,indef,indef,0,indef,4.0,100,448,87,38.34529113769531,-0.4816400110721588,https://www.tripadvisor.com.br/Hotel_Review-g1064230-d1862873-Reviews-Casa_Roja_Holidays-Alicante_Costa_Blanca_Province_of_Alicante_Valencian_Country.html
6950689,Arco Iris,indef,Alicante ,indef,indef,indef,0,indef,2.0,indef,indef,indef,indef,indef,https://www.tripadvisor.com.br/Hotel_Review-g1064230-d6950689-Reviews-Arco_Iris-Alicante_Costa_Blanca_Province_of_Alicante_Valencian_Country.html
5525641,Bramasole Apartamentos,"Avenida Alfonso El Sabio 9, 03002 Alicante Espanha",Alicante ,indef,indef,indef,0,indef,4.0,100,517,84,38.347679138183594,-0.48576998710632324,https://www.tripadvisor.com.br/Hotel_Review-g1064230-d5525641-Reviews-Bramasole_Apartamentos-Alicante_Costa_Blanca_Province_of_Alicante_Valencian_Country.html
11445833,Buzz on 1804,"Partida del Pla de Vila 25 Finestrat, 03509 Alicante Espanha",Alicante ,indef,indef,indef,0,indef,5.0,indef,indef,indef,38.53860855102539,-0.18682999908924103,https://www.tripadvisor.com.br/Hotel_Review-g1064230-d11445833-Reviews-Buzz_on_1804-Alicante_Costa_Blanca_Province_of_Alicante_Valencian_Country.html
20264920,Happy Alicante,indef,Alicante ,indef,indef,indef,0,indef,4.0,indef,indef,indef,indef,indef,https://www.tripadvisor.com.br/Hotel_Review-g1064230-d20264920-Reviews-Happy_Alicante-Alicante_Costa_Blanca_Province_of_Alicante_Valencian_Country.html
1115978,Residence Jardines del Eden,"Concha Espina s, 03016 Alicante Espanha",Alicante ,indef,indef,indef,0,indef,2.0,40,32,4,38.36629867553711,-0.4520600140094757,https://www.tripadvisor.com.br/Hotel_Review-g1064230-d1115978-Reviews-Residence_Jardines_del_Eden-Alicante_Costa_Blanca_Province_of_Alicante_Valencian_Coun.html
15467067,Habitacion Lua,"Avenida de Alcoy 7 Planta, 03004 Alicante Espanha",Alicante ,indef,indef,indef,0,indef,1.0,74,48,11,38.362388610839844,-0.4352000057697296,https://www.tripadvisor.com.br/Hotel_Review-g1064230-d15467067-Reviews-Habitacion_Lua-Alicante_Costa_Blanca_Province_of_Alicante_Valencian_Country.html
15641780,Plaza De Toros,"Calle Nuevo Baja 41 Piso 3 Apartamento A, 3004 Alicante Espanha",Alicante ,indef,indef,indef,0,indef,4.0,97,78,15,38.352088928222656,-0.4827300012111664,https://www.tripadvisor.com.br/Hotel_Review-g1064230-d15641780-Reviews-Plaza_De_Toros-Alicante_Costa_Blanca_Province_of_Alicante_Valencian_Country.html
23721727,Apartemento El Pont 1,"Plaza Del Puente 7, 03002 Alicante Espanha",Alicante ,indef,indef,indef,0,indef,2.0,100,344,71,38.34641647338867,-0.4803139865398407,https://www.tripadvisor.com.br/Hotel_Review-g1064230-d23721727-Reviews-Apartemento_El_Pont_1-Alicante_Costa_Blanca_Province_of_Alicante_Valencian_Country.html
13800252,Edificio Princesa,"Avenida de Pintor Baeza 6, 1 D-1, 03010 Alicante Espanha",Alicante ,indef,indef,indef,0,indef,2.0,78,55,5,38.359901428222656,-0.4859899878501892,https://www.tripadvisor.com.br/Hotel_Review-g1064230-d13800252-Reviews-Edificio_Princesa-Alicante_Costa_Blanca_Province_of_Alicante_Valencian_Country.html
21254519,Tandem Apartments,"Calle de Bailen nº 2, 03001 Alicante Espanha",Alicante ,indef,indef,indef,0,indef,2.0,100,512,101,38.344417572021484,-0.48385098576545715,https://www.tripadvisor.com.br/Hotel_Review-g1064230-d21254519-Reviews-Tandem_Apartments-Alicante_Costa_Blanca_Province_of_Alicante_Valencian_Country.html
12809764,Pension 24todo,"Calle Torremanzanas 8, 03015 Alicante Espanha",Alicante ,indef,indef,indef,0,indef,3.0,50,23,4,38.372459411621094,-0.4817599952220917,https://www.tripadvisor.com.br/Hotel_Review-g1064230-d12809764-Reviews-Pension_24todo-Alicante_Costa_Blanca_Province_of_Alicante_Valencian_Country.html
16177079,The Hills Estates,"Avenida de Las Colinas 12 - 6, 01389 Alicante Espanha",Alicante ,indef,indef,indef,0,indef,4.0,70,39,10,38.362159729003906,-0.4360800087451935,https://www.tripadvisor.com.br/Hotel_Review-g1064230-d16177079-Reviews-The_Hills_Estates-Alicante_Costa_Blanca_Province_of_Alicante_Valencian_Country.html
15354425,Alicante Stay,"Calle General Espartero 42-44, 03012 Alicante Espanha",Alicante ,indef,indef,indef,0,indef,indef,80,74,4,38.359031677246094,-0.4827899932861328,https://www.tripadvisor.com.br/Hotel_Review-g1064230-d15354425-Reviews-Alicante_Stay-Alicante_Costa_Blanca_Province_of_Alicante_Valencian_Country.html
12873253,Camping L´Espelt,"B-402, P.k 4, 35, Alicante Espanha",Alicante ,indef,indef,indef,0,indef,3.0,66,29,11,38.356048583984375,-0.42704999446868896,https://www.tripadvisor.com.br/Hotel_Review-g1064230-d12873253-Reviews-Camping_L_Espelt-Alicante_Costa_Blanca_Province_of_Alicante_Valencian_Country.html
15674405,Apartamento Ildar,"Calle de la Virgen del Socorro 41 O Apt 42 50, 03002 Alicante Espanha",Alicante ,indef,indef,indef,0,indef,4.0,91,35,7,38.34857940673828,-0.47488999366760254,https://www.tripadvisor.com.br/Hotel_Review-g1064230-d15674405-Reviews-Apartamento_Ildar-Alicante_Costa_Blanca_Province_of_Alicante_Valencian_Country.html
12885266,Alicante Rooms,"Calle Santa Felicitas 7 Piso 3 Puerta Derecha, 03005 Alicante Espanha",Alicante ,indef,indef,indef,0,indef,2.0,91,95,10,38.34852981567383,-0.4946900010108948,https://www.tripadvisor.com.br/Hotel_Review-g1064230-d12885266-Reviews-Alicante_Rooms-Alicante_Costa_Blanca_Province_of_Alicante_Valencian_Country.html
1201788,Ulyss Residence,"Avenida Albufereta 44, 03016 Alicante Espanha",Alicante ,indef,indef,indef,0,indef,2.0,40,30,4,38.36500930786133,-0.4542100131511688,https://www.tripadvisor.com.br/Hotel_Review-g1064230-d1201788-Reviews-Ulyss_Residence-Alicante_Costa_Blanca_Province_of_Alicante_Valencian_Country.html
1497309,Hotel Noy,"Partida Bacarot, 03114 Alicante Espanha",Alicante ,indef,Hotel,indef,0,indef,2.0,indef,indef,indef,38.333099365234375,-0.5523499846458435,https://www.tripadvisor.com.br/Hotel_Review-g1064230-d1497309-Reviews-Hotel_Noy-Alicante_Costa_Blanca_Province_of_Alicante_Valencian_Country.html
15815505,Melia Old Town Apartments,"Calle Luzan 7, 03002 Alicante Espanha",Alicante ,indef,indef,indef,0,indef,4.0,100,229,60,38.34661102294922,-0.47929999232292175,https://www.tripadvisor.com.br/Hotel_Review-g1064230-d15815505-Reviews-Melia_Old_Town_Apartments-Alicante_Costa_Blanca_Province_of_Alicante_Valencian_Count.html
18193014,Apartamento Flamenbeach,"Avenida Benidorm 12, 03540 Alicante Espanha",Alicante ,indef,indef,indef,0,indef,1.0,70,66,4,38.365928649902344,-0.4136500060558319,https://www.tripadvisor.com.br/Hotel_Review-g1064230-d18193014-Reviews-Apartamento_Flamenbeach-Alicante_Costa_Blanca_Province_of_Alicante_Valencian_Country.html
15827868,"Apartamento Centrico, Jose Mo Py","Carrer Josep Maria Py 13, 3005 Alicante Espanha",Alicante ,indef,indef,indef,0,indef,2.0,97,133,13,38.34819030761719,-0.4930799901485443,https://www.tripadvisor.com.br/Hotel_Review-g1064230-d15827868-Reviews-Apartamento_Centrico_Jose_Mo_Py-Alicante_Costa_Blanca_Province_of_Alicante_Valencian.html
16855201,WellRenting - Plaza Nueva,"22 Carrer Cesar Elguezabal, 03001 Alicante Espanha",Alicante ,indef,indef,indef,0,indef,4.0,100,595,98,38.34511947631836,-0.48618999123573303,https://www.tripadvisor.com.br/Hotel_Review-g1064230-d16855201-Reviews-WellRenting_Plaza_Nueva-Alicante_Costa_Blanca_Province_of_Alicante_Valencian_Country.html
4156426,Pension Gemelos,"Calle San Francisco 12 1º, 03001 Alicante Espanha",Alicante ,indef,indef,indef,0,indef,2.0,100,521,102,38.34408950805664,-0.48454999923706055,https://www.tripadvisor.com.br/Hotel_Review-g1064230-d4156426-Reviews-Pension_Gemelos-Alicante_Costa_Blanca_Province_of_Alicante_Valencian_Country.html
