restaurante_id,nome,endereco,cidade,nota,qtd_avaliacoes,categoria_preco,faixa_preco,latitude,longitude,fonte
20145680,"Cabaña Bar","Calle del Alcalde Alfonso de Rojas, 6, 03003 Alicante Espanha",Alicante ,5.0,78,$$ - $$$,R$ 65 - R$ 196,38.352149963378906,-0.4866989850997925,https://www.tripadvisor.com.br/Restaurant_Review-g1064230-d20145680-Reviews-Cabana_Bar-Alicante_Costa_Blanca_Province_of_Alicante_Valencian_Country.html
11925647,"Falafelmanía Restaurante Vegetariano y Vegano Oriental","Calle Peru 13 Local 2E, 03008 Alicante Espanha",Alicante ,5.0,368,$,R$ 79 - R$ 124,38.332183837890625,-0.5092809796333313,https://www.tripadvisor.com.br/Restaurant_Review-g1064230-d11925647-Reviews-Falafelmania_Restaurante_Vegetariano_y_Vegano_Oriental-Alicante_Costa_Blanca_Pr.html
18343760,"Restaurante Espacio Montoro","Av. Albufereta, 13, 03016 Alicante Espanha",Alicante ,5.0,95,$$$$,R$ 425 - R$ 523,38.36518478393555,-0.45969200134277344,https://www.tripadvisor.com.br/Restaurant_Review-g1064230-d18343760-Reviews-Restaurante_Espacio_Montoro-Alicante_Costa_Blanca_Province_of_Alicante_Valencia.html
9776797,"Terre","Paseo Explanada de Espana 11, 03001 Alicante Espanha",Alicante ,4.0,993,$$$$,R$ 164 - R$ 294,38.343448638916016,-0.4833250045776367,https://www.tripadvisor.com.br/Restaurant_Review-g1064230-d9776797-Reviews-Terre-Alicante_Costa_Blanca_Province_of_Alicante_Valencian_Country.html
13082532,"steki restaurante","Calle Argensola # 8, 03002 Alicante Espanha",Alicante ,5.0,993,$$ - $$$,R$ 229 - R$ 327,38.34686279296875,-0.4831649959087372,https://www.tripadvisor.com.br/Restaurant_Review-g1064230-d13082532-Reviews-Steki_restaurante-Alicante_Costa_Blanca_Province_of_Alicante_Valencian_Country.html
17593163,"Iberika Grill","Calle de las Redes 37, 03540 Alicante Espanha",Alicante ,4.5,121,$$ - $$$,R$ 39 - R$ 131,38.346187591552734,-0.48743000626564026,https://www.tripadvisor.com.br/Restaurant_Review-g1064230-d17593163-Reviews-Iberika_Grill-Alicante_Costa_Blanca_Province_of_Alicante_Valencian_Country.html
17456768,"Ñora y Ají","Darsena Pesquera, Local 10, 03008 Alicante Espanha",Alicante ,5.0,154,$$ - $$$,R$ 131 - R$ 262,38.33042907714844,-0.5056629776954651,https://www.tripadvisor.com.br/Restaurant_Review-g1064230-d17456768-Reviews-Nora_y_Aji-Alicante_Costa_Blanca_Province_of_Alicante_Valencian_Country.html
13923648,"Templo Restaurante","Calle Periodista Pirula Arderius, 7, 03001 Alicante Espanha",Alicante ,5.0,860,$$$$,R$ 131 - R$ 393,38.345062255859375,-0.48723098635673523,https://www.tripadvisor.com.br/Restaurant_Review-g1064230-d13923648-Reviews-Templo_Restaurante-Alicante_Costa_Blanca_Province_of_Alicante_Valencian_Country.html
15825853,"Indian House","Avda Doctor Gadea, 8 , Bajo, 03001 Alicante Espanha",Alicante ,5.0,730,$$ - $$$,R$ 46 - R$ 98,38.34190368652344,-0.48743700981140137,https://www.tripadvisor.com.br/Restaurant_Review-g1064230-d15825853-Reviews-Indian_House-Alicante_Costa_Blanca_Province_of_Alicante_Valencian_Country.html
23186688,"Burro Canaglia Bar&resto - Alicante","Carrer Castaños, 7 Bajo, 03001 Alicante Espanha",Alicante ,5.0,283,$$ - $$$,R$ 33 - R$ 131,38.36089324951172,-0.48628100752830505,https://www.tripadvisor.com.br/Restaurant_Review-g1064230-d23186688-Reviews-Burro_Canaglia_Bar_resto_Alicante-Alicante_Costa_Blanca_Province_of_Alicante_Va.html
17366381,"Tepuy Burger","Calle de Bazan No 47, 03001 Alicante Espanha",Alicante ,5.0,162,$$ - $$$,R$ 46 - R$ 85,38.34632873535156,-0.4864949882030487,https://www.tripadvisor.com.br/Restaurant_Review-g1064230-d17366381-Reviews-Tepuy_Burger-Alicante_Costa_Blanca_Province_of_Alicante_Valencian_Country.html
13921754,"Apache Burger Grill","Calle del Musico Vicente Spiteri Galiano 7, 03540 Alicante Espanha",Alicante ,4.5,85,$$ - $$$,R$ 51 - R$ 107,38.38505172729492,-0.4152669906616211,https://www.tripadvisor.com.br/Restaurant_Review-g1064230-d13921754-Reviews-Apache_Burger_Grill-Alicante_Costa_Blanca_Province_of_Alicante_Valencian_Countr.html
12556325,"Tepuy Burger","Avenida del Periodista Rodolfo de Salazar 29 Infront to the Garbinet station of the tram L2., 03015 Alicante Espanha",Alicante ,5.0,651,$,R$ 46 - R$ 85,38.3626708984375,-0.4784550070762634,https://www.tripadvisor.com.br/Restaurant_Review-g1064230-d12556325-Reviews-Tepuy_Burger-Alicante_Costa_Blanca_Province_of_Alicante_Valencian_Country.html
17406175,"Sotaterra by TheLoft","Llotja dels Caballers 10, 03002 Alicante Espanha",Alicante ,5.0,308,$$ - $$$,R$ 113 - R$ 198,38.34595489501953,-0.4809499979019165,https://www.tripadvisor.com.br/Restaurant_Review-g1064230-d17406175-Reviews-Sotaterra_by_TheLoft-Alicante_Costa_Blanca_Province_of_Alicante_Valencian_Count.html
14163928,"La Taberna Salamanca","Calle San Fernando 8, 03002 Alicante Espanha",Alicante ,5.0,160,$$ - $$$,R$ 33 - R$ 131,38.344390869140625,-0.48141300678253174,https://www.tripadvisor.com.br/Restaurant_Review-g1064230-d14163928-Reviews-La_Taberna_Salamanca-Alicante_Costa_Blanca_Province_of_Alicante_Valencian_Count.html
4093304,"El Rincon de Nakiss","Calle Churruca 14 Alicante Cerca de la esquina con calle Italia, 03003 Alicante Espanha",Alicante ,5.0,140,$,indef,38.3399658203125,-0.49168699979782104,https://www.tripadvisor.com.br/Restaurant_Review-g1064230-d4093304-Reviews-El_Rincon_de_Nakiss-Alicante_Costa_Blanca_Province_of_Alicante_Valencian_Country.html
14964273,"Higo Pico Italian Restaurant","Paraje de Orgègia 122 Chiringuito del Sportclub, 03015 Alicante Espanha",Alicante ,5.0,241,$$ - $$$,R$ 98 - R$ 262,38.380306243896484,-0.4592829942703247,https://www.tripadvisor.com.br/Restaurant_Review-g1064230-d14964273-Reviews-Higo_Pico_Italian_Restaurant-Alicante_Costa_Blanca_Province_of_Alicante_Valenci.html
17695521,"Kambon","Plaza de San Cristobal 4, 03002 Alicante Espanha",Alicante ,5.0,194,$$ - $$$,R$ 52 - R$ 196,38.346771240234375,-0.48390400409698486,https://www.tripadvisor.com.br/Restaurant_Review-g1064230-d17695521-Reviews-Kambon-Alicante_Costa_Blanca_Province_of_Alicante_Valencian_Country.html
1997852,"César Anca Restaurante & Barra","C / Ojeda, 1 Plaza Gabriel Miró ., 03001 Alicante Espanha",Alicante ,4.0,625,$$ - $$$,R$ 98 - R$ 314,38.34297180175781,-0.4849880039691925,https://www.tripadvisor.com.br/Restaurant_Review-g1064230-d1997852-Reviews-Cesar_Anca_Restaurante_Barra-Alicante_Costa_Blanca_Province_of_Alicante_Valencia.html
17593774,"Bellaterra Ristorante Pizzeria","Calle San francisco Corner with Calle Cadiz 1, 03001 Alicante Espanha",Alicante ,4.5,774,$$ - $$$,indef,38.344078063964844,-0.4842059910297394,https://www.tripadvisor.com.br/Restaurant_Review-g1064230-d17593774-Reviews-Bellaterra_Ristorante_Pizzeria-Alicante_Costa_Blanca_Province_of_Alicante_Valen.html
15295072,"Las Brasas de San Miguel","Calle de San Jose 5, 03002 Alicante Espanha",Alicante ,4.5,755,$$ - $$$,R$ 98 - R$ 327,38.34538650512695,-0.48331499099731445,https://www.tripadvisor.com.br/Restaurant_Review-g1064230-d15295072-Reviews-Las_Brasas_de_San_Miguel-Alicante_Costa_Blanca_Province_of_Alicante_Valencian_C.html
14924925,"Puerto Madero Grill & Drinks","Calle Olimpo 1 zona Albufereta, 03016 Alicante Espanha",Alicante ,4.5,215,$$ - $$$,indef,38.366050720214844,-0.44183599948883057,https://www.tripadvisor.com.br/Restaurant_Review-g1064230-d14924925-Reviews-Puerto_Madero_Grill_Drinks-Alicante_Costa_Blanca_Province_of_Alicante_Valencian.html
23626760,"Martonela","Calle Periodista Pirula Arderius, 12, 03001 Alicante Espanha",Alicante ,5.0,18,$,R$ 17 - R$ 40,38.345096588134766,-0.48767799139022827,https://www.tripadvisor.com.br/Restaurant_Review-g1064230-d23626760-Reviews-Martonela-Alicante_Costa_Blanca_Province_of_Alicante_Valencian_Country.html
10387677,"Demordisco","Av. Goleta, 21, 03002 Alicante Espanha",Alicante ,4.5,485,$$ - $$$,R$ 131 - R$ 327,38.36285400390625,-0.42301300168037415,https://www.tripadvisor.com.br/Restaurant_Review-g1064230-d10387677-Reviews-Demordisco-Alicante_Costa_Blanca_Province_of_Alicante_Valencian_Country.html
3382135,"Arroceria ESTIU","Calle Peru 13, 03008 Alicante Espanha",Alicante ,4.5,905,$$ - $$$,R$ 1 - R$ 3,38.33253479003906,-0.5088430047035217,https://www.tripadvisor.com.br/Restaurant_Review-g1064230-d3382135-Reviews-Arroceria_ESTIU-Alicante_Costa_Blanca_Province_of_Alicante_Valencian_Country.html
14927212,"El Gosto del Gourmet","Carrer Gravina 4, 03002 Alicante Espanha",Alicante ,4.5,560,$$ - $$$,R$ 13 - R$ 294,38.34518051147461,-0.4799030125141144,https://www.tripadvisor.com.br/Restaurant_Review-g1064230-d14927212-Reviews-El_Gosto_del_Gourmet-Alicante_Costa_Blanca_Province_of_Alicante_Valencian_Count.html
7179927,"Restaurant FreneZy","Calle Portugal 22, 03003 Alicante Espanha",Alicante ,4.5,543,$$$$,R$ 98 - R$ 353,38.341522216796875,-0.49000900983810425,https://www.tripadvisor.com.br/Restaurant_Review-g1064230-d7179927-Reviews-Restaurant_FreneZy-Alicante_Costa_Blanca_Province_of_Alicante_Valencian_Country.html
17721260,"El Lobo Blanco","Calle de los Castanos 35 Bajo, 03001 Alicante Espanha",Alicante ,4.5,138,$$ - $$$,R$ 118 - R$ 164,38.346378326416016,-0.4859580099582672,https://www.tripadvisor.com.br/Restaurant_Review-g1064230-d17721260-Reviews-El_Lobo_Blanco-Alicante_Costa_Blanca_Province_of_Alicante_Valencian_Country.html
4551310,"La Estancia","Alicante Calle de la Virgen del Socorro 79, 03002 Alicante Espanha",Alicante ,4.5,635,$$ - $$$,R$ 20 - R$ 393,38.35002517700195,-0.47414499521255493,https://www.tripadvisor.com.br/Restaurant_Review-g1064230-d4551310-Reviews-La_Estancia-Alicante_Costa_Blanca_Province_of_Alicante_Valencian_Country.html
16708210,"Da Ciro","Calle de los Castanos 4 A la esquina con calle San Francisco, 03001 Alicante Espanha",Alicante ,5.0,213,$$ - $$$,R$ 46 - R$ 98,38.344017028808594,-0.48477301001548767,https://www.tripadvisor.com.br/Restaurant_Review-g1064230-d16708210-Reviews-Da_Ciro-Alicante_Costa_Blanca_Province_of_Alicante_Valencian_Country.html
17610798,"Tabula Rasa","Calle Alberola 57, 03007 Alicante Espanha",Alicante ,5.0,76,$$ - $$$,indef,38.339874267578125,-0.49893298745155334,https://www.tripadvisor.com.br/Restaurant_Review-g1064230-d17610798-Reviews-Tabula_Rasa-Alicante_Costa_Blanca_Province_of_Alicante_Valencian_Country.html
6600252,"Thai Corner","Calle Labradores 12, 03002 Alicante Espanha",Alicante ,4.5,1313,$$ - $$$,R$ 131 - R$ 229,38.34676742553711,-0.4838460087776184,https://www.tripadvisor.com.br/Restaurant_Review-g1064230-d6600252-Reviews-Thai_Corner-Alicante_Costa_Blanca_Province_of_Alicante_Valencian_Country.html
16643718,"Cabana Grill","Avenida Poeta Carmelo Calvo 15, 03004 Alicante Espanha",Alicante ,4.5,291,$$ - $$$,R$ 98 - R$ 229,38.351932525634766,-0.48708099126815796,https://www.tripadvisor.com.br/Restaurant_Review-g1064230-d16643718-Reviews-Cabana_Grill-Alicante_Costa_Blanca_Province_of_Alicante_Valencian_Country.html
12709761,"Alma de Barra","Calle d'Antonio Galdo Chapuli 15, 03001 Alicante Espanha",Alicante ,4.5,855,$$ - $$$,R$ 164 - R$ 458,38.343502044677734,-0.48703300952911377,https://www.tripadvisor.com.br/Restaurant_Review-g1064230-d12709761-Reviews-Alma_de_Barra-Alicante_Costa_Blanca_Province_of_Alicante_Valencian_Country.html
6484771,"Casa Mia Italia","Calle de Juan de Herrera 38, 03004 Alicante Espanha",Alicante ,4.5,1121,$$ - $$$,R$ 98 - R$ 196,38.35097885131836,-0.48721998929977417,https://www.tripadvisor.com.br/Restaurant_Review-g1064230-d6484771-Reviews-Casa_Mia_Italia-Alicante_Costa_Blanca_Province_of_Alicante_Valencian_Country.html
17593163,"Iberika Grill","Calle de las Redes 37, 03540 Alicante Espanha",Alicante ,4.5,121,$$ - $$$,R$ 39 - R$ 131,38.346187591552734,-0.48743000626564026,https://www.tripadvisor.com.br/Restaurant_Review-g1064230-d17593163-Reviews-Iberika_Grill-Alicante_Costa_Blanca_Province_of_Alicante_Valencian_Country.html
15077583,"Natsu Ramen","Calle Reyes Catolicos 57, 03003 Alicante Espanha",Alicante ,4.5,165,$$ - $$$,R$ 20 - R$ 92,38.341156005859375,-0.4930900037288666,https://www.tripadvisor.com.br/Restaurant_Review-g1064230-d15077583-Reviews-Natsu_Ramen-Alicante_Costa_Blanca_Province_of_Alicante_Valencian_Country.html
2703946,"L'Atelier","Calle San Nicolas 12, 03002 Alicante Espanha",Alicante ,4.5,775,$$ - $$$,indef,38.345672607421875,-0.4821990132331848,https://www.tripadvisor.com.br/Restaurant_Review-g1064230-d2703946-Reviews-L_Atelier-Alicante_Costa_Blanca_Province_of_Alicante_Valencian_Country.html
7214738,"Tapas Alicante","Calle Periodista Pirula Arderius 3, 03001 Alicante Espanha",Alicante ,4.5,509,$$ - $$$,R$ 65 - R$ 262,38.345062255859375,-0.4871250092983246,https://www.tripadvisor.com.br/Restaurant_Review-g1064230-d7214738-Reviews-Tapas_Alicante-Alicante_Costa_Blanca_Province_of_Alicante_Valencian_Country.html
23626760,"Martonela","Calle Periodista Pirula Arderius, 12, 03001 Alicante Espanha",Alicante ,5.0,18,$,R$ 17 - R$ 40,38.345096588134766,-0.48767799139022827,https://www.tripadvisor.com.br/Restaurant_Review-g1064230-d23626760-Reviews-Martonela-Alicante_Costa_Blanca_Province_of_Alicante_Valencian_Country.html
5263107,"26 Lounge Bar","Plaza Portal de Elche 6, 03002 Alicante Espanha",Alicante ,4.5,449,$$ - $$$,indef,38.344486236572266,-0.4835149943828583,https://www.tripadvisor.com.br/Restaurant_Review-g1064230-d5263107-Reviews-26_Lounge_Bar-Alicante_Costa_Blanca_Province_of_Alicante_Valencian_Country.html
10734000,"La Crispeta","Calle de Jorge Juan 6, 03002 Alicante Espanha",Alicante ,4.5,951,$,indef,38.345394134521484,-0.48058998584747314,https://www.tripadvisor.com.br/Restaurant_Review-g1064230-d10734000-Reviews-La_Crispeta-Alicante_Costa_Blanca_Province_of_Alicante_Valencian_Country.html
994663,"Bodeguita 1999","Calle Bailen, 4, 03001 Alicante Espanha",Alicante ,4.5,2157,$$ - $$$,R$ 131 - R$ 327,38.34452819824219,-0.4839549958705902,https://www.tripadvisor.com.br/Restaurant_Review-g1064230-d994663-Reviews-Bodeguita_1999-Alicante_Costa_Blanca_Province_of_Alicante_Valencian_Country.html
13167708,"San Telmo Gastrobar","Calle de San Nicolas 14, 03002 Alicante Espanha",Alicante ,4.5,429,$$ - $$$,R$ 51 - R$ 226,38.3458366394043,-0.4822559952735901,https://www.tripadvisor.com.br/Restaurant_Review-g1064230-d13167708-Reviews-San_Telmo_Gastrobar-Alicante_Costa_Blanca_Province_of_Alicante_Valencian_Countr.html
10033285,"Restaurante Unik Asiatico","Calle Alberola Romero 2, 03002 Alicante Espanha",Alicante ,4.5,320,$$ - $$$,R$ 20 - R$ 131,38.34416580200195,-0.48249998688697815,https://www.tripadvisor.com.br/Restaurant_Review-g1064230-d10033285-Reviews-Restaurante_Unik_Asiatico-Alicante_Costa_Blanca_Province_of_Alicante_Valencian_.html
14142721,"La Casa de La Pizza Alicante","Calle de San Agustin 1 Bajo, 03002 Alicante Espanha",Alicante ,4.5,274,$$ - $$$,R$ 59 - R$ 85,38.34574508666992,-0.48157799243927,https://www.tripadvisor.com.br/Restaurant_Review-g1064230-d14142721-Reviews-La_Casa_de_La_Pizza_Alicante-Alicante_Costa_Blanca_Province_of_Alicante_Valenci.html
8388238,"Katana Street Food Corner","Avenida Alfonso El Sabio 8 Puesto 317, 03004 Alicante Espanha",Alicante ,4.5,204,$$ - $$$,R$ 98 - R$ 327,38.34831619262695,-0.4849050045013428,https://www.tripadvisor.com.br/Restaurant_Review-g1064230-d8388238-Reviews-Katana_Street_Food_Corner-Alicante_Costa_Blanca_Province_of_Alicante_Valencian_C.html
5549285,"El Ensayo Jazz Bar","Calle Prudencio de La Vina 3, 03007 Alicante Espanha",Alicante ,4.5,243,$$ - $$$,indef,38.342750549316406,-0.5090799927711487,https://www.tripadvisor.com.br/Restaurant_Review-g1064230-d5549285-Reviews-El_Ensayo_Jazz_Bar-Alicante_Costa_Blanca_Province_of_Alicante_Valencian_Country.html
4154957,"Don Carlos Alicante","Calle General Primo de Rivera 12, 03002 Alicante Espanha",Alicante ,4.5,792,$$ - $$$,R$ 137 - R$ 916,38.347652435302734,-0.48458001017570496,https://www.tripadvisor.com.br/Restaurant_Review-g1064230-d4154957-Reviews-Don_Carlos_Alicante-Alicante_Costa_Blanca_Province_of_Alicante_Valencian_Country.html
4012274,"Los Troncos","Avenida Albufereta 98, 03016 Alicante Espanha",Alicante ,4.5,627,$$ - $$$,indef,38.3629264831543,-0.44812101125717163,https://www.tripadvisor.com.br/Restaurant_Review-g1064230-d4012274-Reviews-Los_Troncos-Alicante_Costa_Blanca_Province_of_Alicante_Valencian_Country.html
9705527,"La Tasca Del Barrio","Calle Labradores 22 Izq. Plaza San Cristobal, 03002 Alicante Espanha",Alicante ,4.5,361,$,R$ 26 - R$ 124,38.34635925292969,-0.48339200019836426,https://www.tripadvisor.com.br/Restaurant_Review-g1064230-d9705527-Reviews-La_Tasca_Del_Barrio-Alicante_Costa_Blanca_Province_of_Alicante_Valencian_Country.html
4861264,"Alma del Sur","Calle de Munoz 2 Casco Antiguo Junto a la Con catedral de San Nicolás, 03002 Alicante Espanha",Alicante ,4.5,494,$$ - $$$,R$ 33 - R$ 98,38.345115661621094,-0.48266398906707764,https://www.tripadvisor.com.br/Restaurant_Review-g1064230-d4861264-Reviews-Alma_del_Sur-Alicante_Costa_Blanca_Province_of_Alicante_Valencian_Country.html
13543258,"Porto Felice Ristorante Italiano","Lg Muelle Levante 8 S/N Local 4, modulo 2, 03002 Alicante Espanha",Alicante ,4.5,400,$$$$,R$ 131 - R$ 648,38.33995056152344,-0.4803139865398407,https://www.tripadvisor.com.br/Restaurant_Review-g1064230-d13543258-Reviews-Porto_Felice_Ristorante_Italiano-Alicante_Costa_Blanca_Province_of_Alicante_Val.html
3741122,"Pizzeria Civitavecchia","Calle de la Virgen del Socorro 81, 03002 Alicante Espanha",Alicante ,4.5,273,$$ - $$$,R$ 65 - R$ 98,38.35117721557617,-0.4738920032978058,https://www.tripadvisor.com.br/Restaurant_Review-g1064230-d3741122-Reviews-Pizzeria_Civitavecchia-Alicante_Costa_Blanca_Province_of_Alicante_Valencian_Coun.html
12928128,"Suan Thai Restaurant","Calle Miguel Soler 6, 03002 Alicante Espanha",Alicante ,4.5,203,$$ - $$$,R$ 79 - R$ 164,38.3451042175293,-0.4830330014228821,https://www.tripadvisor.com.br/Restaurant_Review-g1064230-d12928128-Reviews-Suan_Thai_Restaurant-Alicante_Costa_Blanca_Province_of_Alicante_Valencian_Count.html
23557887,"Cabaña Grill Playa San Juan","Esquina De Jose Garberi Serran Y Av.Artista Remigio Soler Lopez, 03540 Alicante Espanha",Alicante ,5.0,52,$$ - $$$,R$ 28 - R$ 339,0.0,0.0,https://www.tripadvisor.com.br/Restaurant_Review-g1064230-d23557887-Reviews-Cabana_Grill_Playa_San_Juan-Alicante_Costa_Blanca_Province_of_Alicante_Valencia.html
13146564,"Open","Calle de Manuel Anton 12, 03004 Alicante Espanha",Alicante ,4.5,255,$$$$,R$ 98 - R$ 393,38.349708557128906,-0.48648500442504883,https://www.tripadvisor.com.br/Restaurant_Review-g1064230-d13146564-Reviews-Open-Alicante_Costa_Blanca_Province_of_Alicante_Valencian_Country.html
10276773,"Bululu","Calle Mayor 21, 03002 Alicante Espanha",Alicante ,4.5,323,$,indef,38.345027923583984,-0.4821639955043793,https://www.tripadvisor.com.br/Restaurant_Review-g1064230-d10276773-Reviews-Bululu-Alicante_Costa_Blanca_Province_of_Alicante_Valencian_Country.html
12177548,"Circo","Calle Teatro 8 Próximo al Teatro principal, la zona cultural y de ocio de la ciudad de Alicante., 03001 Alicante Espanha",Alicante ,4.5,582,$,R$ 79 - R$ 118,38.3459358215332,-0.4859429895877838,https://www.tripadvisor.com.br/Restaurant_Review-g1064230-d12177548-Reviews-Circo-Alicante_Costa_Blanca_Province_of_Alicante_Valencian_Country.html
7171240,"La Vaca","Calle de San Fernando 55, 03001 Alicante Espanha",Alicante ,4.5,632,$$ - $$$,R$ 131 - R$ 229,38.342220306396484,-0.4870760142803192,https://www.tripadvisor.com.br/Restaurant_Review-g1064230-d7171240-Reviews-La_Vaca-Alicante_Costa_Blanca_Province_of_Alicante_Valencian_Country.html
1537218,"Peccati di Gola Ristorante","Calle San Francisco 10 Calle de las setas. A 200 metros de la Explanada y a 2 minutos de la Rambla., 03001 Alicante Espanha",Alicante ,4.5,726,$$ - $$$,R$ 144 - R$ 229,38.344078063964844,-0.4843289852142334,https://www.tripadvisor.com.br/Restaurant_Review-g1064230-d1537218-Reviews-Peccati_di_Gola_Ristorante-Alicante_Costa_Blanca_Province_of_Alicante_Valencian_.html
6536746,"Daikichi","Calle Segura 1, 03004 Alicante Espanha",Alicante ,4.5,598,$$ - $$$,indef,38.34647750854492,-0.4898749887943268,https://www.tripadvisor.com.br/Restaurant_Review-g1064230-d6536746-Reviews-Daikichi-Alicante_Costa_Blanca_Province_of_Alicante_Valencian_Country.html
15041834,"Restaurante Bigoli","Calle Candida Jimeno Gargallo 6, 03002 Alicante Espanha",Alicante ,4.5,198,$$ - $$$,R$ 65 - R$ 262,38.34568786621094,-0.4852280020713806,https://www.tripadvisor.com.br/Restaurant_Review-g1064230-d15041834-Reviews-Restaurante_Bigoli-Alicante_Costa_Blanca_Province_of_Alicante_Valencian_Country.html
7799216,"La Ronería","Placa del Doctor Balmis 3 Alicante centro., 03001 Alicante Espanha",Alicante ,4.5,303,$$ - $$$,R$ 79 - R$ 118,38.34302520751953,-0.48713600635528564,https://www.tripadvisor.com.br/Restaurant_Review-g1064230-d7799216-Reviews-La_Roneria-Alicante_Costa_Blanca_Province_of_Alicante_Valencian_Country.html
13803902,"El Bokao Gourmet","Calle de Tomas Lopez Torregrosa 10, 03002 Alicante Espanha",Alicante ,4.5,176,$$ - $$$,indef,38.34756088256836,-0.4851450026035309,https://www.tripadvisor.com.br/Restaurant_Review-g1064230-d13803902-Reviews-El_Bokao_Gourmet-Alicante_Costa_Blanca_Province_of_Alicante_Valencian_Country.html
13289765,"Bar Manero Tapas Delicatessen","Calle Medico Manero Molla 7, 03001 Alicante Espanha",Alicante ,4.5,920,$$ - $$$,R$ 164 - R$ 229,38.34388732910156,-0.4839250147342682,https://www.tripadvisor.com.br/Restaurant_Review-g1064230-d13289765-Reviews-Bar_Manero_Tapas_Delicatessen-Alicante_Costa_Blanca_Province_of_Alicante_Valenc.html
1553850,"Cervecería Sento Rambla","Carrer Gerona, 1, 03001 Alicante Espanha",Alicante ,4.5,2647,$$ - $$$,R$ 79 - R$ 196,38.34492111206055,-0.4838779866695404,https://www.tripadvisor.com.br/Restaurant_Review-g1064230-d1553850-Reviews-Cerveceria_Sento_Rambla-Alicante_Costa_Blanca_Province_of_Alicante_Valencian_Cou.html
23407353,"Sunrise Gastro Bar Ristorante","Calle de San Fernando 34, 03001 Alicante Espanha",Alicante ,5.0,48,$$ - $$$,R$ 33 - R$ 100,38.34347152709961,-0.48431500792503357,https://www.tripadvisor.com.br/Restaurant_Review-g1064230-d23407353-Reviews-Sunrise_Gastro_Bar_Ristorante-Alicante_Costa_Blanca_Province_of_Alicante_Valenc.html
8511216,"Baobab Exotique","Avenida Santander 20 Local 19, 03540 Alicante Espanha",Alicante ,4.5,230,$$ - $$$,R$ 97 - R$ 161,38.369930267333984,-0.41425299644470215,https://www.tripadvisor.com.br/Restaurant_Review-g1064230-d8511216-Reviews-Baobab_Exotique-Alicante_Costa_Blanca_Province_of_Alicante_Valencian_Country.html
2235449,"TK Arabesco Restaurante & Teteria","Calle Segura 7 Junto La Plaza De Los Luceros, 03004 Alicante Espanha",Alicante ,4.5,288,$$ - $$$,R$ 97 - R$ 181,38.34683609008789,-0.49003100395202637,https://www.tripadvisor.com.br/Restaurant_Review-g1064230-d2235449-Reviews-TK_Arabesco_Restaurante_Teteria-Alicante_Costa_Blanca_Province_of_Alicante_Valen.html
11997540,"Fish Bowl","Calle Saavedra Fajardo Dehesa Campoamor, 03189 Alicante Espanha",Alicante ,4.5,397,$$ - $$$,R$ 19 - R$ 194,37.90003967285156,-0.7505530118942261,https://www.tripadvisor.com.br/Restaurant_Review-g1064230-d11997540-Reviews-Fish_Bowl-Alicante_Costa_Blanca_Province_of_Alicante_Valencian_Country.html
1579365,"El Canto","Calle Alemania 26, 03003 Alicante Espanha",Alicante ,4.5,562,$$ - $$$,indef,38.34220886230469,-0.48927900195121765,https://www.tripadvisor.com.br/Restaurant_Review-g1064230-d1579365-Reviews-El_Canto-Alicante_Costa_Blanca_Province_of_Alicante_Valencian_Country.html
9978532,"Le Sol","Calle Horacio 9 Corner with Avda Caja de Ahorros, opposite Mercadona), 2 'stop Tram Lucentum and Albufereta, 03016 Alicante Espanha",Alicante ,4.5,669,$$ - $$$,R$ 161 - R$ 232,38.36936950683594,-0.4438779950141907,https://www.tripadvisor.com.br/Restaurant_Review-g1064230-d9978532-Reviews-Le_Sol-Alicante_Costa_Blanca_Province_of_Alicante_Valencian_Country.html
7282800,"La Cave a Fromage","Avenida General Marva 19, 03005 Alicante Espanha",Alicante ,4.5,210,$$ - $$$,indef,38.34770584106445,-0.4918780028820038,https://www.tripadvisor.com.br/Restaurant_Review-g1064230-d7282800-Reviews-La_Cave_a_Fromage-Alicante_Costa_Blanca_Province_of_Alicante_Valencian_Country.html
8059601,"Restaurante Namaste India Alicante","Calle Doctor Sanchez San Julian 6, 03013 Alicante Espanha",Alicante ,4.5,213,indef,R$ 97 - R$ 194,38.35756301879883,-0.4721510112285614,https://www.tripadvisor.com.br/Restaurant_Review-g1064230-d8059601-Reviews-Restaurante_Namaste_India_Alicante-Alicante_Costa_Blanca_Province_of_Alicante_Va.html
994743,"Nou Manolin","Calle Villegas 3, 03001 Alicante Espanha",Alicante ,4.5,2432,$$$$,R$ 258 - R$ 645,38.345333099365234,-0.48508599400520325,https://www.tripadvisor.com.br/Restaurant_Review-g1064230-d994743-Reviews-Nou_Manolin-Alicante_Costa_Blanca_Province_of_Alicante_Valencian_Country.html
10178243,"Mish Mish","Plaza San Cristobal 8 Cerca de Rambla y bien comunicada. Parada Mercado del TRAM, 03002 Alicante Espanha",Alicante ,4.5,911,$$ - $$$,R$ 39 - R$ 129,38.34685134887695,-0.48361900448799133,https://www.tripadvisor.com.br/Restaurant_Review-g1064230-d10178243-Reviews-Mish_Mish-Alicante_Costa_Blanca_Province_of_Alicante_Valencian_Country.html
3525481,"La Taverna del Raco del Pla","Calle Navas 40, 03001 Alicante Espanha",Alicante ,4.5,599,$$ - $$$,R$ 103 - R$ 258,38.34640884399414,-0.4874820113182068,https://www.tripadvisor.com.br/Restaurant_Review-g1064230-d3525481-Reviews-La_Taverna_del_Raco_del_Pla-Alicante_Costa_Blanca_Province_of_Alicante_Valencian.html
7998291,"Cerveceria Sento Barrio","Calle San Pascual 7, 03002 Alicante Espanha",Alicante ,4.5,458,$$ - $$$,indef,38.34596633911133,-0.48263901472091675,https://www.tripadvisor.com.br/Restaurant_Review-g1064230-d7998291-Reviews-Cerveceria_Sento_Barrio-Alicante_Costa_Blanca_Province_of_Alicante_Valencian_Cou.html
14177301,"Terra Peru by Eneko Canovas","Avenida Santander 25 Local 50, 03540 Alicante Espanha",Alicante ,4.5,129,$$ - $$$,R$ 129 - R$ 226,38.37201690673828,-0.41444000601768494,https://www.tripadvisor.com.br/Restaurant_Review-g1064230-d14177301-Reviews-Terra_Peru_by_Eneko_Canovas-Alicante_Costa_Blanca_Province_of_Alicante_Valencia.html
3162116,"Restaurante Griego Kalamitsi","Calle de San Francisco 50, 03001 Alicante Espanha",Alicante ,4.5,379,$$ - $$$,indef,38.343021392822266,-0.4861379861831665,https://www.tripadvisor.com.br/Restaurant_Review-g1064230-d3162116-Reviews-Restaurante_Griego_Kalamitsi-Alicante_Costa_Blanca_Province_of_Alicante_Valencia.html
6420162,"Enso Sushi Alicante","Plaza Gabriel Miro 2, 03001 Alicante Espanha",Alicante ,4.5,362,$$$$,indef,38.34336471557617,-0.48480701446533203,https://www.tripadvisor.com.br/Restaurant_Review-g1064230-d6420162-Reviews-Enso_Sushi_Alicante-Alicante_Costa_Blanca_Province_of_Alicante_Valencian_Country.html
2682932,"New Delhi Indian Restaurant","Paseo Explanada de Espana 25, 03001 Alicante Espanha",Alicante ,4.5,583,$$ - $$$,R$ 45 - R$ 77,38.34248352050781,-0.4855009913444519,https://www.tripadvisor.com.br/Restaurant_Review-g1064230-d2682932-Reviews-New_Delhi_Indian_Restaurant-Alicante_Costa_Blanca_Province_of_Alicante_Valencian.html
3724656,"Taberna To-Bar","Calle Musico Jose Torregrosa 28 Villafranquenza, 03112 Alicante Espanha",Alicante ,4.5,790,$$ - $$$,indef,38.385929107666016,-0.49086400866508484,https://www.tripadvisor.com.br/Restaurant_Review-g1064230-d3724656-Reviews-Taberna_To_Bar-Alicante_Costa_Blanca_Province_of_Alicante_Valencian_Country.html
6164583,"Krokante","Avenida Historiador Vicente Ramos 30, 03540 Alicante Espanha",Alicante ,4.5,233,$$ - $$$,indef,38.36781692504883,-0.42158299684524536,https://www.tripadvisor.com.br/Restaurant_Review-g1064230-d6164583-Reviews-Krokante-Alicante_Costa_Blanca_Province_of_Alicante_Valencian_Country.html
2670871,"La Mar de Arroz","Puerto Pesquero de Alicante - Nueva Darsena Pesquera, Local 6, 03008 Alicante Espanha",Alicante ,4.5,245,$$ - $$$,R$ 97 - R$ 194,38.33015060424805,-0.5060330033302307,https://www.tripadvisor.com.br/Restaurant_Review-g1064230-d2670871-Reviews-La_Mar_de_Arroz-Alicante_Costa_Blanca_Province_of_Alicante_Valencian_Country.html
994650,"Pintxo Kalea","Avenida Ansaldo 6 Shopping Mall Torre Golf, 03540 Alicante Espanha",Alicante ,4.5,555,$$ - $$$,R$ 65 - R$ 323,38.36662292480469,-0.43047401309013367,https://www.tripadvisor.com.br/Restaurant_Review-g1064230-d994650-Reviews-Pintxo_Kalea-Alicante_Costa_Blanca_Province_of_Alicante_Valencian_Country.html
3538479,"La Taberna Iberica","Calle Pedro Sebastia 7 Casco Antiguo, Historico, 03002 Alicante Espanha",Alicante ,4.5,779,$$ - $$$,R$ 97 - R$ 194,38.346763610839844,-0.4816490113735199,https://www.tripadvisor.com.br/Restaurant_Review-g1064230-d3538479-Reviews-La_Taberna_Iberica-Alicante_Costa_Blanca_Province_of_Alicante_Valencian_Country.html
4323995,"D´Tablas Alicante","Calle de Rafael Altamira 6, 03002 Alicante Espanha",Alicante ,4.5,1546,$,indef,38.34447479248047,-0.4822719991207123,https://www.tripadvisor.com.br/Restaurant_Review-g1064230-d4323995-Reviews-D_Tablas_Alicante-Alicante_Costa_Blanca_Province_of_Alicante_Valencian_Country.html
11920156,"In Bocca Al Lupo","Calle Munoz 5 In Bocca Al Lupo, 03001 Alicante Espanha",Alicante ,4.5,754,$$ - $$$,R$ 97 - R$ 484,38.345054626464844,-0.4826520085334778,https://www.tripadvisor.com.br/Restaurant_Review-g1064230-d11920156-Reviews-In_Bocca_Al_Lupo-Alicante_Costa_Blanca_Province_of_Alicante_Valencian_Country.html
17849045,"Restaurante Altramuz","Avenida de Holanda 18, Playa de San Juan, 03540 Alicante Espanha",Alicante ,4.5,95,$$ - $$$,indef,38.368316650390625,-0.41690999269485474,https://www.tripadvisor.com.br/Restaurant_Review-g1064230-d17849045-Reviews-Restaurante_Altramuz-Alicante_Costa_Blanca_Province_of_Alicante_Valencian_Count.html
8389244,"bodhigreen","Calle San Fernando 46, 03001 Alicante Espanha",Alicante ,4.5,821,$$ - $$$,indef,38.34260940551758,-0.48624101281166077,https://www.tripadvisor.com.br/Restaurant_Review-g1064230-d8389244-Reviews-Bodhigreen-Alicante_Costa_Blanca_Province_of_Alicante_Valencian_Country.html
5585161,"Liberty Kitchen","Calle Poeta Quintana 70, 03004 Alicante Espanha",Alicante ,4.5,723,$$ - $$$,R$ 13 - R$ 77,38.347171783447266,-0.49087798595428467,https://www.tripadvisor.com.br/Restaurant_Review-g1064230-d5585161-Reviews-Liberty_Kitchen-Alicante_Costa_Blanca_Province_of_Alicante_Valencian_Country.html
6161606,"Taberna la Vendimia","Calle Llinares 3, 03010 Alicante Espanha",Alicante ,4.5,136,$$ - $$$,R$ 129 - R$ 194,38.36089324951172,-0.48953598737716675,https://www.tripadvisor.com.br/Restaurant_Review-g1064230-d6161606-Reviews-Taberna_la_Vendimia-Alicante_Costa_Blanca_Province_of_Alicante_Valencian_Country.html
9580735,"La Terreta Gastrobar","Calle de Pablo Iglesias 12 Calle Pablo Iglesias, 12, 03004 Alicante Espanha",Alicante ,4.5,512,$$ - $$$,R$ 129 - R$ 258,38.34763717651367,-0.4881640076637268,https://www.tripadvisor.com.br/Restaurant_Review-g1064230-d9580735-Reviews-La_Terreta_Gastrobar-Alicante_Costa_Blanca_Province_of_Alicante_Valencian_Countr.html
13002613,"Yolo Pizza","Calle San Francisco 45, 03001 Alicante Espanha",Alicante ,4.5,148,$$ - $$$,R$ 39 - R$ 58,38.34381103515625,-0.48590999841690063,https://www.tripadvisor.com.br/Restaurant_Review-g1064230-d13002613-Reviews-Yolo_Pizza-Alicante_Costa_Blanca_Province_of_Alicante_Valencian_Country.html
12630759,"Fooders","Calle Castanos 16 Bajo Derecha, 03001 Alicante Espanha",Alicante ,4.5,385,$$ - $$$,R$ 65 - R$ 161,38.34486770629883,-0.485164999961853,https://www.tripadvisor.com.br/Restaurant_Review-g1064230-d12630759-Reviews-Fooders-Alicante_Costa_Blanca_Province_of_Alicante_Valencian_Country.html
2709567,"Restaurante Mesón Marinero","Calle Fernando Diaz de Mendoza 7-9 Barrio San Gabriel, 03008 Alicante Espanha",Alicante ,4.5,116,$$ - $$$,indef,38.328582763671875,-0.5142530202865601,https://www.tripadvisor.com.br/Restaurant_Review-g1064230-d2709567-Reviews-Restaurante_Meson_Marinero-Alicante_Costa_Blanca_Province_of_Alicante_Valencian_.html
18921794,"Sibuya Urban Sushi Bar Alicante","Alfonso X El Sabio, 03004 Alicante Espanha",Alicante ,4.5,225,$$ - $$$,R$ 26 - R$ 258,38.347957611083984,-0.4854719936847687,https://www.tripadvisor.com.br/Restaurant_Review-g1064230-d18921794-Reviews-Sibuya_Urban_Sushi_Bar_Alicante-Alicante_Costa_Blanca_Province_of_Alicante_Vale.html
13075031,"La Folie Alicante","Calle Bailen 29, 03001 Alicante Espanha",Alicante ,4.5,298,$$ - $$$,R$ 97 - R$ 194,38.345977783203125,-0.48487499356269836,https://www.tripadvisor.com.br/Restaurant_Review-g1064230-d13075031-Reviews-La_Folie_Alicante-Alicante_Costa_Blanca_Province_of_Alicante_Valencian_Country.html
15643495,"Purpura Project","Calle de San Agustin 2, 03002 Alicante Espanha",Alicante ,5.0,78,$,R$ 77 - R$ 258,38.34611892700195,-0.48166701197624207,https://www.tripadvisor.com.br/Restaurant_Review-g1064230-d15643495-Reviews-Purpura_Project-Alicante_Costa_Blanca_Province_of_Alicante_Valencian_Country.html
8649226,"MI WARUNG by Sheerezade","Calle de San Jose 6 Centro Historico de Alicante, 03002 Alicante Espanha",Alicante ,4.5,112,$$ - $$$,R$ 39 - R$ 90,38.345401763916016,-0.4833329916000366,https://www.tripadvisor.com.br/Restaurant_Review-g1064230-d8649226-Reviews-MI_WARUNG_by_Sheerezade-Alicante_Costa_Blanca_Province_of_Alicante_Valencian_Cou.html
4126373,"Vinícolas","Notario Salvador Montesinos Bonet, 25, 03550 Alicante Espanha",Alicante ,4.5,181,$$$$,indef,38.397254943847656,-0.4312399923801422,https://www.tripadvisor.com.br/Restaurant_Review-g1064230-d4126373-Reviews-Vinicolas-Alicante_Costa_Blanca_Province_of_Alicante_Valencian_Country.html
3369338,"Casa Julio","Avenida Niza S/N Playa De San Juan, 03540 Alicante Espanha",Alicante ,4.5,799,$$ - $$$,R$ 161 - R$ 290,38.381324768066406,-0.40951400995254517,https://www.tripadvisor.com.br/Restaurant_Review-g1064230-d3369338-Reviews-Casa_Julio-Alicante_Costa_Blanca_Province_of_Alicante_Valencian_Country.html
12327521,"Santabar","Calle de San Diego 1 Santa Faz, 03559 Alicante Espanha",Alicante ,4.5,432,$$ - $$$,R$ 97 - R$ 194,38.390010833740234,-0.44275400042533875,https://www.tripadvisor.com.br/Restaurant_Review-g1064230-d12327521-Reviews-Santabar-Alicante_Costa_Blanca_Province_of_Alicante_Valencian_Country.html
1383291,"Sale & Pepe Pizzeria - Barrio","Calle Munoz 3, 03002 Alicante Espanha",Alicante ,4.0,1882,$$ - $$$,R$ 84 - R$ 213,38.34525680541992,-0.48276498913764954,https://www.tripadvisor.com.br/Restaurant_Review-g1064230-d1383291-Reviews-Sale_Pepe_Pizzeria_Barrio-Alicante_Costa_Blanca_Province_of_Alicante_Valencian_C.html
1969607,"La Ereta","Parque de la Ereta S/N, 03001 Alicante Espanha",Alicante ,4.0,608,$$$$,indef,38.348419189453125,-0.48170700669288635,https://www.tripadvisor.com.br/Restaurant_Review-g1064230-d1969607-Reviews-La_Ereta-Alicante_Costa_Blanca_Province_of_Alicante_Valencian_Country.html
3381876,"Daksa","Avenida Niza 21 Playa de San Juan, 03540 Alicante Espanha",Alicante ,4.0,354,$$ - $$$,indef,38.37392044067383,-0.41059398651123047,https://www.tripadvisor.com.br/Restaurant_Review-g1064230-d3381876-Reviews-Daksa-Alicante_Costa_Blanca_Province_of_Alicante_Valencian_Country.html
4097466,"Restaurante Pizzería Tito´s","Calle Medico Vicente Reyes 1, 03015 Alicante Espanha",Alicante ,4.5,296,$$ - $$$,indef,38.362335205078125,-0.4739609956741333,https://www.tripadvisor.com.br/Restaurant_Review-g1064230-d4097466-Reviews-Restaurante_Pizzeria_Tito_s-Alicante_Costa_Blanca_Province_of_Alicante_Valencian.html
4553148,"Tandoori House","Calle San Fernando 14, 03002 Alicante Espanha",Alicante ,4.5,268,$$ - $$$,indef,38.34408950805664,-0.4818809926509857,https://www.tripadvisor.com.br/Restaurant_Review-g1064230-d4553148-Reviews-Tandoori_House-Alicante_Costa_Blanca_Province_of_Alicante_Valencian_Country.html
23582303,"Oculto Alicante","Calle de Tomas Lopez Torregrosa 13 Alicante La Rambla, Alicante, 03002 Alicante Espanha",Alicante ,5.0,39,Mexicana,indef,38.34735870361328,-0.4852049946784973,https://www.tripadvisor.com.br/Restaurant_Review-g1064230-d23582303-Reviews-Oculto_Alicante-Alicante_Costa_Blanca_Province_of_Alicante_Valencian_Country.html
994715,"Piripi","Avenida Oscar Espla 30, 03003 Alicante Espanha",Alicante ,4.0,1334,$$$$,R$ 258 - R$ 645,38.3422737121582,-0.4940260052680969,https://www.tripadvisor.com.br/Restaurant_Review-g1064230-d994715-Reviews-Piripi-Alicante_Costa_Blanca_Province_of_Alicante_Valencian_Country.html
1799905,"Restaurante Katagorri","Rambla Mendez Nunez 35, 03002 Alicante Espanha",Alicante ,4.0,440,$$ - $$$,indef,38.34663009643555,-0.4843220114707947,https://www.tripadvisor.com.br/Restaurant_Review-g1064230-d1799905-Reviews-Restaurante_Katagorri-Alicante_Costa_Blanca_Province_of_Alicante_Valencian_Count.html
7754051,"Restaurante la Brujula","Lg Muelle Levante 6. Marina Deportiva Puerto de Alicante, 03002 Alicante Espanha",Alicante ,4.0,548,$$ - $$$,R$ 129 - R$ 194,38.34166717529297,-0.4799500107765198,https://www.tripadvisor.com.br/Restaurant_Review-g1064230-d7754051-Reviews-Restaurante_la_Brujula-Alicante_Costa_Blanca_Province_of_Alicante_Valencian_Coun.html
17143106,"Wasamole","Calle Jose Gutierrez Peten 5, 03004 Alicante Espanha",Alicante ,5.0,74,$$ - $$$,indef,38.347774505615234,-0.4869610071182251,https://www.tripadvisor.com.br/Restaurant_Review-g1064230-d17143106-Reviews-Wasamole-Alicante_Costa_Blanca_Province_of_Alicante_Valencian_Country.html
16755564,"MIKU Izakayasushi & Fusion","Calle Mayor 25 Junto plaza San Cristóbal, 03002 Alicante Espanha",Alicante ,5.0,70,$$ - $$$,indef,38.346900939941406,-0.483148992061615,https://www.tripadvisor.com.br/Restaurant_Review-g1064230-d16755564-Reviews-MIKU_Izakayasushi_Fusion-Alicante_Costa_Blanca_Province_of_Alicante_Valencian_C.html
3318199,"La Piazza","Plaza del Abad Penalva Nº 1, 03002 Alicante Espanha",Alicante ,4.0,353,$$ - $$$,indef,38.3454475402832,-0.4828670024871826,https://www.tripadvisor.com.br/Restaurant_Review-g1064230-d3318199-Reviews-La_Piazza-Alicante_Costa_Blanca_Province_of_Alicante_Valencian_Country.html
2046606,"The Gallery Indian Restaurant","Calle Finlandia 17 Gran Alacant - Centro Comercial Gran Alacant Upstair Mercadona, 03130 Alicante Espanha",Alicante ,4.5,253,$$ - $$$,R$ 45 - R$ 161,38.23379898071289,-0.5505599975585938,https://www.tripadvisor.com.br/Restaurant_Review-g1064230-d2046606-Reviews-The_Gallery_Indian_Restaurant-Alicante_Costa_Blanca_Province_of_Alicante_Valenci.html
20921431,"Maillard restaurante","Calle Jose Gutierrez Peten 4, 03004 Alicante Espanha",Alicante ,5.0,51,$$ - $$$,R$ 129 - R$ 226,38.34793472290039,-0.4869840145111084,https://www.tripadvisor.com.br/Restaurant_Review-g1064230-d20921431-Reviews-Maillard_restaurante-Alicante_Costa_Blanca_Province_of_Alicante_Valencian_Count.html
2070299,"Verd i Vent","Carretera CV-749, Km 5, 03727 Alicante Espanha",Alicante ,4.5,166,$$ - $$$,indef,38.70939254760742,-0.04035399854183197,https://www.tripadvisor.com.br/Restaurant_Review-g1064230-d2070299-Reviews-Verd_i_Vent-Alicante_Costa_Blanca_Province_of_Alicante_Valencian_Country.html
3266415,"Soho parc","Plaza de Elche 03002 Alicante, Alicante Espanha",Alicante ,4.0,298,$$ - $$$,indef,38.34432601928711,-0.4833810031414032,https://www.tripadvisor.com.br/Restaurant_Review-g1064230-d3266415-Reviews-Soho_parc-Alicante_Costa_Blanca_Province_of_Alicante_Valencian_Country.html
4041086,"Sale & Pepe Castanos","Calle del Teniente Alvarez Soto 5, 03001 Alicante Espanha",Alicante ,4.0,627,$$ - $$$,R$ 65 - R$ 168,38.34549331665039,-0.485275000333786,https://www.tripadvisor.com.br/Restaurant_Review-g1064230-d4041086-Reviews-Sale_Pepe_Castanos-Alicante_Costa_Blanca_Province_of_Alicante_Valencian_Country.html
7684193,"El Garaje Bar Alicante","Plaza Gabriel Miro y C/San Francisco Entrada a Ambas Calles-, 03001 Alicante Espanha",Alicante ,4.0,526,$,indef,38.34376525878906,-0.48545700311660767,https://www.tripadvisor.com.br/Restaurant_Review-g1064230-d7684193-Reviews-El_Garaje_Bar_Alicante-Alicante_Costa_Blanca_Province_of_Alicante_Valencian_Coun.html
12242684,"Kazoku Sushi Restaurant","Avenida Condomina, 40 Local 10, 03540 Alicante Espanha",Alicante ,4.5,139,$$ - $$$,R$ 129 - R$ 226,38.363441467285156,-0.4299210011959076,https://www.tripadvisor.com.br/Restaurant_Review-g1064230-d12242684-Reviews-Kazoku_Sushi_Restaurant-Alicante_Costa_Blanca_Province_of_Alicante_Valencian_Co.html
7179402,"Populi bistro","Vial Flora de Espana 36, 03016 Alicante Espanha",Alicante ,4.0,379,$$$$,R$ 258 - R$ 645,38.37037658691406,-0.445607990026474,https://www.tripadvisor.com.br/Restaurant_Review-g1064230-d7179402-Reviews-Populi_bistro-Alicante_Costa_Blanca_Province_of_Alicante_Valencian_Country.html
987093,"La Taberna del Gourmet","Calle San Fernando 10, 03002 Alicante Espanha",Alicante ,4.0,3117,$$ - $$$,R$ 139 - R$ 558,38.34424591064453,-0.481564998626709,https://www.tripadvisor.com.br/Restaurant_Review-g1064230-d987093-Reviews-La_Taberna_del_Gourmet-Alicante_Costa_Blanca_Province_of_Alicante_Valencian_Count.html
1488331,"El Portal","Calle Bilbao 2, 03001 Alicante Espanha",Alicante ,4.5,4362,$$$$,R$ 129 - R$ 387,38.34415054321289,-0.48351699113845825,https://www.tripadvisor.com.br/Restaurant_Review-g1064230-d1488331-Reviews-El_Portal-Alicante_Costa_Blanca_Province_of_Alicante_Valencian_Country.html
16849451,"Arruzafa restaurante árabe","Calle Donoso Cortés N 26, 03012 Alicante Espanha",Alicante ,5.0,73,$$ - $$$,R$ 58 - R$ 194,38.35721969604492,-0.48382601141929626,https://www.tripadvisor.com.br/Restaurant_Review-g1064230-d16849451-Reviews-Arruzafa_restaurante_arabe-Alicante_Costa_Blanca_Province_of_Alicante_Valencian.html
2025795,"La Taberna de Luceros","Plaza los Luceros 4 Bajo Izqda, 03001 Alicante Espanha",Alicante ,4.5,232,$$ - $$$,R$ 97 - R$ 194,38.34587478637695,-0.4902670085430145,https://www.tripadvisor.com.br/Restaurant_Review-g1064230-d2025795-Reviews-La_Taberna_de_Luceros-Alicante_Costa_Blanca_Province_of_Alicante_Valencian_Count.html
21192156,"Gourmettina Lovely Pizza","Calle Maruja Pastor 2 Local 6, 03540 Alicante Espanha",Alicante ,5.0,50,$$ - $$$,R$ 97 - R$ 161,38.36772537231445,-0.4279490113258362,https://www.tripadvisor.com.br/Restaurant_Review-g1064230-d21192156-Reviews-Gourmettina_Lovely_Pizza-Alicante_Costa_Blanca_Province_of_Alicante_Valencian_C.html
3609854,"Restobar Gema Penalva","Calle Canalejas 9 Frente a la plaza del Dr. Balmis, 03001 Alicante Espanha",Alicante ,4.5,236,$$ - $$$,R$ 112 - R$ 257,38.34303283691406,-0.487403005361557,https://www.tripadvisor.com.br/Restaurant_Review-g1064230-d3609854-Reviews-Restobar_Gema_Penalva-Alicante_Costa_Blanca_Province_of_Alicante_Valencian_Count.html
1755001,"Restaurante Spiga","Calle Mayor 11, 03002 Alicante Espanha",Alicante ,4.0,827,$$ - $$$,indef,38.34491729736328,-0.48256900906562805,https://www.tripadvisor.com.br/Restaurant_Review-g1064230-d1755001-Reviews-Restaurante_Spiga-Alicante_Costa_Blanca_Province_of_Alicante_Valencian_Country.html
10735365,"El Rincon De Alma","Calle San Pascual, 03002 Alicante Espanha",Alicante ,4.0,305,$$ - $$$,R$ 19 - R$ 323,38.345977783203125,-0.4826950132846832,https://www.tripadvisor.com.br/Restaurant_Review-g1064230-d10735365-Reviews-El_Rincon_De_Alma-Alicante_Costa_Blanca_Province_of_Alicante_Valencian_Country.html
2707784,"Restaurante Raco del Pla","Calle Doctor Nieto 42, 03013 Alicante Espanha",Alicante ,4.0,503,$$ - $$$,R$ 103 - R$ 232,38.35700225830078,-0.47774600982666016,https://www.tripadvisor.com.br/Restaurant_Review-g1064230-d2707784-Reviews-Restaurante_Raco_del_Pla-Alicante_Costa_Blanca_Province_of_Alicante_Valencian_Co.html
4697484,"The Stone Grill @ La Fuente","Avenida Tiro De Pichon Centro comercial la fuente Local 40 Orihuela costa, 03189 Alicante Espanha",Alicante ,4.0,292,$$ - $$$,indef,37.930137634277344,-0.7664920091629028,https://www.tripadvisor.com.br/Restaurant_Review-g1064230-d4697484-Reviews-The_Stone_Grill_La_Fuente-Alicante_Costa_Blanca_Province_of_Alicante_Valencian_C.html
3831276,"De Cuchara La Cocina de Carmen","Calle Poeta Quintana 46 Bajo, 03004 Alicante Espanha",Alicante ,4.5,126,$$ - $$$,R$ 97 - R$ 161,38.34770965576172,-0.4893749952316284,https://www.tripadvisor.com.br/Restaurant_Review-g1064230-d3831276-Reviews-De_Cuchara_La_Cocina_de_Carmen-Alicante_Costa_Blanca_Province_of_Alicante_Valenc.html
17594068,"Ajonegro Gastrobar Arrocería","Av Historidor Vicente Ramos 28 Local 28, 03540 Alicante Espanha",Alicante ,4.5,173,$$ - $$$,R$ 97 - R$ 245,38.367645263671875,-0.4232569932937622,https://www.tripadvisor.com.br/Restaurant_Review-g1064230-d17594068-Reviews-Ajonegro_Gastrobar_Arroceria-Alicante_Costa_Blanca_Province_of_Alicante_Valenci.html
15648426,"La Terreta Gourmet Castanos","Calle Castanos 29, 03001 Alicante Espanha",Alicante ,4.5,116,$$ - $$$,R$ 161 - R$ 226,38.346153259277344,-0.4856239855289459,https://www.tripadvisor.com.br/Restaurant_Review-g1064230-d15648426-Reviews-La_Terreta_Gourmet_Castanos-Alicante_Costa_Blanca_Province_of_Alicante_Valencia.html
6881723,"Vinos y Risas","Calle San Fernando 42 Estamos junto a la Plaza de Correos y Explanada, 03001 Alicante Espanha",Alicante ,4.0,259,$$ - $$$,R$ 97 - R$ 226,38.34271240234375,-0.48580801486968994,https://www.tripadvisor.com.br/Restaurant_Review-g1064230-d6881723-Reviews-Vinos_y_Risas-Alicante_Costa_Blanca_Province_of_Alicante_Valencian_Country.html
15550540,"Mexican Granny","Calle del Dr. Bergez, 48 Bajo, 03012 Alicante Espanha",Alicante ,4.5,68,$$ - $$$,indef,38.35845947265625,-0.47950100898742676,https://www.tripadvisor.com.br/Restaurant_Review-g1064230-d15550540-Reviews-Mexican_Granny-Alicante_Costa_Blanca_Province_of_Alicante_Valencian_Country.html
1804931,"Casa Domingo","Avenida Niza 38 Playa de San Juan, 03540 Alicante Espanha",Alicante ,4.0,761,$$ - $$$,R$ 129 - R$ 194,38.38166809082031,-0.4094800055027008,https://www.tripadvisor.com.br/Restaurant_Review-g1064230-d1804931-Reviews-Casa_Domingo-Alicante_Costa_Blanca_Province_of_Alicante_Valencian_Country.html
12252381,"Restaurante Arroceria K - la iaia","Calle Fernando Diaz de Mendoza 22, 03008 Alicante Espanha",Alicante ,5.0,63,$$ - $$$,R$ 161 - R$ 387,38.32822036743164,-0.5149400234222412,https://www.tripadvisor.com.br/Restaurant_Review-g1064230-d12252381-Reviews-Restaurante_Arroceria_K_la_iaia-Alicante_Costa_Blanca_Province_of_Alicante_Vale.html
2698256,"Me Apetece","Lg Muelle Levante 4, 03002 Alicante Espanha",Alicante ,4.0,310,$$ - $$$,indef,38.34138870239258,-0.4798470139503479,https://www.tripadvisor.com.br/Restaurant_Review-g1064230-d2698256-Reviews-Me_Apetece-Alicante_Costa_Blanca_Province_of_Alicante_Valencian_Country.html
4758886,"Cerveceria Koki","Calle San Pascual 5, 03002 Alicante Espanha",Alicante ,4.0,225,$$ - $$$,indef,38.34588623046875,-0.48277801275253296,https://www.tripadvisor.com.br/Restaurant_Review-g1064230-d4758886-Reviews-Cerveceria_Koki-Alicante_Costa_Blanca_Province_of_Alicante_Valencian_Country.html
2186453,"Lizarran","Rambla Mendez Nunez 18, 03002 Alicante Espanha",Alicante ,4.0,553,$,R$ 65 - R$ 194,38.34515380859375,-0.48372799158096313,https://www.tripadvisor.com.br/Restaurant_Review-g1064230-d2186453-Reviews-Lizarran-Alicante_Costa_Blanca_Province_of_Alicante_Valencian_Country.html
6599567,"Pinocchio Alicante","Calle de los Castanos 21, 03001 Alicante Espanha",Alicante ,4.5,166,$$ - $$$,indef,38.345584869384766,-0.4855560064315796,https://www.tripadvisor.com.br/Restaurant_Review-g1064230-d6599567-Reviews-Pinocchio_Alicante-Alicante_Costa_Blanca_Province_of_Alicante_Valencian_Country.html
14195887,"Sumisura Pasta Bar","Calle de San Francisco 15, 03001 Alicante Espanha",Alicante ,4.5,84,$$ - $$$,R$ 65 - R$ 116,38.34400177001953,-0.4845240116119385,https://www.tripadvisor.com.br/Restaurant_Review-g1064230-d14195887-Reviews-Sumisura_Pasta_Bar-Alicante_Costa_Blanca_Province_of_Alicante_Valencian_Country.html
15048627,"El Cup","Calle Poeta Campos Vallallo, 03004 Alicante Espanha",Alicante ,4.5,65,$$ - $$$,indef,38.34860610961914,-0.4882879853248596,https://www.tripadvisor.com.br/Restaurant_Review-g1064230-d15048627-Reviews-El_Cup-Alicante_Costa_Blanca_Province_of_Alicante_Valencian_Country.html
987078,"Darsena","Lg Muelle Levante 6 Marina Deportiva, 03002 Alicante Espanha",Alicante ,4.0,1124,$$$$,R$ 161 - R$ 323,38.3405876159668,-0.4795149862766266,https://www.tripadvisor.com.br/Restaurant_Review-g1064230-d987078-Reviews-Darsena-Alicante_Costa_Blanca_Province_of_Alicante_Valencian_Country.html
3500791,"El Bodegon","Calle Tridente n° 35 esquina periodista Asuncion Valdes, 03540 Alicante Espanha",Alicante ,4.5,135,$$ - $$$,indef,38.36555862426758,-0.4255560040473938,https://www.tripadvisor.com.br/Restaurant_Review-g1064230-d3500791-Reviews-El_Bodegon-Alicante_Costa_Blanca_Province_of_Alicante_Valencian_Country.html
12148059,"Boca De Vin Bar Restaurante","Calle de San Nicolas 18 Esquina calle Montengon, 03002 Alicante Espanha",Alicante ,4.5,223,$$ - $$$,R$ 84 - R$ 195,38.346004486083984,-0.48242199420928955,https://www.tripadvisor.com.br/Restaurant_Review-g1064230-d12148059-Reviews-Boca_De_Vin_Bar_Restaurante-Alicante_Costa_Blanca_Province_of_Alicante_Valencia.html
3418309,"Restaurante Baeza & Rufete","Avenida Ansaldo 31 San Juan de Alicante, 03540 Alicante Espanha",Alicante ,4.0,265,$$ - $$$,indef,38.36859130859375,-0.43337899446487427,https://www.tripadvisor.com.br/Restaurant_Review-g1064230-d3418309-Reviews-Restaurante_Baeza_Rufete-Alicante_Costa_Blanca_Province_of_Alicante_Valencian_Co.html
7312564,"El Norte","Avenida de La Condomina 58, 03540 Alicante Espanha",Alicante ,4.5,130,$$ - $$$,indef,38.366146087646484,-0.432794988155365,https://www.tripadvisor.com.br/Restaurant_Review-g1064230-d7312564-Reviews-El_Norte-Alicante_Costa_Blanca_Province_of_Alicante_Valencian_Country.html
4439335,"El Pale","Calle de Tomas Lopez Torregrosa 13, 03002 Alicante Espanha",Alicante ,4.5,142,$$ - $$$,indef,38.34803771972656,-0.48598000407218933,https://www.tripadvisor.com.br/Restaurant_Review-g1064230-d4439335-Reviews-El_Pale-Alicante_Costa_Blanca_Province_of_Alicante_Valencian_Country.html
2323034,"Casa Pepe","Avenida Cataluna 14 b Playa San Juan, Alicante, 03540 Alicante Espanha",Alicante ,4.0,334,$$ - $$$,indef,38.363922119140625,-0.41492998600006104,https://www.tripadvisor.com.br/Restaurant_Review-g1064230-d2323034-Reviews-Casa_Pepe-Alicante_Costa_Blanca_Province_of_Alicante_Valencian_Country.html
7989633,"La Tagliatella C/Castaños | Alicante","Calle Castanos 7 Bajo esquina con C/ Santa Barbara, 03001 Alicante Espanha",Alicante ,4.0,652,$$ - $$$,R$ 89 - R$ 100,38.34501266479492,-0.48533299565315247,https://www.tripadvisor.com.br/Restaurant_Review-g1064230-d7989633-Reviews-La_Tagliatella_C_Castanos_Alicante-Alicante_Costa_Blanca_Province_of_Alicante_Va.html
10199759,"Mio Gastrobar","Calle Pintor Lorenzo Casanova 27 Frente plaza seneca, 03003 Alicante Espanha",Alicante ,4.5,188,$$ - $$$,R$ 39 - R$ 97,38.341217041015625,-0.4913940131664276,https://www.tripadvisor.com.br/Restaurant_Review-g1064230-d10199759-Reviews-Mio_Gastrobar-Alicante_Costa_Blanca_Province_of_Alicante_Valencian_Country.html
1806393,"Santi","Lg Muelle Levante 8, 03001 Alicante Espanha",Alicante ,4.0,201,$$ - $$$,indef,38.340293884277344,-0.47991999983787537,https://www.tripadvisor.com.br/Restaurant_Review-g1064230-d1806393-Reviews-Santi-Alicante_Costa_Blanca_Province_of_Alicante_Valencian_Country.html
8045239,"Restaurante Colombiapan","Calle José Gutiérrez Petén, 21, 03004 Alicante Espanha",Alicante ,4.5,111,$,indef,38.348609924316406,-0.4872939884662628,https://www.tripadvisor.com.br/Restaurant_Review-g1064230-d8045239-Reviews-Restaurante_Colombiapan-Alicante_Costa_Blanca_Province_of_Alicante_Valencian_Cou.html
15078710,"Restaurante Kyoto","Calle de Miguel Soler 3, 03002 Alicante Espanha",Alicante ,5.0,54,$$ - $$$,R$ 77 - R$ 110,38.34508514404297,-0.48339200019836426,https://www.tripadvisor.com.br/Restaurant_Review-g1064230-d15078710-Reviews-Restaurante_Kyoto-Alicante_Costa_Blanca_Province_of_Alicante_Valencian_Country.html
8022284,"Cerveceria La Galeria de David","Calle de Churruca 25 Enfrente de la seguridad social, 03003 Alicante Espanha",Alicante ,4.5,118,$$ - $$$,R$ 77 - R$ 323,38.34110641479492,-0.4926829934120178,https://www.tripadvisor.com.br/Restaurant_Review-g1064230-d8022284-Reviews-Cerveceria_La_Galeria_de_David-Alicante_Costa_Blanca_Province_of_Alicante_Valenc.html
23109408,"PIS PAS Luceros","Plaza De Los Luceros 16, Bajo, 03540 Alicante Espanha",Alicante ,5.0,31,$$ - $$$,R$ 129 - R$ 258,38.36089324951172,-0.48628100752830505,https://www.tripadvisor.com.br/Restaurant_Review-g1064230-d23109408-Reviews-PIS_PAS_Luceros-Alicante_Costa_Blanca_Province_of_Alicante_Valencian_Country.html
10085974,"Monastrell","Paseo Marítimo, Almirante Julio Guillen Tato,, 03001 Alicante Espanha",Alicante ,4.0,493,$$$$,indef,38.33921813964844,-0.48737800121307373,https://www.tripadvisor.com.br/Restaurant_Review-g1064230-d10085974-Reviews-Monastrell-Alicante_Costa_Blanca_Province_of_Alicante_Valencian_Country.html
3326690,"El Caldero","Calle Virgen del Socorro 68, 03002 Alicante Espanha",Alicante ,4.5,158,$$ - $$$,R$ 116 - R$ 194,38.35145950317383,-0.473690003156662,https://www.tripadvisor.com.br/Restaurant_Review-g1064230-d3326690-Reviews-El_Caldero-Alicante_Costa_Blanca_Province_of_Alicante_Valencian_Country.html
7997842,"Miss Sushi Alicante","Calle Castanos 3, 03001 Alicante Espanha",Alicante ,4.0,520,$$ - $$$,R$ 77 - R$ 161,38.343990325927734,-0.48485898971557617,https://www.tripadvisor.com.br/Restaurant_Review-g1064230-d7997842-Reviews-Miss_Sushi_Alicante-Alicante_Costa_Blanca_Province_of_Alicante_Valencian_Country.html
14032169,"Vecchio Forno Italiano","Calle del Doctor Sapena 47, 03013 Alicante Espanha",Alicante ,5.0,41,$,R$ 13 - R$ 65,38.354679107666016,-0.4760650098323822,https://www.tripadvisor.com.br/Restaurant_Review-g1064230-d14032169-Reviews-Vecchio_Forno_Italiano-Alicante_Costa_Blanca_Province_of_Alicante_Valencian_Cou.html
9739443,"Pizzeria Da Nonna Nina","Calle Alemania 12, 03003 Alicante Espanha",Alicante ,4.5,102,$,R$ 32 - R$ 77,38.341304779052734,-0.48856401443481445,https://www.tripadvisor.com.br/Restaurant_Review-g1064230-d9739443-Reviews-Pizzeria_Da_Nonna_Nina-Alicante_Costa_Blanca_Province_of_Alicante_Valencian_Coun.html
6635054,"La Mary Restaurant","Calle Castanos 5, 03001 Alicante Espanha",Alicante ,4.0,1253,$$ - $$$,R$ 71 - R$ 194,38.344390869140625,-0.4850189983844757,https://www.tripadvisor.com.br/Restaurant_Review-g1064230-d6635054-Reviews-La_Mary_Restaurant-Alicante_Costa_Blanca_Province_of_Alicante_Valencian_Country.html
2348604,"Tribeca Music Bar","Calle San Fernando 18, 03002 Alicante Espanha",Alicante ,4.0,921,$$ - $$$,R$ 39 - R$ 156,38.34413528442383,-0.482479989528656,https://www.tripadvisor.com.br/Restaurant_Review-g1064230-d2348604-Reviews-Tribeca_Music_Bar-Alicante_Costa_Blanca_Province_of_Alicante_Valencian_Country.html
7216221,"Taberna San Pascual","Calle San Pascual 3, 03002 Alicante Espanha",Alicante ,4.5,184,$$ - $$$,indef,38.34587478637695,-0.48285800218582153,https://www.tripadvisor.com.br/Restaurant_Review-g1064230-d7216221-Reviews-Taberna_San_Pascual-Alicante_Costa_Blanca_Province_of_Alicante_Valencian_Country.html
953308,"La Sastreria","Plaza Gabriel Miro 20, 03001 Alicante Espanha",Alicante ,4.5,196,$$ - $$$,R$ 142 - R$ 323,38.34374237060547,-0.48502400517463684,https://www.tripadvisor.com.br/Restaurant_Review-g1064230-d953308-Reviews-La_Sastreria-Alicante_Costa_Blanca_Province_of_Alicante_Valencian_Country.html
12339908,"Restaurante Lluvia","Calle Poeta Quintana 20, 03004 Alicante Espanha",Alicante ,4.0,189,$$ - $$$,indef,38.34823989868164,-0.4878219962120056,https://www.tripadvisor.com.br/Restaurant_Review-g1064230-d12339908-Reviews-Restaurante_Lluvia-Alicante_Costa_Blanca_Province_of_Alicante_Valencian_Country.html
818193,"El Buen Comer","Calle Mayor n 8, 03002 Alicante Espanha",Alicante ,4.0,837,$$ - $$$,R$ 73 - R$ 296,38.34486770629883,-0.4824979901313782,https://www.tripadvisor.com.br/Restaurant_Review-g1064230-d818193-Reviews-El_Buen_Comer-Alicante_Costa_Blanca_Province_of_Alicante_Valencian_Country.html
994582,"Restaurante Indio Taj-Mahal","Avenida Benito Perez Galdos, 41 Bajo, 03005 Alicante Espanha",Alicante ,4.5,113,$$ - $$$,indef,38.347412109375,-0.49279001355171204,https://www.tripadvisor.com.br/Restaurant_Review-g1064230-d994582-Reviews-Restaurante_Indio_Taj_Mahal-Alicante_Costa_Blanca_Province_of_Alicante_Valencian_.html
7039165,"Chico Calla Alicante","Calle San Francisco 20, 03001 Alicante Espanha",Alicante ,4.0,406,$$ - $$$,R$ 52 - R$ 161,38.34394073486328,-0.48509401082992554,https://www.tripadvisor.com.br/Restaurant_Review-g1064230-d7039165-Reviews-Chico_Calla_Alicante-Alicante_Costa_Blanca_Province_of_Alicante_Valencian_Countr.html
21002206,"Dalí Gourmand & Bar","Muelle 14 | Recinto Marmarela Puerto De Alicante, 03001 Alicante Espanha",Alicante ,5.0,41,$$$$,R$ 258 - R$ 581,38.33676528930664,-0.4786269962787628,https://www.tripadvisor.com.br/Restaurant_Review-g1064230-d21002206-Reviews-Dali_Gourmand_Bar-Alicante_Costa_Blanca_Province_of_Alicante_Valencian_Country.html
994742,"Restaurante Maestral","Calle Andalucia 18 Esquina Duque de Rivas, 03016 Alicante Espanha",Alicante ,4.0,209,$$$$,indef,38.36669158935547,-0.4565199911594391,https://www.tripadvisor.com.br/Restaurant_Review-g1064230-d994742-Reviews-Restaurante_Maestral-Alicante_Costa_Blanca_Province_of_Alicante_Valencian_Country.html
12864838,"Bocca Loca","Calle La Era s/n Local 10, 03008 Alicante Espanha",Alicante ,5.0,61,$$ - $$$,R$ 97 - R$ 194,38.330352783203125,-0.5148400068283081,https://www.tripadvisor.com.br/Restaurant_Review-g1064230-d12864838-Reviews-Bocca_Loca-Alicante_Costa_Blanca_Province_of_Alicante_Valencian_Country.html
6507523,"Plaza Canalla","Plaza Gabriel Miro 10, 03001 Alicante Espanha",Alicante ,4.0,477,$$ - $$$,R$ 97 - R$ 258,38.343223571777344,-0.48534300923347473,https://www.tripadvisor.com.br/Restaurant_Review-g1064230-d6507523-Reviews-Plaza_Canalla-Alicante_Costa_Blanca_Province_of_Alicante_Valencian_Country.html
8128368,"Dehesa Del Mazo","Calle Del Notario Salvador Montesinos Bonet 21 San juan de Alicante, 03550 Alicante Espanha",Alicante ,4.5,126,$$ - $$$,R$ 32 - R$ 129,38.396690368652344,-0.4317759871482849,https://www.tripadvisor.com.br/Restaurant_Review-g1064230-d8128368-Reviews-Dehesa_Del_Mazo-Alicante_Costa_Blanca_Province_of_Alicante_Valencian_Country.html
16845859,"Tortillas Alicante","Avenida Coloma 1 Centro Comercial Plaza del Sol, 03530 Alicante Espanha",Alicante ,5.0,39,$,R$ 13 - R$ 97,38.34580612182617,-0.4861510097980499,https://www.tripadvisor.com.br/Restaurant_Review-g1064230-d16845859-Reviews-Tortillas_Alicante-Alicante_Costa_Blanca_Province_of_Alicante_Valencian_Country.html
3537079,"Bistro Le Kanotier","Calle de San Francisco 13, 03001 Alicante Espanha",Alicante ,4.5,207,$$ - $$$,R$ 97 - R$ 323,38.34404754638672,-0.48443400859832764,https://www.tripadvisor.com.br/Restaurant_Review-g1064230-d3537079-Reviews-Bistro_Le_Kanotier-Alicante_Costa_Blanca_Province_of_Alicante_Valencian_Country.html
14056514,"La Casa de Leo","Calle de San Ildefonso 12, 03001 Alicante Espanha",Alicante ,4.0,249,$$ - $$$,R$ 19 - R$ 323,38.345428466796875,-0.4861209988594055,https://www.tripadvisor.com.br/Restaurant_Review-g1064230-d14056514-Reviews-La_Casa_de_Leo-Alicante_Costa_Blanca_Province_of_Alicante_Valencian_Country.html
3929980,"La Taverna dell'Artista","Plaza San Cristobal 11 Casco antiguo, 03002 Alicante Espanha",Alicante ,4.5,303,$$ - $$$,indef,38.34678268432617,-0.4835759997367859,https://www.tripadvisor.com.br/Restaurant_Review-g1064230-d3929980-Reviews-La_Taverna_dell_Artista-Alicante_Costa_Blanca_Province_of_Alicante_Valencian_Cou.html
13410397,"Pizzeria Ginevra","Calle del Doctor Nieto 45, 03012 Alicante Espanha",Alicante ,5.0,44,$,indef,38.35731506347656,-0.4781149923801422,https://www.tripadvisor.com.br/Restaurant_Review-g1064230-d13410397-Reviews-Pizzeria_Ginevra-Alicante_Costa_Blanca_Province_of_Alicante_Valencian_Country.html
21090299,"SOI 38 Street food","Av. General Marva, 28, 03004 Alicante Espanha",Alicante ,5.0,34,$$ - $$$,R$ 97 - R$ 161,38.34815216064453,-0.4921469986438751,https://www.tripadvisor.com.br/Restaurant_Review-g1064230-d21090299-Reviews-SOI_38_Street_food-Alicante_Costa_Blanca_Province_of_Alicante_Valencian_Country.html
4357776,"Restaurante Azul Playa","Avenida Niza 9, 03540 Alicante Espanha",Alicante ,4.0,474,$$ - $$$,indef,38.36879348754883,-0.41042399406433105,https://www.tripadvisor.com.br/Restaurant_Review-g1064230-d4357776-Reviews-Restaurante_Azul_Playa-Alicante_Costa_Blanca_Province_of_Alicante_Valencian_Coun.html
2328767,"L'arruzz Alicante","Calle Portugal 35, 03003 Alicante Espanha",Alicante ,4.0,475,$$ - $$$,indef,38.34318923950195,-0.49114900827407837,https://www.tripadvisor.com.br/Restaurant_Review-g1064230-d2328767-Reviews-L_arruzz_Alicante-Alicante_Costa_Blanca_Province_of_Alicante_Valencian_Country.html
994645,"One-One","Calle Valdes 9, 03001 Alicante Espanha",Alicante ,4.5,123,$$ - $$$,indef,38.343162536621094,-0.4860979914665222,https://www.tripadvisor.com.br/Restaurant_Review-g1064230-d994645-Reviews-One_One-Alicante_Costa_Blanca_Province_of_Alicante_Valencian_Country.html
4817686,"La Gambita Alicantina","c/ Felipe Herrero Arias, 030013 Alicante Espanha",Alicante ,4.5,91,$$ - $$$,indef,38.36091613769531,-0.47576698660850525,https://www.tripadvisor.com.br/Restaurant_Review-g1064230-d4817686-Reviews-La_Gambita_Alicantina-Alicante_Costa_Blanca_Province_of_Alicante_Valencian_Count.html
7342963,"El Colmado","Avenida Alfonso El Sabio 18, 03004 Alicante Espanha",Alicante ,4.0,357,$$ - $$$,R$ 65 - R$ 226,38.34720993041992,-0.48744699358940125,https://www.tripadvisor.com.br/Restaurant_Review-g1064230-d7342963-Reviews-El_Colmado-Alicante_Costa_Blanca_Province_of_Alicante_Valencian_Country.html
7994680,"El Mos Taberna Mediterranea","Paseo Explanada de Espana 16 Esquina Calle Coloma, 03001 Alicante Espanha",Alicante ,4.5,101,$$ - $$$,R$ 32 - R$ 97,38.342926025390625,-0.48438599705696106,https://www.tripadvisor.com.br/Restaurant_Review-g1064230-d7994680-Reviews-El_Mos_Taberna_Mediterranea-Alicante_Costa_Blanca_Province_of_Alicante_Valencian.html
994747,"Restaurante astorga","Calle del Cardenal Belluga 5, 03005 Alicante Espanha",Alicante ,4.5,97,$,indef,38.34699630737305,-0.4944329857826233,https://www.tripadvisor.com.br/Restaurant_Review-g1064230-d994747-Reviews-Restaurante_astorga-Alicante_Costa_Blanca_Province_of_Alicante_Valencian_Country.html
16797428,"Oporto Taberna","Calle Castanos 37, 03001 Alicante Espanha",Alicante ,4.5,71,$$ - $$$,R$ 0 - R$ 2,38.34674072265625,-0.48608800768852234,https://www.tripadvisor.com.br/Restaurant_Review-g1064230-d16797428-Reviews-Oporto_Taberna-Alicante_Costa_Blanca_Province_of_Alicante_Valencian_Country.html
4497660,"Restaurante Casa Riquelme","Calle Vazquez de Mella 17, 03013 Alicante Espanha",Alicante ,4.0,284,$$ - $$$,R$ 129 - R$ 290,38.352455139160156,-0.4783650040626526,https://www.tripadvisor.com.br/Restaurant_Review-g1064230-d4497660-Reviews-Restaurante_Casa_Riquelme-Alicante_Costa_Blanca_Province_of_Alicante_Valencian_C.html
4177445,"Noray Café Bar","Avenida Conde de Vallellano S/N Alicante, 03001 Alicante Espanha",Alicante ,4.0,169,$$ - $$$,R$ 52 - R$ 129,38.34175109863281,-0.48516398668289185,https://www.tripadvisor.com.br/Restaurant_Review-g1064230-d4177445-Reviews-Noray_Cafe_Bar-Alicante_Costa_Blanca_Province_of_Alicante_Valencian_Country.html
10214504,"Gastro Bar 30 y Tantos Teatro","Avenida Constitucion 4, 03002 Alicante Espanha",Alicante ,4.0,438,$$ - $$$,R$ 65 - R$ 97,38.34640121459961,-0.4852280020713806,https://www.tripadvisor.com.br/Restaurant_Review-g1064230-d10214504-Reviews-Gastro_Bar_30_y_Tantos_Teatro-Alicante_Costa_Blanca_Province_of_Alicante_Valenc.html
14190396,"Urban Wine Shop & Bar","Calle de San Vicente 44, 03004 Alicante Espanha",Alicante ,5.0,38,$$ - $$$,R$ 26 - R$ 103,38.350303649902344,-0.4848810136318207,https://www.tripadvisor.com.br/Restaurant_Review-g1064230-d14190396-Reviews-Urban_Wine_Shop_Bar-Alicante_Costa_Blanca_Province_of_Alicante_Valencian_Countr.html
13344381,"Eat & Speak","Calle de Gerona 9, 03001 Alicante Espanha",Alicante ,4.0,172,$$ - $$$,R$ 97 - R$ 258,38.344512939453125,-0.4851610064506531,https://www.tripadvisor.com.br/Restaurant_Review-g1064230-d13344381-Reviews-Eat_Speak-Alicante_Costa_Blanca_Province_of_Alicante_Valencian_Country.html
7133757,"La Cocina","Calle Garcia Morato 10 Cerca mercado central, 03004 Alicante Espanha",Alicante ,4.5,165,$,R$ 39 - R$ 129,38.348243713378906,-0.48710599541664124,https://www.tripadvisor.com.br/Restaurant_Review-g1064230-d7133757-Reviews-La_Cocina-Alicante_Costa_Blanca_Province_of_Alicante_Valencian_Country.html
13349950,"Lemongrass Explanada","Passeig Esplanada d'Espanya, 14, 03001 Alicante Espanha",Alicante ,4.5,136,$$ - $$$,R$ 65 - R$ 129,38.343299865722656,-0.4839079976081848,https://www.tripadvisor.com.br/Restaurant_Review-g1064230-d13349950-Reviews-Lemongrass_Explanada-Alicante_Costa_Blanca_Province_of_Alicante_Valencian_Count.html
1866250,"Restaurante Valencia Once","Calle de Valencia 11, 03012 Alicante Espanha",Alicante ,4.0,206,$$$$,indef,38.35245895385742,-0.4837380051612854,https://www.tripadvisor.com.br/Restaurant_Review-g1064230-d1866250-Reviews-Restaurante_Valencia_Once-Alicante_Costa_Blanca_Province_of_Alicante_Valencian_C.html
10467883,"Restaurante Fondillon","Calle de Rafael Altamira 7 Hotel Hospes Amérigo, 03002 Alicante Espanha",Alicante ,4.0,227,$$$$,R$ 258 - R$ 645,38.34468460083008,-0.48271799087524414,https://www.tripadvisor.com.br/Restaurant_Review-g1064230-d10467883-Reviews-Restaurante_Fondillon-Alicante_Costa_Blanca_Province_of_Alicante_Valencian_Coun.html
3640578,"El  Llagosti","Calle San Francisco 15, 03001 Alicante Espanha",Alicante ,4.0,146,$$ - $$$,indef,38.344024658203125,-0.484607994556427,https://www.tripadvisor.com.br/Restaurant_Review-g1064230-d3640578-Reviews-El_Llagosti-Alicante_Costa_Blanca_Province_of_Alicante_Valencian_Country.html
2717058,"Toch Restaurante","Calle Enric Valor Nº 2, 03540 Alicante Espanha",Alicante ,4.0,248,$$$$,indef,38.36652755737305,-0.42941001057624817,https://www.tripadvisor.com.br/Restaurant_Review-g1064230-d2717058-Reviews-Toch_Restaurante-Alicante_Costa_Blanca_Province_of_Alicante_Valencian_Country.html
3162584,"Restaurante Los Porrones","Calle Mayor 12, 03002 Alicante Espanha",Alicante ,4.0,170,$$ - $$$,indef,38.344993591308594,-0.48238199949264526,https://www.tripadvisor.com.br/Restaurant_Review-g1064230-d3162584-Reviews-Restaurante_Los_Porrones-Alicante_Costa_Blanca_Province_of_Alicante_Valencian_Co.html
7691148,"Parrilla Lanus","Avenida Paises Escandinavos 8, 03540 Alicante Espanha",Alicante ,4.0,111,$$ - $$$,indef,38.373130798339844,-0.41319701075553894,https://www.tripadvisor.com.br/Restaurant_Review-g1064230-d7691148-Reviews-Parrilla_Lanus-Alicante_Costa_Blanca_Province_of_Alicante_Valencian_Country.html
14152667,"Altabirra","Calle d'Antonio Galdo Chapuli 13, 03001 Alicante Espanha",Alicante ,4.5,66,$,R$ 26 - R$ 71,38.3433723449707,-0.48690399527549744,https://www.tripadvisor.com.br/Restaurant_Review-g1064230-d14152667-Reviews-Altabirra-Alicante_Costa_Blanca_Province_of_Alicante_Valencian_Country.html
3436646,"Pesca Al Peso","Calle Mayor 22, 03002 Alicante Espanha",Alicante ,4.0,804,$$ - $$$,indef,38.345054626464844,-0.48207101225852966,https://www.tripadvisor.com.br/Restaurant_Review-g1064230-d3436646-Reviews-Pesca_Al_Peso-Alicante_Costa_Blanca_Province_of_Alicante_Valencian_Country.html
19622652,"Mayela restaurant","Avenida Locutor Vicente Hipolito 39 Local 10, 03540 Alicante Espanha",Alicante ,5.0,49,$$ - $$$,R$ 65 - R$ 323,38.376712799072266,-0.42215800285339355,https://www.tripadvisor.com.br/Restaurant_Review-g1064230-d19622652-Reviews-Mayela_restaurant-Alicante_Costa_Blanca_Province_of_Alicante_Valencian_Country.html
3484947,"Cantina Villahelmy","Calle Mayor 37, 03002 Alicante Espanha",Alicante ,4.5,118,$$ - $$$,indef,38.34551239013672,-0.4812139868736267,https://www.tripadvisor.com.br/Restaurant_Review-g1064230-d3484947-Reviews-Cantina_Villahelmy-Alicante_Costa_Blanca_Province_of_Alicante_Valencian_Country.html
5823197,"Platea","Calle Medico Pascual Perez 3, 03001 Alicante Espanha",Alicante ,4.0,244,$$ - $$$,R$ 65 - R$ 194,38.34645462036133,-0.4860149919986725,https://www.tripadvisor.com.br/Restaurant_Review-g1064230-d5823197-Reviews-Platea-Alicante_Costa_Blanca_Province_of_Alicante_Valencian_Country.html
3194217,"Rincon del Varadero","Nueva Darsena Pesquera Local 16/17. Puerto Poniente, 03008 Alicante Espanha",Alicante ,4.0,293,$$ - $$$,indef,38.33027648925781,-0.5057960152626038,https://www.tripadvisor.com.br/Restaurant_Review-g1064230-d3194217-Reviews-Rincon_del_Varadero-Alicante_Costa_Blanca_Province_of_Alicante_Valencian_Country.html
15700296,"Cibum","Calle Susana Llaneras 54, 03001 Alicante Espanha",Alicante ,5.0,31,$$ - $$$,indef,38.34663391113281,-0.4870170056819916,https://www.tripadvisor.com.br/Restaurant_Review-g1064230-d15700296-Reviews-Cibum-Alicante_Costa_Blanca_Province_of_Alicante_Valencian_Country.html
8481576,"Costa Blanca","Calle de San Bartolome de Tirajana 67 Los Arenales Del Sol, 03195 Alicante Espanha",Alicante ,4.5,98,$$ - $$$,R$ 65 - R$ 181,38.2486686706543,-0.5163050293922424,https://www.tripadvisor.com.br/Restaurant_Review-g1064230-d8481576-Reviews-Costa_Blanca-Alicante_Costa_Blanca_Province_of_Alicante_Valencian_Country.html
15557626,"Monumental Restaurant Alicante","Calle Reyes Catolicos 26, 03003 Alicante Espanha",Alicante ,4.0,222,$$ - $$$,R$ 65 - R$ 194,38.34211730957031,-0.4911139905452728,https://www.tripadvisor.com.br/Restaurant_Review-g1064230-d15557626-Reviews-Monumental_Restaurant_Alicante-Alicante_Costa_Blanca_Province_of_Alicante_Valen.html
3140820,"Cerveceria Restaurante Victor","Calle San Agatangelo 37, 03007 Alicante Espanha",Alicante ,4.0,151,$$ - $$$,R$ 97 - R$ 258,38.340824127197266,-0.49977898597717285,https://www.tripadvisor.com.br/Restaurant_Review-g1064230-d3140820-Reviews-Cerveceria_Restaurante_Victor-Alicante_Costa_Blanca_Province_of_Alicante_Valenci.html
13768350,"La Voladora Restaurante","Calle Bazan 55 Bajo, 03001 Alicante Espanha",Alicante ,4.5,77,$,R$ 13 - R$ 65,38.346858978271484,-0.4866800010204315,https://www.tripadvisor.com.br/Restaurant_Review-g1064230-d13768350-Reviews-La_Voladora_Restaurante-Alicante_Costa_Blanca_Province_of_Alicante_Valencian_Co.html
5985981,"Beers Friends Benidorm","Calle Severo Ochoa 4 Local 8 Benidorm, 03015 Alicante Espanha",Alicante ,4.5,110,$,indef,38.36640167236328,-0.4640200138092041,https://www.tripadvisor.com.br/Restaurant_Review-g1064230-d5985981-Reviews-Beers_Friends_Benidorm-Alicante_Costa_Blanca_Province_of_Alicante_Valencian_Coun.html
4086040,"Soho Alicante","The Marina Plaza del Puerto, 03001 Alicante Espanha",Alicante ,4.0,464,$$ - $$$,indef,38.343570709228516,-0.4801670014858246,https://www.tripadvisor.com.br/Restaurant_Review-g1064230-d4086040-Reviews-Soho_Alicante-Alicante_Costa_Blanca_Province_of_Alicante_Valencian_Country.html
15574897,"Pro Bar El Buen Bar","Calle de Bazan 34, 03001 Alicante Espanha",Alicante ,4.5,83,$$ - $$$,R$ 39 - R$ 194,38.34615707397461,-0.48627200722694397,https://www.tripadvisor.com.br/Restaurant_Review-g1064230-d15574897-Reviews-Pro_Bar_El_Buen_Bar-Alicante_Costa_Blanca_Province_of_Alicante_Valencian_Countr.html
3253582,"Restaurante El Mosquito","Calle Olof Palme nº 7, 03010 Alicante Espanha",Alicante ,4.5,83,$$ - $$$,indef,38.361854553222656,-0.488413006067276,https://www.tripadvisor.com.br/Restaurant_Review-g1064230-d3253582-Reviews-Restaurante_El_Mosquito-Alicante_Costa_Blanca_Province_of_Alicante_Valencian_Cou.html
6615869,"Las Brasas Alicante","Calle Pedro Ferrandiz No 1 Local 9 ex calle deportista Kiko Sánchez, 03540 Alicante Espanha",Alicante ,4.0,152,$$ - $$$,indef,38.36265563964844,-0.431192010641098,https://www.tripadvisor.com.br/Restaurant_Review-g1064230-d6615869-Reviews-Las_Brasas_Alicante-Alicante_Costa_Blanca_Province_of_Alicante_Valencian_Country.html
8610943,"La Ceiba","Calle Berenguer de Marquina 10, 03004 Alicante Espanha",Alicante ,4.5,65,$$ - $$$,R$ 56 - R$ 139,38.34734344482422,-0.4889580011367798,https://www.tripadvisor.com.br/Restaurant_Review-g1064230-d8610943-Reviews-La_Ceiba-Alicante_Costa_Blanca_Province_of_Alicante_Valencian_Country.html
17593844,"Bailén 17","Calle Bailen 17, 03001 Alicante Espanha",Alicante ,4.5,74,$$ - $$$,R$ 97 - R$ 129,38.34507369995117,-0.48456400632858276,https://www.tripadvisor.com.br/Restaurant_Review-g1064230-d17593844-Reviews-Bailen_17-Alicante_Costa_Blanca_Province_of_Alicante_Valencian_Country.html
2719509,"Aladdin 2","Calle Badajoz 5, 03015 Alicante Espanha",Alicante ,4.0,183,$$ - $$$,indef,38.36505889892578,-0.4609310030937195,https://www.tripadvisor.com.br/Restaurant_Review-g1064230-d2719509-Reviews-Aladdin_2-Alicante_Costa_Blanca_Province_of_Alicante_Valencian_Country.html
17848957,"Ramen Shinryu","Calle de San Fernando 12, 03002 Alicante Espanha",Alicante ,4.5,39,$$ - $$$,R$ 77 - R$ 129,38.344268798828125,-0.4818210005760193,https://www.tripadvisor.com.br/Restaurant_Review-g1064230-d17848957-Reviews-Ramen_Shinryu-Alicante_Costa_Blanca_Province_of_Alicante_Valencian_Country.html
4002190,"Fuego Campoamor","CC La Fuente Avenida del Tiro de Pichon Villacosta1, 03189 Alicante Espanha",Alicante ,4.5,114,$$ - $$$,indef,37.930076599121094,-0.7663159966468811,https://www.tripadvisor.com.br/Restaurant_Review-g1064230-d4002190-Reviews-Fuego_Campoamor-Alicante_Costa_Blanca_Province_of_Alicante_Valencian_Country.html
9873166,"To-Bar Casa De Comida","Calle Poeta Campos Vasallos 31, 03004 Alicante Espanha",Alicante ,4.0,153,$$ - $$$,indef,38.34855651855469,-0.4880560040473938,https://www.tripadvisor.com.br/Restaurant_Review-g1064230-d9873166-Reviews-To_Bar_Casa_De_Comida-Alicante_Costa_Blanca_Province_of_Alicante_Valencian_Count.html
12132221,"Bar#Rio","Calle de La Virgen de Belen 6, 03002 Alicante Espanha",Alicante ,5.0,38,$,R$ 26 - R$ 65,38.346282958984375,-0.48301398754119873,https://www.tripadvisor.com.br/Restaurant_Review-g1064230-d12132221-Reviews-Bar_Rio-Alicante_Costa_Blanca_Province_of_Alicante_Valencian_Country.html
8005493,"CUN","Avenida Locutor Vicente Hipolito 39 Local 6, 03540 Alicante Espanha",Alicante ,4.5,95,$$ - $$$,R$ 97 - R$ 161,38.37675476074219,-0.4222779870033264,https://www.tripadvisor.com.br/Restaurant_Review-g1064230-d8005493-Reviews-CUN-Alicante_Costa_Blanca_Province_of_Alicante_Valencian_Country.html
6001125,"Egun Gastronómica","Calle del Jazmin No 38, 03012 Alicante Espanha",Alicante ,4.5,82,$$ - $$$,indef,38.35610580444336,-0.4825100004673004,https://www.tripadvisor.com.br/Restaurant_Review-g1064230-d6001125-Reviews-Egun_Gastronomica-Alicante_Costa_Blanca_Province_of_Alicante_Valencian_Country.html
19101415,"Alma "Cocina Viajera"","Calle de Churruca 32 Local 15 Galerías Comerciales, 03003 Alicante Espanha",Alicante ,5.0,26,$$ - $$$,indef,38.34210205078125,-0.49327999353408813,https://www.tripadvisor.com.br/Restaurant_Review-g1064230-d19101415-Reviews-Alma_Cocina_Viajera-Alicante_Costa_Blanca_Province_of_Alicante_Valencian_Countr.html
13007620,"Café Restaurant Anis Halal","Calle de Rafael Terol 23, 03001 Alicante Espanha",Alicante ,4.5,56,$,R$ 19 - R$ 77,38.34288024902344,-0.4866679906845093,https://www.tripadvisor.com.br/Restaurant_Review-g1064230-d13007620-Reviews-Cafe_Restaurant_Anis_Halal-Alicante_Costa_Blanca_Province_of_Alicante_Valencian.html
2059614,"Restaurante Capri","Calle San Ildefonso 6, 03001 Alicante Espanha",Alicante ,4.0,238,$$ - $$$,R$ 65 - R$ 129,38.34552001953125,-0.4856779873371124,https://www.tripadvisor.com.br/Restaurant_Review-g1064230-d2059614-Reviews-Restaurante_Capri-Alicante_Costa_Blanca_Province_of_Alicante_Valencian_Country.html
8101189,"Restaurante Garvm","Calle Mayor 20, 03001 Alicante Espanha",Alicante ,4.5,124,$$ - $$$,R$ 97 - R$ 387,38.34503173828125,-0.48200100660324097,https://www.tripadvisor.com.br/Restaurant_Review-g1064230-d8101189-Reviews-Restaurante_Garvm-Alicante_Costa_Blanca_Province_of_Alicante_Valencian_Country.html
7264900,"Taberna Triana","Avenida Pintor Xavier Soler 4 Local 6, 03015 Alicante Espanha",Alicante ,4.5,133,$$ - $$$,R$ 32 - R$ 97,38.36487579345703,-0.46970799565315247,https://www.tripadvisor.com.br/Restaurant_Review-g1064230-d7264900-Reviews-Taberna_Triana-Alicante_Costa_Blanca_Province_of_Alicante_Valencian_Country.html
3396341,"Casa Dimas","Portico de Ansaldo 1, 03002 Alicante Espanha",Alicante ,4.0,127,$$ - $$$,indef,38.345027923583984,-0.48176300525665283,https://www.tripadvisor.com.br/Restaurant_Review-g1064230-d3396341-Reviews-Casa_Dimas-Alicante_Costa_Blanca_Province_of_Alicante_Valencian_Country.html
17725520,"Goleta Beach","Avenida de Niza, 9, 03540 Alicante Espanha",Alicante ,4.5,49,$$ - $$$,R$ 32 - R$ 161,38.36270523071289,-0.4297789931297302,https://www.tripadvisor.com.br/Restaurant_Review-g1064230-d17725520-Reviews-Goleta_Beach-Alicante_Costa_Blanca_Province_of_Alicante_Valencian_Country.html
17431973,"Restaurante Zhu","Alfonso X Sabio N6, 03004 Alicante Espanha",Alicante ,4.5,81,$$ - $$$,indef,38.34800720214844,-0.4851970076560974,https://www.tripadvisor.com.br/Restaurant_Review-g1064230-d17431973-Reviews-Restaurante_Zhu-Alicante_Costa_Blanca_Province_of_Alicante_Valencian_Country.html
3873696,"El Capricho de Raquel","Paseo Tomas Dura 2nd line of Urbanova Beach, 03008 Alicante Espanha",Alicante ,4.0,280,$$ - $$$,indef,38.28278732299805,-0.5209779739379883,https://www.tripadvisor.com.br/Restaurant_Review-g1064230-d3873696-Reviews-El_Capricho_de_Raquel-Alicante_Costa_Blanca_Province_of_Alicante_Valencian_Count.html
15039455,"Ozú","Calle del Pintor Velazquez 48, 03004 Alicante Espanha",Alicante ,5.0,29,$$ - $$$,R$ 51 - R$ 129,38.3514289855957,-0.4863300025463104,https://www.tripadvisor.com.br/Restaurant_Review-g1064230-d15039455-Reviews-Ozu-Alicante_Costa_Blanca_Province_of_Alicante_Valencian_Country.html
6868922,"El Coscorron","Calle Tarifa 3, 03002 Alicante Espanha",Alicante ,4.5,49,$,indef,38.34597396850586,-0.4828290045261383,https://www.tripadvisor.com.br/Restaurant_Review-g1064230-d6868922-Reviews-El_Coscorron-Alicante_Costa_Blanca_Province_of_Alicante_Valencian_Country.html
10209509,"O De Oliver Restaurante","Calle del Pintor Sorolla 3 a escasos metros del Mercado Central y La Rambla Méndez Núñez, 03002 Alicante Espanha",Alicante ,4.5,80,$$ - $$$,indef,38.34770965576172,-0.4849889874458313,https://www.tripadvisor.com.br/Restaurant_Review-g1064230-d10209509-Reviews-O_De_Oliver_Restaurante-Alicante_Costa_Blanca_Province_of_Alicante_Valencian_Co.html
7035197,"Restaurante Aizkolari","Avenida Locutor Vicente Hipolito 39, 03540 Alicante Espanha",Alicante ,4.0,214,$$ - $$$,indef,38.376834869384766,-0.4220280051231384,https://www.tripadvisor.com.br/Restaurant_Review-g1064230-d7035197-Reviews-Restaurante_Aizkolari-Alicante_Costa_Blanca_Province_of_Alicante_Valencian_Count.html
7045265,"Flamingo English Bar","Avenida Benidorm, 03540 Alicante Espanha",Alicante ,4.0,136,$,indef,38.3664665222168,-0.41306400299072266,https://www.tripadvisor.com.br/Restaurant_Review-g1064230-d7045265-Reviews-Flamingo_English_Bar-Alicante_Costa_Blanca_Province_of_Alicante_Valencian_Countr.html
10834491,"Murri Restaurante","Calle de Bilbao 10, 03001 Alicante Espanha",Alicante ,4.5,99,$$$$,indef,38.343719482421875,-0.4834339916706085,https://www.tripadvisor.com.br/Restaurant_Review-g1064230-d10834491-Reviews-Murri_Restaurante-Alicante_Costa_Blanca_Province_of_Alicante_Valencian_Country.html
5010968,"Enredo Bar","Calle Castanos No 4, 03001 Alicante Espanha",Alicante ,4.0,364,$$ - $$$,R$ 32 - R$ 97,38.3440055847168,-0.4847089946269989,https://www.tripadvisor.com.br/Restaurant_Review-g1064230-d5010968-Reviews-Enredo_Bar-Alicante_Costa_Blanca_Province_of_Alicante_Valencian_Country.html
3958106,"Alioli","Calle Miguel Soler 12, 03002 Alicante Espanha",Alicante ,4.0,208,$$ - $$$,indef,38.345298767089844,-0.48263099789619446,https://www.tripadvisor.com.br/Restaurant_Review-g1064230-d3958106-Reviews-Alioli-Alicante_Costa_Blanca_Province_of_Alicante_Valencian_Country.html
17409360,"It’s a Piece of Cake","Avenida Marina Baixa 3 local 2 La Cala Finestrat, 03509 Alicante Espanha",Alicante ,4.5,35,$,R$ 13 - R$ 32,38.52718734741211,-0.16571199893951416,https://www.tripadvisor.com.br/Restaurant_Review-g1064230-d17409360-Reviews-It_s_a_Piece_of_Cake-Alicante_Costa_Blanca_Province_of_Alicante_Valencian_Count.html
13838522,"Take a Tako","Calle Cesar Elguezabal 23, 03001 Alicante Espanha",Alicante ,5.0,34,$$ - $$$,R$ 19 - R$ 193,38.345577239990234,-0.4866200089454651,https://www.tripadvisor.com.br/Restaurant_Review-g1064230-d13838522-Reviews-Take_a_Tako-Alicante_Costa_Blanca_Province_of_Alicante_Valencian_Country.html
19945160,"Empanadas Malvón","Plaza de Ruperto Chapí 6, 03001 Alicante Espanha",Alicante ,4.5,51,$$ - $$$,R$ 19 - R$ 193,38.34606170654297,-0.4857800006866455,https://www.tripadvisor.com.br/Restaurant_Review-g1064230-d19945160-Reviews-Empanadas_Malvon-Alicante_Costa_Blanca_Province_of_Alicante_Valencian_Country.html
11885110,"The House @ Tormos","Calle San Luis Bertran 17 Tormos near Orba, 03795 Alicante Espanha",Alicante ,4.5,64,$$ - $$$,indef,38.80158233642578,-0.07214900106191635,https://www.tripadvisor.com.br/Restaurant_Review-g1064230-d11885110-Reviews-The_House_Tormos-Alicante_Costa_Blanca_Province_of_Alicante_Valencian_Country.html
6352692,"Bar Restaurante la Barrita de Santa Maria","Plaza Santa Maria 2, 03002 Alicante Espanha",Alicante ,4.0,131,$$ - $$$,indef,38.34611129760742,-0.4794439971446991,https://www.tripadvisor.com.br/Restaurant_Review-g1064230-d6352692-Reviews-Bar_Restaurante_la_Barrita_de_Santa_Maria-Alicante_Costa_Blanca_Province_of_Alic.html
20264510,"Da Giovanni Food & Coffee","Avenida de la Ciudad de Leon de Nicaragua 1, 03015 Alicante Espanha",Alicante ,5.0,27,$$ - $$$,R$ 32 - R$ 129,38.36100769042969,-0.46917200088500977,https://www.tripadvisor.com.br/Restaurant_Review-g1064230-d20264510-Reviews-Da_Giovanni_Food_Coffee-Alicante_Costa_Blanca_Province_of_Alicante_Valencian_Co.html
5262523,"Cerveceria Munich","Calle San Pascual 1, 03002 Alicante Espanha",Alicante ,4.0,87,$$ - $$$,indef,38.345821380615234,-0.4830009937286377,https://www.tripadvisor.com.br/Restaurant_Review-g1064230-d5262523-Reviews-Cerveceria_Munich-Alicante_Costa_Blanca_Province_of_Alicante_Valencian_Country.html
7905868,"La Cucaracha","Calle Poeta Quintana, 25 y Calle Poeta Quintana, 25, 03004 Alicante Espanha",Alicante ,4.0,143,$$ - $$$,R$ 28 - R$ 139,38.3478889465332,-0.48876500129699707,https://www.tripadvisor.com.br/Restaurant_Review-g1064230-d7905868-Reviews-La_Cucaracha-Alicante_Costa_Blanca_Province_of_Alicante_Valencian_Country.html
23563826,"Cabaña Grill Puerto","Lugar Muelle Levante 18a Muelle De Levante 12, 03001 Alicante Espanha",Alicante ,5.0,19,$$ - $$$,R$ 111 - R$ 334,38.3380241394043,-0.47829699516296387,https://www.tripadvisor.com.br/Restaurant_Review-g1064230-d23563826-Reviews-Cabana_Grill_Puerto-Alicante_Costa_Blanca_Province_of_Alicante_Valencian_Countr.html
13722504,"Restaurante asia bao zai house","Poligon D-1 la Mosca y la Camp, 441 Playa flamenca, 03189 Alicante Espanha",Alicante ,4.5,38,$$ - $$$,R$ 64 - R$ 193,37.93540573120117,-0.7236469984054565,https://www.tripadvisor.com.br/Restaurant_Review-g1064230-d13722504-Reviews-Restaurante_asia_bao_zai_house-Alicante_Costa_Blanca_Province_of_Alicante_Valen.html
19748915,"Aoba-ya Alicante","Calle Susana Llaneras 23, 03001 Alicante Espanha",Alicante ,5.0,28,$$ - $$$,indef,38.345584869384766,-0.4866360127925873,https://www.tripadvisor.com.br/Restaurant_Review-g1064230-d19748915-Reviews-Aoba_ya_Alicante-Alicante_Costa_Blanca_Province_of_Alicante_Valencian_Country.html
12699795,"Kult Bar","Avenida Historiador Vicente Ramos, 28 Local 27, 03540 Alicante Espanha",Alicante ,4.5,47,$$ - $$$,R$ 67 - R$ 111,38.367759704589844,-0.4228709936141968,https://www.tripadvisor.com.br/Restaurant_Review-g1064230-d12699795-Reviews-Kult_Bar-Alicante_Costa_Blanca_Province_of_Alicante_Valencian_Country.html
2490605,"Don Pino Ristorante","Avenida Historiador Vicente Ramos 10, 03540 Alicante Espanha",Alicante ,4.5,59,$$ - $$$,indef,38.36565017700195,-0.4294539988040924,https://www.tripadvisor.com.br/Restaurant_Review-g1064230-d2490605-Reviews-Don_Pino_Ristorante-Alicante_Costa_Blanca_Province_of_Alicante_Valencian_Country.html
10684166,"Amasable","Calle Paris 1 Local D, 03003 Alicante Espanha",Alicante ,4.5,78,$$ - $$$,R$ 97 - R$ 161,38.34297561645508,-0.49009400606155396,https://www.tripadvisor.com.br/Restaurant_Review-g1064230-d10684166-Reviews-Amasable-Alicante_Costa_Blanca_Province_of_Alicante_Valencian_Country.html
12332828,"Baoki","Calle Bazan 45, 03001 Alicante Espanha",Alicante ,4.5,72,$$ - $$$,R$ 26 - R$ 129,38.346229553222656,-0.48641499876976013,https://www.tripadvisor.com.br/Restaurant_Review-g1064230-d12332828-Reviews-Baoki-Alicante_Costa_Blanca_Province_of_Alicante_Valencian_Country.html
12733053,"Cerveceria Sento Albufera","Camino Colombia Romana 2, 03016 Alicante Espanha",Alicante ,4.0,105,$$ - $$$,indef,38.36412811279297,-0.44222500920295715,https://www.tripadvisor.com.br/Restaurant_Review-g1064230-d12733053-Reviews-Cerveceria_Sento_Albufera-Alicante_Costa_Blanca_Province_of_Alicante_Valencian_.html
994677,"Govana","Plaza Doctor Gomez Ulla 4, 03013 Alicante Espanha",Alicante ,4.0,156,$$ - $$$,R$ 1 - R$ 2,38.35332107543945,-0.47722500562667847,https://www.tripadvisor.com.br/Restaurant_Review-g1064230-d994677-Reviews-Govana-Alicante_Costa_Blanca_Province_of_Alicante_Valencian_Country.html
12803409,"Volanu","Calle de Rafael Altamira 4, 03002 Alicante Espanha",Alicante ,4.5,31,Bar,indef,38.34429168701172,-0.48284000158309937,https://www.tripadvisor.com.br/Restaurant_Review-g1064230-d12803409-Reviews-Volanu-Alicante_Costa_Blanca_Province_of_Alicante_Valencian_Country.html
13157320,"Antiguos Sabores Da Luigi","Calle de Garcia Morato 47, 03004 Alicante Espanha",Alicante ,4.5,53,$$ - $$$,R$ 64 - R$ 161,38.34988021850586,-0.4876680076122284,https://www.tripadvisor.com.br/Restaurant_Review-g1064230-d13157320-Reviews-Antiguos_Sabores_Da_Luigi-Alicante_Costa_Blanca_Province_of_Alicante_Valencian_.html
17567866,"Ohana Gastro Bar Playa San Juan","Licia Calderon 2 Historiador Vicente Ramos, 03540 Alicante Espanha",Alicante ,4.5,35,$$ - $$$,indef,38.36741638183594,-0.42697399854660034,https://www.tripadvisor.com.br/Restaurant_Review-g1064230-d17567866-Reviews-Ohana_Gastro_Bar_Playa_San_Juan-Alicante_Costa_Blanca_Province_of_Alicante_Vale.html
9713422,"Italian Restaurant Casanova","Calle de San Isidro 4 a 30 mt dalla Rambla de Alicante, 03002 Alicante Espanha",Alicante ,4.0,327,$$ - $$$,R$ 64 - R$ 322,38.345680236816406,-0.48346900939941406,https://www.tripadvisor.com.br/Restaurant_Review-g1064230-d9713422-Reviews-Italian_Restaurant_Casanova-Alicante_Costa_Blanca_Province_of_Alicante_Valencian.html
8737767,"Chaflan de Luceros","Plaza de los Luceros 4, 03001 Alicante Espanha",Alicante ,4.0,143,$$ - $$$,R$ 77 - R$ 386,38.34572219848633,-0.49032801389694214,https://www.tripadvisor.com.br/Restaurant_Review-g1064230-d8737767-Reviews-Chaflan_de_Luceros-Alicante_Costa_Blanca_Province_of_Alicante_Valencian_Country.html
23469555,"American Smokehouse","Carrer Jerusalem, 16,, 03001 Alicante Espanha",Alicante ,5.0,18,$$ - $$$,R$ 84 - R$ 223,38.34481430053711,-0.4872249960899353,https://www.tripadvisor.com.br/Restaurant_Review-g1064230-d23469555-Reviews-American_Smokehouse-Alicante_Costa_Blanca_Province_of_Alicante_Valencian_Countr.html
4707851,"Asador El Ombu","Calle Caja de Ahorros 4, 03016 Alicante Espanha",Alicante ,4.0,202,$$ - $$$,indef,38.36806869506836,-0.45791101455688477,https://www.tripadvisor.com.br/Restaurant_Review-g1064230-d4707851-Reviews-Asador_El_Ombu-Alicante_Costa_Blanca_Province_of_Alicante_Valencian_Country.html
16848391,"Crêperie El Molino de Paris","Calle de Colon 5, 03001 Alicante Espanha",Alicante ,4.5,31,$,R$ 32 - R$ 51,38.3448371887207,-0.4861829876899719,https://www.tripadvisor.com.br/Restaurant_Review-g1064230-d16848391-Reviews-Creperie_El_Molino_de_Paris-Alicante_Costa_Blanca_Province_of_Alicante_Valencia.html
15020351,"My Restaurant Alicante","Avenida Niza 18 Playa de San Juan, 03540 Alicante Espanha",Alicante ,4.0,109,$$ - $$$,R$ 97 - R$ 290,38.37297439575195,-0.4104959964752197,https://www.tripadvisor.com.br/Restaurant_Review-g1064230-d15020351-Reviews-My_Restaurant_Alicante-Alicante_Costa_Blanca_Province_of_Alicante_Valencian_Cou.html
4581385,"Cervecería Dos Hermanos","Calle Historiador Vicente Ramos,, 03540 Alicante Espanha",Alicante ,4.5,92,$$ - $$$,indef,38.348880767822266,-0.4867999851703644,https://www.tripadvisor.com.br/Restaurant_Review-g1064230-d4581385-Reviews-Cerveceria_Dos_Hermanos-Alicante_Costa_Blanca_Province_of_Alicante_Valencian_Cou.html
19262042,"Laesquina Cerveceria by Fran & Adan","Calle del Doctor Clavero 13, 03013 Alicante Espanha",Alicante ,5.0,22,$,indef,38.35577392578125,-0.4737890064716339,https://www.tripadvisor.com.br/Restaurant_Review-g1064230-d19262042-Reviews-Laesquina_Cerveceria_by_Fran_Adan-Alicante_Costa_Blanca_Province_of_Alicante_Va.html
13915273,"Muy Alicante","Calle Castanos 25 Bj.Dr., 03002 Alicante Espanha",Alicante ,4.5,73,$$ - $$$,R$ 39 - R$ 90,38.34579849243164,-0.48558101058006287,https://www.tripadvisor.com.br/Restaurant_Review-g1064230-d13915273-Reviews-Muy_Alicante-Alicante_Costa_Blanca_Province_of_Alicante_Valencian_Country.html
19067249,"Que Rico Restaurant","Avenida Niza 5 Local 12 Y 13, 03540 Alicante Espanha",Alicante ,3.5,44,$$ - $$$,R$ 77 - R$ 290,38.36758804321289,-0.4105139970779419,https://www.tripadvisor.com.br/Restaurant_Review-g1064230-d19067249-Reviews-Que_Rico_Restaurant-Alicante_Costa_Blanca_Province_of_Alicante_Valencian_Countr.html
3737981,"La Perla","C/ Vespre4, Bonalba Golf Muchamiel, 03110 Alicante Espanha",Alicante ,4.5,68,$$ - $$$,indef,38.44308090209961,-0.4367139935493469,https://www.tripadvisor.com.br/Restaurant_Review-g1064230-d3737981-Reviews-La_Perla-Alicante_Costa_Blanca_Province_of_Alicante_Valencian_Country.html
23357997,"Musa Café Alicante","Calle Amadeo de Saboya 2, 03012 Alicante Espanha",Alicante ,5.0,18,$$$$,R$ 64 - R$ 386,38.35929489135742,-0.4803380072116852,https://www.tripadvisor.com.br/Restaurant_Review-g1064230-d23357997-Reviews-Musa_Cafe_Alicante-Alicante_Costa_Blanca_Province_of_Alicante_Valencian_Country.html
4971609,"Bar Studz","calle Aneto Benijofar, 03178 Alicante Espanha",Alicante ,4.0,117,$$ - $$$,indef,38.08198165893555,-0.7345939874649048,https://www.tripadvisor.com.br/Restaurant_Review-g1064230-d4971609-Reviews-Bar_Studz-Alicante_Costa_Blanca_Province_of_Alicante_Valencian_Country.html
10199753,"El Sorbo Bodega & Vermutería","Calle Jose Maria Pi 12, 03005 Alicante Espanha",Alicante ,4.5,39,$$ - $$$,R$ 64 - R$ 161,38.34823226928711,-0.49302101135253906,https://www.tripadvisor.com.br/Restaurant_Review-g1064230-d10199753-Reviews-El_Sorbo_Bodega_Vermuteria-Alicante_Costa_Blanca_Province_of_Alicante_Valencian.html
6779276,"La Tapita de Luis","Calle Caballero de Rodas 35 Torrevieja, 03181 Alicante Espanha",Alicante ,4.5,58,$$ - $$$,R$ 64 - R$ 3.217,37.977874755859375,-0.6822620034217834,https://www.tripadvisor.com.br/Restaurant_Review-g1064230-d6779276-Reviews-La_Tapita_de_Luis-Alicante_Costa_Blanca_Province_of_Alicante_Valencian_Country.html
3380747,"Cervecería Marisquería Mavi","Calle Foguerer 9, 03012 Alicante Espanha",Alicante ,4.5,100,$$ - $$$,indef,38.3603630065918,-0.47988399863243103,https://www.tripadvisor.com.br/Restaurant_Review-g1064230-d3380747-Reviews-Cerveceria_Marisqueria_Mavi-Alicante_Costa_Blanca_Province_of_Alicante_Valencian.html
14150368,"Restaurante El Pont","Plaza del Puente 7 Plaza, 03002 Alicante Espanha",Alicante ,4.5,47,$$ - $$$,R$ 32 - R$ 142,38.34641647338867,-0.4803430140018463,https://www.tripadvisor.com.br/Restaurant_Review-g1064230-d14150368-Reviews-Restaurante_El_Pont-Alicante_Costa_Blanca_Province_of_Alicante_Valencian_Countr.html
994635,"Los Pacos","Avenida de Santander Corner with Bruselas, 03540 Alicante Espanha",Alicante ,4.0,211,$$ - $$$,indef,38.37043762207031,-0.4142569899559021,https://www.tripadvisor.com.br/Restaurant_Review-g1064230-d994635-Reviews-Los_Pacos-Alicante_Costa_Blanca_Province_of_Alicante_Valencian_Country.html
12879616,"Fresco El Campello","Calle Vicente Bonastre 84, 03007 Alicante Espanha",Alicante ,4.5,71,$$ - $$$,indef,38.42601776123047,-0.39014899730682373,https://www.tripadvisor.com.br/Restaurant_Review-g1064230-d12879616-Reviews-Fresco_El_Campello-Alicante_Costa_Blanca_Province_of_Alicante_Valencian_Country.html
4424498,"Lizarran","Avenida de Alfonso El Sabio 28, 03004 Alicante Espanha",Alicante ,4.0,131,$,indef,38.34697723388672,-0.48815101385116577,https://www.tripadvisor.com.br/Restaurant_Review-g1064230-d4424498-Reviews-Lizarran-Alicante_Costa_Blanca_Province_of_Alicante_Valencian_Country.html
12330450,"La Ricetta Ristopizza & Bar","Av. Deportista Miriam Blasco, 10, 03540 Alicante Espanha",Alicante ,4.5,30,$$ - $$$,indef,38.36691665649414,-0.43378499150276184,https://www.tripadvisor.com.br/Restaurant_Review-g1064230-d12330450-Reviews-La_Ricetta_Ristopizza_Bar-Alicante_Costa_Blanca_Province_of_Alicante_Valencian_.html
23060624,"Welcome India","Calle Mayor 22, 03002 Alicante Espanha",Alicante ,5.0,18,Indiana,indef,38.34510040283203,-0.4820300042629242,https://www.tripadvisor.com.br/Restaurant_Review-g1064230-d23060624-Reviews-Welcome_India-Alicante_Costa_Blanca_Province_of_Alicante_Valencian_Country.html
15843546,"Mahalo Poke Alicante","Calle Valdes 1, 03001 Alicante Espanha",Alicante ,4.5,36,$$ - $$$,R$ 32 - R$ 97,38.343421936035156,-0.4864110052585602,https://www.tripadvisor.com.br/Restaurant_Review-g1064230-d15843546-Reviews-Mahalo_Poke_Alicante-Alicante_Costa_Blanca_Province_of_Alicante_Valencian_Count.html
2715849,"La Terraza del Gourmet","Paseo Explanada de Espana 2, 03002 Alicante Espanha",Alicante ,4.0,324,$$ - $$$,indef,38.34420394897461,-0.48090600967407227,https://www.tripadvisor.com.br/Restaurant_Review-g1064230-d2715849-Reviews-La_Terraza_del_Gourmet-Alicante_Costa_Blanca_Province_of_Alicante_Valencian_Coun.html
6416909,"Els Bessons","Carrer de Sant Ramon, 36 Campello., 03560 Alicante Espanha",Alicante ,4.5,80,$$ - $$$,indef,38.427059173583984,-0.4033060073852539,https://www.tripadvisor.com.br/Restaurant_Review-g1064230-d6416909-Reviews-Els_Bessons-Alicante_Costa_Blanca_Province_of_Alicante_Valencian_Country.html
2660688,"Torre de Reixes","Camino de Benimagrell 47, 03557 Alicante Espanha",Alicante ,4.0,95,$$ - $$$,indef,38.37902069091797,-0.4392530024051666,https://www.tripadvisor.com.br/Restaurant_Review-g1064230-d2660688-Reviews-Torre_de_Reixes-Alicante_Costa_Blanca_Province_of_Alicante_Valencian_Country.html
7599687,"Momen","Paseo Explanada de Espana 21, 03001 Alicante Espanha",Alicante ,4.0,118,$$ - $$$,R$ 97 - R$ 161,38.342647552490234,-0.4851379990577698,https://www.tripadvisor.com.br/Restaurant_Review-g1064230-d7599687-Reviews-Momen-Alicante_Costa_Blanca_Province_of_Alicante_Valencian_Country.html
7295272,"Sally Canela","Calle Doctor Buades 57, 03012 Alicante Espanha",Alicante ,4.5,57,$$ - $$$,indef,38.35960006713867,-0.4832859933376312,https://www.tripadvisor.com.br/Restaurant_Review-g1064230-d7295272-Reviews-Sally_Canela-Alicante_Costa_Blanca_Province_of_Alicante_Valencian_Country.html
10089590,"Taberna El Verde","Plaza Nueva 4 Detras De La Pecera, 03001 Alicante Espanha",Alicante ,4.5,51,$$ - $$$,indef,38.3452262878418,-0.4866720139980316,https://www.tripadvisor.com.br/Restaurant_Review-g1064230-d10089590-Reviews-Taberna_El_Verde-Alicante_Costa_Blanca_Province_of_Alicante_Valencian_Country.html
1491252,"Topo Gigio","Calle San Francisco n 0 67, 03001 Alicante Espanha",Alicante ,4.0,202,$$ - $$$,R$ 45 - R$ 161,38.34357833862305,-0.4874640107154846,https://www.tripadvisor.com.br/Restaurant_Review-g1064230-d1491252-Reviews-Topo_Gigio-Alicante_Costa_Blanca_Province_of_Alicante_Valencian_Country.html
3435620,"Mauro Restaurant","Avenida Historiador Vicente Ramos S/N Playa de San Juan, 03540 Alicante Espanha",Alicante ,4.0,308,$$ - $$$,R$ 97 - R$ 322,38.366050720214844,-0.4308139979839325,https://www.tripadvisor.com.br/Restaurant_Review-g1064230-d3435620-Reviews-Mauro_Restaurant-Alicante_Costa_Blanca_Province_of_Alicante_Valencian_Country.html
12445123,"Rawanduz Restaurante","Plaza del Alcalde Agatangelo Soler, 3, 3015 Alicante Espanha",Alicante ,4.5,33,$$ - $$$,R$ 19 - R$ 97,38.36677551269531,-0.4715999960899353,https://www.tripadvisor.com.br/Restaurant_Review-g1064230-d12445123-Reviews-Rawanduz_Restaurante-Alicante_Costa_Blanca_Province_of_Alicante_Valencian_Count.html
4690417,"Buguelash","Calle Vazquez de Mella 7, 03013 Alicante Espanha",Alicante ,4.5,64,$$ - $$$,R$ 64 - R$ 129,38.352264404296875,-0.4800570011138916,https://www.tripadvisor.com.br/Restaurant_Review-g1064230-d4690417-Reviews-Buguelash-Alicante_Costa_Blanca_Province_of_Alicante_Valencian_Country.html
1846844,"Chef's Concept","Calle Mayor 7, 03002 Alicante Espanha",Alicante ,4.0,254,$$ - $$$,indef,38.34478759765625,-0.4827579855918884,https://www.tripadvisor.com.br/Restaurant_Review-g1064230-d1846844-Reviews-Chef_s_Concept-Alicante_Costa_Blanca_Province_of_Alicante_Valencian_Country.html
10733357,"Restaurante Dhammas","Calle Pintor Lorenzo Casanova No 5, 03003 Alicante Espanha",Alicante ,4.5,72,$$ - $$$,R$ 77 - R$ 161,38.34230422973633,-0.4890359938144684,https://www.tripadvisor.com.br/Restaurant_Review-g1064230-d10733357-Reviews-Restaurante_Dhammas-Alicante_Costa_Blanca_Province_of_Alicante_Valencian_Countr.html
3931620,"Restaurante Jorge","Calle Martin Luther King , Loc 2 y 3, 03010 Alicante Espanha",Alicante ,4.5,58,$$ - $$$,R$ 116 - R$ 193,38.36248779296875,-0.489657998085022,https://www.tripadvisor.com.br/Restaurant_Review-g1064230-d3931620-Reviews-Restaurante_Jorge-Alicante_Costa_Blanca_Province_of_Alicante_Valencian_Country.html
7233548,"Bar Aki Pikamos","Calle Manuel Anton 13, 03004 Alicante Espanha",Alicante ,4.5,31,$,indef,38.349693298339844,-0.4865100085735321,https://www.tripadvisor.com.br/Restaurant_Review-g1064230-d7233548-Reviews-Bar_Aki_Pikamos-Alicante_Costa_Blanca_Province_of_Alicante_Valencian_Country.html
3854148,"La Matanza Castellana","C/Bailen 03002, 03001 Alicante Espanha",Alicante ,4.0,167,$$ - $$$,indef,38.34492111206055,-0.4843429923057556,https://www.tripadvisor.com.br/Restaurant_Review-g1064230-d3854148-Reviews-La_Matanza_Castellana-Alicante_Costa_Blanca_Province_of_Alicante_Valencian_Count.html
12059137,"De Pasta Somos","Avenida del Maestro Jose Garberi Serrano 13 De Pasta Somos Local en toda la esquina, 03540 Alicante Espanha",Alicante ,4.0,80,$$ - $$$,R$ 64 - R$ 129,38.3844108581543,-0.41680800914764404,https://www.tripadvisor.com.br/Restaurant_Review-g1064230-d12059137-Reviews-De_Pasta_Somos-Alicante_Costa_Blanca_Province_of_Alicante_Valencian_Country.html
994678,"El Bocaito","Calle Isabel La Catolica 22, 03007 Alicante Espanha",Alicante ,4.0,122,$$ - $$$,R$ 129 - R$ 193,38.34082794189453,-0.49539801478385925,https://www.tripadvisor.com.br/Restaurant_Review-g1064230-d994678-Reviews-El_Bocaito-Alicante_Costa_Blanca_Province_of_Alicante_Valencian_Country.html
19067249,"Que Rico Restaurant","Avenida Niza 5 Local 12 Y 13, 03540 Alicante Espanha",Alicante ,3.5,44,$$ - $$$,R$ 77 - R$ 290,38.36758804321289,-0.4105139970779419,https://www.tripadvisor.com.br/Restaurant_Review-g1064230-d19067249-Reviews-Que_Rico_Restaurant-Alicante_Costa_Blanca_Province_of_Alicante_Valencian_Countr.html
14043062,"Sampa Picnic Bar","Calle de Jorge Juan 27 Escaleras Basílica de Santa Maria, 03002 Alicante Espanha",Alicante ,4.5,32,$,R$ 26 - R$ 97,38.34590530395508,-0.47961699962615967,https://www.tripadvisor.com.br/Restaurant_Review-g1064230-d14043062-Reviews-Sampa_Picnic_Bar-Alicante_Costa_Blanca_Province_of_Alicante_Valencian_Country.html
21036701,"Ladydi Resto Pizza Italiana & Coffee","Rambla de Mendez Nunez 44, 03002 Alicante Espanha",Alicante ,5.0,18,$$ - $$$,R$ 39 - R$ 77,38.346961975097656,-0.4844120144844055,https://www.tripadvisor.com.br/Restaurant_Review-g1064230-d21036701-Reviews-Ladydi_Resto_Pizza_Italiana_Coffee-Alicante_Costa_Blanca_Province_of_Alicante_V.html
