restaurante_id,nome,endereco,cidade,nota,qtd_avaliacoes,categoria_preco,faixa_preco,latitude,longitude,fonte
12385819,Rucula,"Calle Ataud 266 Costado Museo Inka, Cusco 08002 Peru",Cusco ,5.0,1020,$$ - $$$,R$ 8 - R$ 27,-13.515400886535645,-71.97832489013672,https://www.tripadvisor.com.br/Restaurant_Review-g294314-d12385819-Reviews-Rucula-Cusco_Cusco_Region.html
16955071,Yaku Cocina de Altura,"Calle San Juan de Dios 214 Plaza Regocijo, Cusco 08002 Peru",Cusco ,5.0,893,$$ - $$$,R$ 10 - R$ 62,-13.516812324523926,-71.9807357788086,https://www.tripadvisor.com.br/Restaurant_Review-g294314-d16955071-Reviews-Yaku_Cocina_de_Altura-Cusco_Cusco_Region.html
17348033,Avocado Toast & More,"Calle Santa Catalina Ancha 366, Cusco 08002 Peru",Cusco ,5.0,505,$$ - $$$,R$ 18 - R$ 33,-13.515885353088379,-71.97550201416016,https://www.tripadvisor.com.br/Restaurant_Review-g294314-d17348033-Reviews-Avocado_Toast_More-Cusco_Cusco_Region.html
8530478,Organika,"Calle Ataud N° 154 Centro Historico, Cusco 084 Peru",Cusco ,5.0,3366,$,indef,-13.515376091003418,-71.97834014892578,https://www.tripadvisor.com.br/Restaurant_Review-g294314-d8530478-Reviews-Organika-Cusco_Cusco_Region.html
15266812,Pizzeria Chez Maggy Tio Beto,"Urbanizacion Bancopata Calle Simon Bolivar F- 23 Una cuadra antes de Electro sur este, Cusco 08007 Peru",Cusco ,indef,0,$,R$ 4 - R$ 27,-13.535049438476562,-71.91021728515625,https://www.tripadvisor.com.br/Restaurant_Review-g294314-d15266812-Reviews-Pizzeria_Chez_Maggy_Tio_Beto-Cusco_Cusco_Region.html
12529753,Hanz Craft Beer & Restaurant,"Portal de carnes 216 nivel 2, Cusco 08000 Peru",Cusco ,5.0,1606,$$ - $$$,R$ 0 - R$ 2,-13.516073226928711,-71.97872924804688,https://www.tripadvisor.com.br/Restaurant_Review-g294314-d12529753-Reviews-Hanz_Craft_Beer_Restaurant-Cusco_Cusco_Region.html
13479346,Chakruna Native Burgers,"Plazoleta San Blas 699, Cusco 08003 Peru",Cusco ,5.0,1151,$,R$ 10 - R$ 27,-13.514787673950195,-71.97443389892578,https://www.tripadvisor.com.br/Restaurant_Review-g294314-d13479346-Reviews-Chakruna_Native_Burgers-Cusco_Cusco_Region.html
13561202,Mama Jama,"Avenida Pardo 1079 Pizzeria, Cusco 08002 Peru",Cusco ,5.0,110,$$ - $$$,R$ 53 - R$ 264,-13.525239944458008,-71.9725341796875,https://www.tripadvisor.com.br/Restaurant_Review-g294314-d13561202-Reviews-Mama_Jama-Cusco_Cusco_Region.html
2726113,Inkazuela Restaurant,"Plazoleta Nazarenas 167 2nd Floor, Cusco 08001 Peru",Cusco ,5.0,2538,$$ - $$$,R$ 32 - R$ 259,-13.515521049499512,-71.97708129882812,https://www.tripadvisor.com.br/Restaurant_Review-g294314-d2726113-Reviews-Inkazuela_Restaurant-Cusco_Cusco_Region.html
8431757,Republica Del Pisco,"Calle Plateros 354, Cusco 5184 Peru",Cusco ,5.0,2262,$$ - $$$,R$ 27 - R$ 69,-13.515798568725586,-71.98028564453125,https://www.tripadvisor.com.br/Restaurant_Review-g294314-d8431757-Reviews-Republica_Del_Pisco-Cusco_Cusco_Region.html
1063306,Indigo Bar Restaurant,"Calle Tecsecocha # 415 First Floor, Cusco 08002 Peru",Cusco ,5.0,997,$$ - $$$,indef,-13.515179634094238,-71.98023986816406,https://www.tripadvisor.com.br/Restaurant_Review-g294314-d1063306-Reviews-Indigo_Bar_Restaurant-Cusco_Cusco_Region.html
15678092,Catfetin Cat Cafe,"Calle Maruri 320 2nd Floor / 2do Piso, Cusco 08002 Peru",Cusco ,5.0,80,$$ - $$$,R$ 11 - R$ 32,-13.51870346069336,-71.97614288330078,https://www.tripadvisor.com.br/Restaurant_Review-g294314-d15678092-Reviews-Catfetin_Cat_Cafe-Cusco_Cusco_Region.html
13949779,Parada 168,"Calle Inticahuarina 168 A una cuadra de Limacpampa, subida hacia Awaqpinta, Cusco 08002 Peru",Cusco ,5.0,156,$,R$ 12 - R$ 12,-13.520791053771973,-71.97383117675781,https://www.tripadvisor.com.br/Restaurant_Review-g294314-d13949779-Reviews-Parada_168-Cusco_Cusco_Region.html
17536875,La Huerta del TaTa,"Calle Suecia 380 Cruze con Waynapata, Cusco 08002 Peru",Cusco ,5.0,120,$,R$ 11 - R$ 34,-13.514181137084961,-71.9794921875,https://www.tripadvisor.com.br/Restaurant_Review-g294314-d17536875-Reviews-La_Huerta_del_TaTa-Cusco_Cusco_Region.html
15528161,ViewHouse Restobar,"Calle Kiskapata N° 100 Al Costado del Mirador de San Blas, Cusco 08000 Peru",Cusco ,5.0,386,$$ - $$$,R$ 11 - R$ 53,-13.514577865600586,-71.97383880615234,https://www.tripadvisor.com.br/Restaurant_Review-g294314-d15528161-Reviews-ViewHouse_Restobar-Cusco_Cusco_Region.html
17325040,Hankay,"Sacred valley km76 Urubamba -yanahuara, Cusco 08655 Peru",Cusco ,5.0,218,$,indef,33.8307991027832,24.862699508666992,https://www.tripadvisor.com.br/Restaurant_Review-g294314-d17325040-Reviews-Hankay-Cusco_Cusco_Region.html
19621971,Cebicheria Don Pez Limon-Sta Ursula,"Prolongacion Tupac Amaru Urb los Pinos B-1 a Espaldas de Santa Ursula, Cusco 00820 Peru",Cusco ,indef,0,$$ - $$$,R$ 32 - R$ 90,-13.52985954284668,-71.94207000732422,https://www.tripadvisor.com.br/Restaurant_Review-g294314-d19621971-Reviews-Cebicheria_Don_Pez_Limon_Sta_Ursula-Cusco_Cusco_Region.html
16819848,Ethnika Restaurant,"Calle Carmen Alto 120, Cusco 08003 Peru",Cusco ,5.0,168,$$ - $$$,R$ 21 - R$ 137,-13.514861106872559,-71.97492218017578,https://www.tripadvisor.com.br/Restaurant_Review-g294314-d16819848-Reviews-Ethnika_Restaurant-Cusco_Cusco_Region.html
16713842,Beers & Burgers,"Calle Cuesta San Blas 591, Cusco 08003 Peru",Cusco ,5.0,251,$$ - $$$,R$ 8 - R$ 30,-13.515113830566406,-71.97499084472656,https://www.tripadvisor.com.br/Restaurant_Review-g294314-d16713842-Reviews-Beers_Burgers-Cusco_Cusco_Region.html
12330249,Mama Seledonia,"Calle ruinas 415 Facing Marriot Hotel, Cusco 08000 Peru",Cusco ,5.0,686,$,R$ 52 - R$ 97,-13.51663875579834,-71.97602081298828,https://www.tripadvisor.com.br/Restaurant_Review-g294314-d12330249-Reviews-Mama_Seledonia-Cusco_Cusco_Region.html
12656652,Chia Vegan Kitchen,"Calle Tecsecocha 466 A Unos Pasos De Calle Tigre, Cusco 08002 Peru",Cusco ,5.0,918,$,R$ 14 - R$ 21,-13.514769554138184,-71.98052978515625,https://www.tripadvisor.com.br/Restaurant_Review-g294314-d12656652-Reviews-Chia_Vegan_Kitchen-Cusco_Cusco_Region.html
13908817,UFO Asian Food,"Calle Carmen Bajo 222 - San Blas media cuandra antes de la Plazoleta San Blas, Cusco 08001 Peru",Cusco ,5.0,189,$,R$ 21 - R$ 37,-13.515636444091797,-71.97428131103516,https://www.tripadvisor.com.br/Restaurant_Review-g294314-d13908817-Reviews-UFO_Asian_Food-Cusco_Cusco_Region.html
3476800,Cebicheria Don Pez Limon-Ttio,"Urb Ttio Y 2 Wanchaq, Cusco 08002 Peru",Cusco ,4.0,26,$$ - $$$,R$ 37 - R$ 79,-13.531678199768066,-71.95875549316406,https://www.tripadvisor.com.br/Restaurant_Review-g294314-d3476800-Reviews-Cebicheria_Don_Pez_Limon_Ttio-Cusco_Cusco_Region.html
3626598,Mistura Grill cusco,"Calle Portal de Panes 137 Plaza de Armas, Cusco 08002 Peru",Cusco ,4.5,772,$$ - $$$,R$ 30 - R$ 55,-13.516223907470703,-71.9792709350586,https://www.tripadvisor.com.br/Restaurant_Review-g294314-d3626598-Reviews-Mistura_Grill_cusco-Cusco_Cusco_Region.html
3182827,Uchu Peruvian Steakhouse,"Calle Palacio 135 A poco metros de la Plaza Nazarenas, Cusco Peru",Cusco ,4.5,2996,$$ - $$$,R$ 42 - R$ 106,-13.515667915344238,-71.97695922851562,https://www.tripadvisor.com.br/Restaurant_Review-g294314-d3182827-Reviews-Uchu_Peruvian_Steakhouse-Cusco_Cusco_Region.html
1675710,Alma Bar Restaurante,"Plazoleta Limacpampa Chico 473 Casa Andina Premium Cusco, Cusco 08003 Peru",Cusco ,4.5,349,$$ - $$$,R$ 53 - R$ 211,-13.519246101379395,-71.9747314453125,https://www.tripadvisor.com.br/Restaurant_Review-g294314-d1675710-Reviews-Alma_Bar_Restaurante-Cusco_Cusco_Region.html
1085746,Inti Raymi Restaurant,"Hotel Palacio Del Inka a Luxury Collection Plazoleta Santo Domingo 259, Cusco Peru",Cusco ,5.0,318,$$$$,indef,-13.51910400390625,-71.97523498535156,https://www.tripadvisor.com.br/Restaurant_Review-g294314-d1085746-Reviews-Inti_Raymi_Restaurant-Cusco_Cusco_Region.html
7732856,Carpe Diem Cucina Italiana,"Calle Plateros 361, Cusco 0084 Peru",Cusco ,4.5,1232,$$ - $$$,R$ 14 - R$ 55,-13.51612663269043,-71.98007202148438,https://www.tripadvisor.com.br/Restaurant_Review-g294314-d7732856-Reviews-Carpe_Diem_Cucina_Italiana-Cusco_Cusco_Region.html
4040967,Crepería La Bo'M,"Carmen Alto 283 San Blas, Cusco 084 Peru",Cusco ,4.5,1115,$,R$ 16 - R$ 32,-13.51385498046875,-71.97625732421875,https://www.tripadvisor.com.br/Restaurant_Review-g294314-d4040967-Reviews-Creperia_La_Bo_M-Cusco_Cusco_Region.html
10810450,Ceviche Seafood Kitchen,"Portal Harinas 181 Plaza de Armas, Cusco Peru",Cusco ,5.0,1520,$$ - $$$,indef,-13.515971183776855,-71.97884368896484,https://www.tripadvisor.com.br/Restaurant_Review-g294314-d10810450-Reviews-Ceviche_Seafood_Kitchen-Cusco_Cusco_Region.html
6476707,Morena Peruvian Kitchen,"Procuradores 320 Plaza De Armas, Cusco 08002 Peru",Cusco ,4.5,5246,$$ - $$$,R$ 14 - R$ 21,-13.515933990478516,-71.97901153564453,https://www.tripadvisor.com.br/Restaurant_Review-g294314-d6476707-Reviews-Morena_Peruvian_Kitchen-Cusco_Cusco_Region.html
9703701,PER.UK,"Calle Santa Catalina Ancha 313 One block from the main square of the historic center., Cusco 08002 Peru",Cusco ,5.0,953,$$ - $$$,R$ 16 - R$ 74,-13.51593017578125,-71.98017883300781,https://www.tripadvisor.com.br/Restaurant_Review-g294314-d9703701-Reviews-PER_UK-Cusco_Cusco_Region.html
1085744,A Mi Manera,"Calle Triunfo No 393, Cuzco, Cusco Peru",Cusco ,4.5,1442,$$ - $$$,indef,-13.516164779663086,-71.97671508789062,https://www.tripadvisor.com.br/Restaurant_Review-g294314-d1085744-Reviews-A_Mi_Manera-Cusco_Cusco_Region.html
11952217,Vida Vegan Bistro,"Tambo de montero 508 Esquina de arcopata y meloq, Cusco 08002 Peru",Cusco ,5.0,285,$$ - $$$,R$ 5 - R$ 13,-13.515634536743164,-71.98361206054688,https://www.tripadvisor.com.br/Restaurant_Review-g294314-d11952217-Reviews-Vida_Vegan_Bistro-Cusco_Cusco_Region.html
12545104,Qura,"Calle Carmen Bajo 228, Cusco 08003 Peru",Cusco ,5.0,249,$,R$ 42 - R$ 74,-13.51598834991455,-71.97384643554688,https://www.tripadvisor.com.br/Restaurant_Review-g294314-d12545104-Reviews-Qura-Cusco_Cusco_Region.html
11951550,Taste Of India Cusco “Cafe Carvalho”,"Calle San Agustin 315, Cusco 08002 Peru",Cusco ,5.0,293,$$ - $$$,R$ 32 - R$ 185,-13.518331527709961,-71.975341796875,https://www.tripadvisor.com.br/Restaurant_Review-g294314-d11951550-Reviews-Taste_Of_India_Cusco_Cafe_Carvalho-Cusco_Cusco_Region.html
6539545,Ayni Organic,"Tandapata 353-B San Blas, Cusco 084 Peru",Cusco ,5.0,198,$,R$ 26 - R$ 63,-13.512358665466309,-71.9770278930664,https://www.tripadvisor.com.br/Restaurant_Review-g294314-d6539545-Reviews-Ayni_Organic-Cusco_Cusco_Region.html
11652955,JC's Cafe,"Calle Meloc, 488, Cusco Peru",Cusco ,5.0,301,$,R$ 7 - R$ 34,-13.515884399414062,-71.98350524902344,https://www.tripadvisor.com.br/Restaurant_Review-g294314-d11652955-Reviews-JC_s_Cafe-Cusco_Cusco_Region.html
12643203,Monkey Coffee,"Calle Tandapata 372, Cusco 08003 Peru",Cusco ,5.0,173,$,R$ 8 - R$ 26,-13.513802528381348,-71.97559356689453,https://www.tripadvisor.com.br/Restaurant_Review-g294314-d12643203-Reviews-Monkey_Coffee-Cusco_Cusco_Region.html
1498319,Nuna Raymi,"Calle Triunfo 356 A media cuadra de la Plaza de Armas, en el 2do piso, Cusco Peru",Cusco ,4.5,1669,$$ - $$$,R$ 21 - R$ 69,-13.516406059265137,-71.97702026367188,https://www.tripadvisor.com.br/Restaurant_Review-g294314-d1498319-Reviews-Nuna_Raymi-Cusco_Cusco_Region.html
4242748,Green Point,"Calle Carmen Bajo 235 San Blas, Cusco 08001 Peru",Cusco ,4.5,2641,$,R$ 26 - R$ 106,-13.515830993652344,-71.97372436523438,https://www.tripadvisor.com.br/Restaurant_Review-g294314-d4242748-Reviews-Green_Point-Cusco_Cusco_Region.html
8498651,Le Buffet Frances,"Calle Atoq Sayquchi 616, Cusco 08000 Peru",Cusco ,5.0,398,$$ - $$$,indef,-13.513096809387207,-71.97589111328125,https://www.tripadvisor.com.br/Restaurant_Review-g294314-d8498651-Reviews-Le_Buffet_Frances-Cusco_Cusco_Region.html
12402088,Cultura Paraiso,"Calle Herrajes with Calle Inca Roca 112 Parallel to twelve angle stone, Cusco Peru",Cusco ,5.0,328,$$ - $$$,R$ 16 - R$ 48,-13.51642894744873,-71.97607421875,https://www.tripadvisor.com.br/Restaurant_Review-g294314-d12402088-Reviews-Cultura_Paraiso-Cusco_Cusco_Region.html
13961348,Jardin Organiko,"Calle Chihuampata 564 cerca del hotel casa andina san blas Y Calle Choquechaca 338 frente ala calle ladrillos Subiendo Al Mercado De San Blas, Subida A Sapantiana., Cusco 08002 Peru",Cusco ,5.0,340,$$ - $$$,R$ 11 - R$ 11,-13.516555786132812,-71.9740219116211,https://www.tripadvisor.com.br/Restaurant_Review-g294314-d13961348-Reviews-Jardin_Organiko-Cusco_Cusco_Region.html
3155584,Gustitos de Loli,"Recoleta Angosta 613, Cusco 0000 Peru",Cusco ,4.5,349,$$ - $$$,R$ 21 - R$ 79,-13.516797065734863,-71.9735107421875,https://www.tripadvisor.com.br/Restaurant_Review-g294314-d3155584-Reviews-Gustitos_de_Loli-Cusco_Cusco_Region.html
6034161,Siete & Siete Restocafe,"Calle Tandapata 260 Final Siete Angelitos, Pension Alemana, Cusco 08003 Peru",Cusco ,5.0,264,$$ - $$$,R$ 4 - R$ 7,-13.513195991516113,-71.9753646850586,https://www.tripadvisor.com.br/Restaurant_Review-g294314-d6034161-Reviews-Siete_Siete_Restocafe-Cusco_Cusco_Region.html
9705143,La Rabona Peruvian Deli,"Calle Herrajes 146, Cusco Peru",Cusco ,5.0,196,$$ - $$$,R$ 14 - R$ 34,-13.516550064086914,-71.97631072998047,https://www.tripadvisor.com.br/Restaurant_Review-g294314-d9705143-Reviews-La_Rabona_Peruvian_Deli-Cusco_Cusco_Region.html
1629819,Kusikuy,"Calle Amargura 140, Cusco 080 Peru",Cusco ,4.5,1160,$$ - $$$,indef,-13.51401424407959,-71.98143005371094,https://www.tripadvisor.com.br/Restaurant_Review-g294314-d1629819-Reviews-Kusikuy-Cusco_Cusco_Region.html
1343213,Greens Organic,"Santa Catalina Angosta 135 Floor 2, Plaza De Armas, Cusco 08000 Peru",Cusco ,4.5,2715,$$ - $$$,R$ 42 - R$ 132,-13.51694393157959,-71.97758483886719,https://www.tripadvisor.com.br/Restaurant_Review-g294314-d1343213-Reviews-Greens_Organic-Cusco_Cusco_Region.html
1903717,Marcelo Batata Restaurant,"Calle Palacio 121, Cusco cuz01 Peru",Cusco ,4.5,2061,$$ - $$$,R$ 32 - R$ 79,-13.51598072052002,-71.97677612304688,https://www.tripadvisor.com.br/Restaurant_Review-g294314-d1903717-Reviews-Marcelo_Batata_Restaurant-Cusco_Cusco_Region.html
7802540,Cuse American Kitchen,"Avenida Roberto Acosta 108 Urb Santa Rosa, Cusco Peru",Cusco ,4.5,214,$$ - $$$,R$ 3 - R$ 10,-13.514826774597168,-71.97486877441406,https://www.tripadvisor.com.br/Restaurant_Review-g294314-d7802540-Reviews-Cuse_American_Kitchen-Cusco_Cusco_Region.html
6638628,Restaurant Sumaqcha,"Calle Suecia 339, Cusco 0084 Peru",Cusco ,4.5,691,$$ - $$$,indef,-13.515477180480957,-71.97915649414062,https://www.tripadvisor.com.br/Restaurant_Review-g294314-d6638628-Reviews-Restaurant_Sumaqcha-Cusco_Cusco_Region.html
14849266,La Vespa Bistrot,"Calle Tandapata 829 Altura Templo de San Blas, Cusco 08003 Peru",Cusco ,5.0,172,$$ - $$$,R$ 26 - R$ 79,-13.514556884765625,-71.97422790527344,https://www.tripadvisor.com.br/Restaurant_Review-g294314-d14849266-Reviews-La_Vespa_Bistrot-Cusco_Cusco_Region.html
13333713,Balkon Azul Restaurant,"Calle Espaderos 116 Located half a block from the Plaza de Armas, Cusco 08000 Peru",Cusco ,4.5,204,$$ - $$$,R$ 7 - R$ 69,-13.516571998596191,-71.97978210449219,https://www.tripadvisor.com.br/Restaurant_Review-g294314-d13333713-Reviews-Balkon_Azul_Restaurant-Cusco_Cusco_Region.html
11945741,La Osteria,"Calle Procuradores 362, Cusco 08002 Peru",Cusco ,4.5,697,$$ - $$$,R$ 42 - R$ 95,-13.515754699707031,-71.97657775878906,https://www.tripadvisor.com.br/Restaurant_Review-g294314-d11945741-Reviews-La_Osteria-Cusco_Cusco_Region.html
2411331,Yuraq Restaurant & Bar,"Avenida Pardo 1036, Cusco 084 Peru",Cusco ,4.5,378,$$ - $$$,R$ 26 - R$ 79,-13.525620460510254,-71.97305297851562,https://www.tripadvisor.com.br/Restaurant_Review-g294314-d2411331-Reviews-Yuraq_Restaurant_Bar-Cusco_Cusco_Region.html
7214062,Sepia Club Café,"Calle Zetas 390 A 100 metros del Qoricancha, Cusco 08001 Peru",Cusco ,4.5,420,$$ - $$$,R$ 5 - R$ 18,-13.519739151000977,-71.97461700439453,https://www.tripadvisor.com.br/Restaurant_Review-g294314-d7214062-Reviews-Sepia_Club_Cafe-Cusco_Cusco_Region.html
1020573,Jack's Cafe Cusco,"Choquechaka 509 It is at the corner of the streets Choquechaca and Cuesta de San Blas., Cusco Peru",Cusco ,4.5,3555,$$ - $$$,R$ 26 - R$ 53,-13.515652656555176,-71.97570037841797,https://www.tripadvisor.com.br/Restaurant_Review-g294314-d1020573-Reviews-Jack_s_Cafe_Cusco-Cusco_Cusco_Region.html
4788575,La Cantina Vino Italiano,"Saphi 554 Centro Storico, Cusco 00000 Peru",Cusco ,4.5,376,$$ - $$$,R$ 27 - R$ 82,-13.514650344848633,-71.98146057128906,https://www.tripadvisor.com.br/Restaurant_Review-g294314-d4788575-Reviews-La_Cantina_Vino_Italiano-Cusco_Cusco_Region.html
10445713,Faustina,"Calle Arequipa 159 between Maruri street and Saint Catalina Temple, Cusco 08000 Peru",Cusco ,4.5,477,$$ - $$$,R$ 53 - R$ 159,-13.518250465393066,-71.97669219970703,https://www.tripadvisor.com.br/Restaurant_Review-g294314-d10445713-Reviews-Faustina-Cusco_Cusco_Region.html
14174980,Toro Brunch & Burger,"Hatunrumiyoc 480, Cusco 08000 Peru",Cusco ,4.5,182,$$ - $$$,R$ 26 - R$ 41,-13.515860557556152,-71.97588348388672,https://www.tripadvisor.com.br/Restaurant_Review-g294314-d14174980-Reviews-Toro_Brunch_Burger-Cusco_Cusco_Region.html
4059500,LIMO peruano nikkei,"Calle Portal de Carnes 236 Floor 2, Plaza de Armas, Cusco 08002 Peru",Cusco ,4.5,3288,$$$$,R$ 32 - R$ 238,-13.51601791381836,-71.97877502441406,https://www.tripadvisor.com.br/Restaurant_Review-g294314-d4059500-Reviews-LIMO_peruano_nikkei-Cusco_Cusco_Region.html
782523,Incanto ítalo peruano,"Calle Santa Catalina Angosta 135 Plaza de Armas, Cusco 08002 Peru",Cusco ,4.5,2900,$$ - $$$,R$ 79 - R$ 132,-13.51696491241455,-71.97758483886719,https://www.tripadvisor.com.br/Restaurant_Review-g294314-d782523-Reviews-Incanto_italo_peruano-Cusco_Cusco_Region.html
6161545,Limbus Resto Bar,"Calle Pasnapakana 133, Cusco CUZ84 Peru",Cusco ,5.0,9369,$$ - $$$,R$ 21 - R$ 79,-13.514026641845703,-71.97413635253906,https://www.tripadvisor.com.br/Restaurant_Review-g294314-d6161545-Reviews-Limbus_Resto_Bar-Cusco_Cusco_Region.html
3606090,XAMA VEGAN CRUDIVERO,"Calle Santa Catalina Ancha 366 B, Cusco 084 Peru",Cusco ,4.5,556,$$ - $$$,R$ 26 - R$ 53,-13.517107009887695,-71.97647094726562,https://www.tripadvisor.com.br/Restaurant_Review-g294314-d3606090-Reviews-Shaman_Vegan_Raw-Cusco_Cusco_Region.html
11705989,Andean Grill Restaurant,"Calle Plateros 363, Cusco 08002 Peru",Cusco ,4.5,859,$$ - $$$,indef,-13.515859603881836,-71.98027038574219,https://www.tripadvisor.com.br/Restaurant_Review-g294314-d11705989-Reviews-Andean_Grill_Restaurant-Cusco_Cusco_Region.html
12638336,Piedra & Sal Restaurante,"Calle Carmen Bajo 243, Cusco Peru",Cusco ,5.0,95,$$ - $$$,R$ 53 - R$ 159,-13.516035079956055,-71.97369384765625,https://www.tripadvisor.com.br/Restaurant_Review-g294314-d12638336-Reviews-Piedra_Sal_Restaurante-Cusco_Cusco_Region.html
8380866,Pankracio,"Calle Recoleta Angosta #500 Entre Miracalcetas, Chihuampata y Siete Ventanas, Cusco 08003 Peru",Cusco ,4.5,356,$,R$ 3 - R$ 12,-13.516802787780762,-71.97477722167969,https://www.tripadvisor.com.br/Restaurant_Review-g294314-d8380866-Reviews-Pankracio-Cusco_Cusco_Region.html
2523257,Prasada Veggie Food,"Choqechaka 425 y Qanchipata 269 Barrio San Blas, Cusco Peru",Cusco ,4.5,237,$,indef,-13.51331901550293,-71.97734832763672,https://www.tripadvisor.com.br/Restaurant_Review-g294314-d2523257-Reviews-Prasada_Veggie_Food-Cusco_Cusco_Region.html
10083882,La Feria Cocina Tradicional Peruana,"Portal de Panes 123 Plaza de Armas, Cusco Peru",Cusco ,4.5,806,$$ - $$$,R$ 37 - R$ 106,-13.516315460205078,-71.9793930053711,https://www.tripadvisor.com.br/Restaurant_Review-g294314-d10083882-Reviews-La_Feria_Cocina_Tradicional_Peruana-Cusco_Cusco_Region.html
1076634,MAP Café,"Plazoleta Nazarenas 231 Museo de Arte Precolombino, Cusco 08000 Peru",Cusco ,4.5,1419,$$$$,R$ 69 - R$ 317,-13.514799118041992,-71.97747802734375,https://www.tripadvisor.com.br/Restaurant_Review-g294314-d1076634-Reviews-MAP_Cafe-Cusco_Cusco_Region.html
6924228,Manka,"Calle San Agustín 224 - 2° piso Costado del Hotel Marriot, Cusco 051 Peru",Cusco ,4.5,536,$$ - $$$,R$ 42 - R$ 106,-13.517191886901855,-71.9760513305664,https://www.tripadvisor.com.br/Restaurant_Review-g294314-d6924228-Reviews-Manka-Cusco_Cusco_Region.html
3436844,Calle del Medio cocina peruana,"Calle Del Medio 113 Plaza de Armas, Cusco 08002 Peru",Cusco ,4.5,1079,$$ - $$$,R$ 53 - R$ 106,-13.51697063446045,-71.9791488647461,https://www.tripadvisor.com.br/Restaurant_Review-g294314-d3436844-Reviews-Calle_del_Medio_cocina_peruana-Cusco_Cusco_Region.html
807850,INKAGRILL,"Calle Portal de Panes 115 Plaza de Armas, Cusco 08002 Peru",Cusco ,4.5,4055,$$ - $$$,R$ 42 - R$ 211,-13.516521453857422,-71.97927856445312,https://www.tripadvisor.com.br/Restaurant_Review-g294314-d807850-Reviews-INKAGRILL-Cusco_Cusco_Region.html
11825987,Qespi Restaurant & Bar,"Calle Ruinas 432 Inside Marriot Hotel, San Agustin, Cusco 08000 Peru",Cusco ,4.5,1285,$$$$,indef,-13.516850471496582,-71.97611999511719,https://www.tripadvisor.com.br/Restaurant_Review-g294314-d11825987-Reviews-Qespi_Restaurant_Bar-Cusco_Cusco_Region.html
8764766,KION peruvian chinese,"Calle Triunfo 370, 2nd Floor Centro Histórico - Cusco, Cusco 084 Peru",Cusco ,4.5,1075,$$ - $$$,R$ 32 - R$ 159,-13.51632308959961,-71.97689819335938,https://www.tripadvisor.com.br/Restaurant_Review-g294314-d8764766-Reviews-KION_peruvian_chinese-Cusco_Cusco_Region.html
2311313,The Meeting Place,"Plazoleta San Blas 630, Cusco 12 Peru",Cusco ,4.5,620,$$ - $$$,R$ 16 - R$ 53,-13.515140533447266,-71.97408294677734,https://www.tripadvisor.com.br/Restaurant_Review-g294314-d2311313-Reviews-The_Meeting_Place-Cusco_Cusco_Region.html
2361526,Deva Restaurant Tipico,"San Agustin 280, Cusco 0000 Peru",Cusco ,4.5,816,$$ - $$$,R$ 32 - R$ 106,-13.517913818359375,-71.97564697265625,https://www.tripadvisor.com.br/Restaurant_Review-g294314-d2361526-Reviews-Deva_Restaurant_Tipico-Cusco_Cusco_Region.html
1076636,Pachapapa cocina cusqueña y más,"Plazoleta San Blas 120 San Blas, Cusco 08003 Peru",Cusco ,4.5,4118,$$ - $$$,R$ 32 - R$ 159,-13.515237808227539,-71.97468566894531,https://www.tripadvisor.com.br/Restaurant_Review-g294314-d1076636-Reviews-Pachapapa_cocina_cusquena_y_mas-Cusco_Cusco_Region.html
15313631,Inkatexas,"Calle Plateros 365 Segundo Piso, Cusco 08002 Peru",Cusco ,4.5,272,$$ - $$$,R$ 18 - R$ 62,-13.51584529876709,-71.98027801513672,https://www.tripadvisor.com.br/Restaurant_Review-g294314-d15313631-Reviews-Inkatexas-Cusco_Cusco_Region.html
3400390,Museo del Pisco,"Calle Santa Catalina Ancha 398 corner with Calle San Agustin, Cusco 08002 Peru",Cusco ,4.5,1793,$$ - $$$,R$ 53 - R$ 211,-13.516919136047363,-71.9761734008789,https://www.tripadvisor.com.br/Restaurant_Review-g294314-d3400390-Reviews-Museo_del_Pisco-Cusco_Cusco_Region.html
1086422,Granja Heidi,"Cuesta San Blas 525 2nd Floor, Cusco Peru",Cusco ,4.5,602,$$ - $$$,indef,-13.515494346618652,-71.97550201416016,https://www.tripadvisor.com.br/Restaurant_Review-g294314-d1086422-Reviews-Granja_Heidi-Cusco_Cusco_Region.html
13453976,Chalca Restaurante,"Calle Siete Cuartones 382, Cusco Peru",Cusco ,4.5,622,$,indef,-13.516125679016113,-71.98184204101562,https://www.tripadvisor.com.br/Restaurant_Review-g294314-d13453976-Reviews-Chalca_Restaurante-Cusco_Cusco_Region.html
2546270,Fuego | Burgers and Barbecue Restaurant,"Calle Plateros 358 A Half block from Main square, Cusco Peru",Cusco ,4.5,1071,$$ - $$$,R$ 26 - R$ 74,-13.51590347290039,-71.98019409179688,https://www.tripadvisor.com.br/Restaurant_Review-g294314-d2546270-Reviews-Fuego_Burgers_and_Barbecue_Restaurant-Cusco_Cusco_Region.html
3738651,Tinta Restaurante Cultural y Galeria de Arte,"Calle Espaderos 136, Cusco 08002 Peru",Cusco ,4.5,241,$$ - $$$,R$ 21 - R$ 132,-13.516676902770996,-71.97991180419922,https://www.tripadvisor.com.br/Restaurant_Review-g294314-d3738651-Reviews-Tinta_Restaurante_Cultural_y_Galeria_de_Arte-Cusco_Cusco_Region.html
11746809,Nuevo Mundo Bar,"Portal Confituria 233-B Plaza de Armas, Cusco 08000 Peru",Cusco ,4.5,201,$$ - $$$,R$ 26 - R$ 53,-13.516725540161133,-71.97950744628906,https://www.tripadvisor.com.br/Restaurant_Review-g294314-d11746809-Reviews-Nuevo_Mundo_Bar-Cusco_Cusco_Region.html
3333668,Nonna Trattoria,"San Agustín 298, Cusco Cusc 01 Peru",Cusco ,4.5,549,$$ - $$$,R$ 53 - R$ 79,-13.51811408996582,-71.97549438476562,https://www.tripadvisor.com.br/Restaurant_Review-g294314-d3333668-Reviews-Nonna_Trattoria-Cusco_Cusco_Region.html
7720858,El Tabuco,"Calle Choquechaca 124 A, Cusco 51084 Peru",Cusco ,4.5,597,$$ - $$$,indef,-13.515954971313477,-71.97555541992188,https://www.tripadvisor.com.br/Restaurant_Review-g294314-d7720858-Reviews-El_Tabuco-Cusco_Cusco_Region.html
2299266,La Bodega 138,"Herrajes 138 Cusco, Cusco Peru",Cusco ,4.5,2540,$$ - $$$,R$ 63 - R$ 106,-13.516464233398438,-71.97642517089844,https://www.tripadvisor.com.br/Restaurant_Review-g294314-d2299266-Reviews-La_Bodega_138-Cusco_Cusco_Region.html
1722871,La Pizza Carlo,"Calle 381 Maruri, Cusco Peru",Cusco ,4.5,494,$$ - $$$,indef,-13.518230438232422,-71.97563934326172,https://www.tripadvisor.com.br/Restaurant_Review-g294314-d1722871-Reviews-La_Pizza_Carlo-Cusco_Cusco_Region.html
19243891,Indian Restaurant Garhwal,"Calle Umanchata ,117, Cusco 08001 Peru",Cusco ,5.0,91,$$ - $$$,R$ 20 - R$ 57,-13.522109985351562,-71.98638153076172,https://www.tripadvisor.com.br/Restaurant_Review-g294314-d19243891-Reviews-Indian_Restaurant_Garhwal-Cusco_Cusco_Region.html
15046615,Barra Ceviche,"Plazoleta de San Blas 617 Next to the Temple of San Blas, Cusco 08003 Peru",Cusco ,5.0,133,$,R$ 14 - R$ 124,-13.514906883239746,-71.97465515136719,https://www.tripadvisor.com.br/Restaurant_Review-g294314-d15046615-Reviews-Barra_Ceviche-Cusco_Cusco_Region.html
782525,Cicciolina,"Calle Triunfo 393 2nd Floor, Cusco 08002 Peru",Cusco ,4.5,5676,$$$$,R$ 53 - R$ 79,-13.516083717346191,-71.97666931152344,https://www.tripadvisor.com.br/Restaurant_Review-g294314-d782525-Reviews-Cicciolina-Cusco_Cusco_Region.html
4555885,Casa Qorikancha,"Calle Zetas 109 2do Piso, Cusco 08000 Peru",Cusco ,4.5,448,$$ - $$$,R$ 26 - R$ 79,-13.519848823547363,-71.97498321533203,https://www.tripadvisor.com.br/Restaurant_Review-g294314-d4555885-Reviews-Casa_Qorikancha-Cusco_Cusco_Region.html
15698426,180 Eco View Bar,"Calle Tandapata 668 Detras del mercado de San Blas, Cusco 08003 Peru",Cusco ,5.0,100,$,R$ 14 - R$ 48,-13.515334129333496,-71.97331237792969,https://www.tripadvisor.com.br/Restaurant_Review-g294314-d15698426-Reviews-180_Eco_View_Bar-Cusco_Cusco_Region.html
8073247,Cholos Craft Beers,"Calle Palacio 110, Cusco Peru",Cusco ,4.5,186,$$ - $$$,R$ 21 - R$ 32,-13.515978813171387,-71.97655487060547,https://www.tripadvisor.com.br/Restaurant_Review-g294314-d8073247-Reviews-Cholos_Craft_Beers-Cusco_Cusco_Region.html
782528,Baco,"Ruinas 465, Cusco Peru",Cusco ,4.5,675,$$ - $$$,indef,-13.516352653503418,-71.97550964355469,https://www.tripadvisor.com.br/Restaurant_Review-g294314-d782528-Reviews-Baco-Cusco_Cusco_Region.html
7216326,Tacomania,"Calle Saphi 726 Interior 9, Cusco 08002 Peru",Cusco ,4.5,201,$$ - $$$,R$ 26 - R$ 53,-13.516441345214844,-71.98222351074219,https://www.tripadvisor.com.br/Restaurant_Review-g294314-d7216326-Reviews-Tacomania-Cusco_Cusco_Region.html
4750221,Mr. Soup,"Calle Garcilaso 210 2 Floor, Cusco 08000 Peru",Cusco ,4.5,757,$,indef,-13.517471313476562,-71.98049926757812,https://www.tripadvisor.com.br/Restaurant_Review-g294314-d4750221-Reviews-Mr_Soup-Cusco_Cusco_Region.html
16884814,Allpa Nina,"Calle Tigre 110, Cusco 08002 Peru",Cusco ,5.0,70,$,R$ 16 - R$ 16,-13.515209197998047,-71.98064422607422,https://www.tripadvisor.com.br/Restaurant_Review-g294314-d16884814-Reviews-Allpa_Nina-Cusco_Cusco_Region.html
10820822,El Pisonay,"Calle 7 angelitos 526, San Blas Frente al hotel Estancia San Blas, Cusco 08003 Peru",Cusco ,5.0,92,$$ - $$$,R$ 21 - R$ 106,-13.51369571685791,-71.9755630493164,https://www.tripadvisor.com.br/Restaurant_Review-g294314-d10820822-Reviews-El_Pisonay-Cusco_Cusco_Region.html
1086419,El Encuentro,"Santa Catalina Ancha 384 A 1 1/2 cuadras de Plaza de Armas, Cusco 084 Peru",Cusco ,4.5,384,$,indef,-13.517007827758789,-71.97642517089844,https://www.tripadvisor.com.br/Restaurant_Review-g294314-d1086419-Reviews-El_Encuentro-Cusco_Cusco_Region.html
4467357,Mutu Art & Eatery,"Santa Catalina Ancha 342 Only two blocks from the main square., Cusco 84 Peru",Cusco ,4.5,387,$$ - $$$,indef,-13.5171480178833,-71.97667694091797,https://www.tripadvisor.com.br/Restaurant_Review-g294314-d4467357-Reviews-Mutu_Art_Eatery-Cusco_Cusco_Region.html
10724829,Supayshi Sushi Bar,"Calle Suecia 343B Second Floor, Cusco 00084 Peru",Cusco ,4.5,245,$,R$ 26 - R$ 37,-13.515201568603516,-71.97930145263672,https://www.tripadvisor.com.br/Restaurant_Review-g294314-d10724829-Reviews-Supayshi_Sushi_Bar-Cusco_Cusco_Region.html
1099294,Divina Comedia Restaurant,"Calle Pumacurco 408 One block from Nazarenas small square, Cusco 08000 Peru",Cusco ,4.5,389,$$ - $$$,R$ 26 - R$ 264,-13.513785362243652,-71.97774505615234,https://www.tripadvisor.com.br/Restaurant_Review-g294314-d1099294-Reviews-Divina_Comedia_Restaurant-Cusco_Cusco_Region.html
3546866,Don Carlos,"Calle Ruinas 457 Cusco Peru, Cusco cusc 01 Peru",Cusco ,4.5,252,$$ - $$$,R$ 53 - R$ 106,-13.516386985778809,-71.97561645507812,https://www.tripadvisor.com.br/Restaurant_Review-g294314-d3546866-Reviews-Don_Carlos-Cusco_Cusco_Region.html
3173372,Juanito's,"Calle 7 Angelitos 638, San Blas, Cusco 084 Peru",Cusco ,4.5,244,$,R$ 11 - R$ 79,-13.513992309570312,-71.97586822509766,https://www.tripadvisor.com.br/Restaurant_Review-g294314-d3173372-Reviews-Juanito_s-Cusco_Cusco_Region.html
17544821,Wasicleta Restaurant & Bar,"Calle San Andres 477, Cusco 08002 Peru",Cusco ,5.0,54,$,R$ 11 - R$ 79,-13.521121978759766,-71.97695922851562,https://www.tripadvisor.com.br/Restaurant_Review-g294314-d17544821-Reviews-Wasicleta_Restaurant_Bar-Cusco_Cusco_Region.html
5978876,Papachos,"Portal de Belen 115 Plaza de Armas, Cusco 0801 Peru",Cusco ,4.5,2004,$$ - $$$,indef,-13.516867637634277,-71.97769165039062,https://www.tripadvisor.com.br/Restaurant_Review-g294314-d5978876-Reviews-Papachos-Cusco_Cusco_Region.html
12128634,Las Frescas,"Calle Saphi 478, Cusco Peru",Cusco ,5.0,115,$,R$ 7 - R$ 14,-13.514825820922852,-71.98123168945312,https://www.tripadvisor.com.br/Restaurant_Review-g294314-d12128634-Reviews-Las_Frescas-Cusco_Cusco_Region.html
8619233,Insomnia Lounge Bar,"Calle Suecia 380 A, Cusco 08000 Peru",Cusco ,5.0,135,$$ - $$$,R$ 16 - R$ 34,-13.515176773071289,-71.97929382324219,https://www.tripadvisor.com.br/Restaurant_Review-g294314-d8619233-Reviews-Insomnia_Lounge_Bar-Cusco_Cusco_Region.html
17734708,Luigi's Pizza,"Calle Saphi 476 A una cuadra y media de la Plaza de Armas, Cusco 08002 Peru",Cusco ,5.0,56,$$ - $$$,R$ 11 - R$ 132,-13.514862060546875,-71.9811782836914,https://www.tripadvisor.com.br/Restaurant_Review-g294314-d17734708-Reviews-Luigi_s_Pizza-Cusco_Cusco_Region.html
1493624,Bagdad Cafe,"Portal de Carnes 216 Plaza de Armas, Cusco Peru",Cusco ,4.5,319,$$ - $$$,indef,-13.516111373901367,-71.97868347167969,https://www.tripadvisor.com.br/Restaurant_Review-g294314-d1493624-Reviews-Bagdad_Cafe-Cusco_Cusco_Region.html
8588672,Mamaji Restaurant,"Avenida El Sol, 954, Cusco 005184 Peru",Cusco ,4.5,123,$$ - $$$,indef,-13.524724960327148,-71.9732666015625,https://www.tripadvisor.com.br/Restaurant_Review-g294314-d8588672-Reviews-Mamaji_Restaurant-Cusco_Cusco_Region.html
10807748,Subway Cusco,"Calle Santa Teresa 383-5 A Media Cuadra DE Plaza Regocijo, Cusco Peru",Cusco ,4.5,117,$,R$ 12 - R$ 27,-13.515856742858887,-71.98109436035156,https://www.tripadvisor.com.br/Restaurant_Review-g294314-d10807748-Reviews-Subway_Cusco-Cusco_Cusco_Region.html
1381283,Chicha por Gaston Acurio,"Calle Plaza Regocijo 261 - 2 piso Centro de Cusco, Cusco 84 Peru",Cusco ,4.0,5277,$$$$,R$ 95 - R$ 423,-13.517112731933594,-71.98055267333984,https://www.tripadvisor.com.br/Restaurant_Review-g294314-d1381283-Reviews-Chicha_por_Gaston_Acurio-Cusco_Cusco_Region.html
1026205,Fallen Angel,"Plazoleta Nazarenas 221, Cusco Peru",Cusco ,4.0,1087,$$ - $$$,R$ 79 - R$ 106,-13.515052795410156,-71.9776840209961,https://www.tripadvisor.com.br/Restaurant_Review-g294314-d1026205-Reviews-Fallen_Angel-Cusco_Cusco_Region.html
13942826,Cafe Manos Unidas,"Pasaje Inca Roca 106 Parallel to the 12 angled stone, in a small pedestrian alley, Cusco 08002 Peru",Cusco ,5.0,56,$,R$ 4 - R$ 27,-13.516280174255371,-71.97586822509766,https://www.tripadvisor.com.br/Restaurant_Review-g294314-d13942826-Reviews-Cafe_Manos_Unidas-Cusco_Cusco_Region.html
6539612,NaturAle Cusco,"Calle Carmen Bajo 169 San Blas, Cusco cusc 01 Peru",Cusco ,4.5,158,$$ - $$$,R$ 14 - R$ 14,-13.515503883361816,-71.97433471679688,https://www.tripadvisor.com.br/Restaurant_Review-g294314-d6539612-Reviews-NaturAle_Cusco-Cusco_Cusco_Region.html
8492877,Pisco Carajo,"Calle Plateros 326 Second Floor, Cusco 08002 Peru",Cusco ,4.5,172,$$ - $$$,R$ 53 - R$ 79,-13.516337394714355,-71.97970581054688,https://www.tripadvisor.com.br/Restaurant_Review-g294314-d8492877-Reviews-Pisco_Carajo-Cusco_Cusco_Region.html
17629856,The Rebel Table,"Calle Siete Angelitos 619, Cusco 08003 Peru",Cusco ,5.0,48,$,R$ 7 - R$ 11,-13.513665199279785,-71.9755630493164,https://www.tripadvisor.com.br/Restaurant_Review-g294314-d17629856-Reviews-The_Rebel_Table-Cusco_Cusco_Region.html
1821192,Restaurant Cafe Bar Pucara,"Calle Plateros, 309, Cusco Peru",Cusco ,4.0,300,$$ - $$$,indef,-13.51648235321045,-71.97931671142578,https://www.tripadvisor.com.br/Restaurant_Review-g294314-d1821192-Reviews-Restaurant_Cafe_Bar_Pucara-Cusco_Cusco_Region.html
2073705,Los Perros Cusco Since 1997,"Tecsecocha 436, Cusco 08200 Peru",Cusco ,4.0,297,$$ - $$$,indef,-13.514851570129395,-71.98040771484375,https://www.tripadvisor.com.br/Restaurant_Review-g294314-d2073705-Reviews-Los_Perros_Cusco_Since_1997-Cusco_Cusco_Region.html
2210625,Justina,"Calle palacio, Cusco Peru",Cusco ,4.5,235,$$ - $$$,indef,-13.515921592712402,-71.97638702392578,https://www.tripadvisor.com.br/Restaurant_Review-g294314-d2210625-Reviews-Justina-Cusco_Cusco_Region.html
12208592,La Fabrica Sports Bar,"Calle Santa Catalina 360, Cusco Peru",Cusco ,4.5,260,$$ - $$$,R$ 25 - R$ 62,-13.517062187194824,-71.9765853881836,https://www.tripadvisor.com.br/Restaurant_Review-g294314-d12208592-Reviews-La_Fabrica_Sports_Bar-Cusco_Cusco_Region.html
1673491,The Curry House Korma Sutra,"Calle Teatro 382 Interior 9, Cusco 08002 Peru",Cusco ,4.5,353,$$ - $$$,R$ 42 - R$ 106,-13.516358375549316,-71.98213958740234,https://www.tripadvisor.com.br/Restaurant_Review-g294314-d1673491-Reviews-The_Curry_House_Korma_Sutra-Cusco_Cusco_Region.html
15234628,The bistro 390,"Calle Santa Catalina Angosta 390, Cusco 08002 Peru",Cusco ,4.5,80,$$ - $$$,indef,-13.516718864440918,-71.97618865966797,https://www.tripadvisor.com.br/Restaurant_Review-g294314-d15234628-Reviews-The_bistro_390-Cusco_Cusco_Region.html
13991237,Pizzeria Trattoria Casa Grande Cusco,"Calle Santa Catalina # 357, Cusco 08000 Peru",Cusco ,4.5,104,$$ - $$$,indef,-13.517078399658203,-71.97673034667969,https://www.tripadvisor.com.br/Restaurant_Review-g294314-d13991237-Reviews-Pizzeria_Trattoria_Casa_Grande_Cusco-Cusco_Cusco_Region.html
2012071,Tunupa Restaurant,"Portal Confituria # 233 Plaza de Armas, Cusco 08001 Peru",Cusco ,4.0,668,$$ - $$$,indef,-13.51678466796875,-71.97942352294922,https://www.tripadvisor.com.br/Restaurant_Review-g294314-d2012071-Reviews-Tunupa_Restaurant-Cusco_Cusco_Region.html
4263360,Papillon Restaurant,"Portal De Carnes 260, Cusco 051 Peru",Cusco ,4.0,425,$$ - $$$,R$ 21 - R$ 63,-13.516115188598633,-71.97882080078125,https://www.tripadvisor.com.br/Restaurant_Review-g294314-d4263360-Reviews-Papillon_Restaurant-Cusco_Cusco_Region.html
15527170,Sama Restaurante Café,"Calle Santa Catalina Angosta 149 Casa Andina Standard Cusco Catedral, Cusco 08002 Peru",Cusco ,5.0,48,$$ - $$$,R$ 37 - R$ 79,-13.517129898071289,-71.97738647460938,https://www.tripadvisor.com.br/Restaurant_Review-g294314-d15527170-Reviews-Sama_Restaurante_Cafe-Cusco_Cusco_Region.html
3137181,Antojitos Cusco,"Calle Marquez 284 Cerca A La Plaza San Francisco, Cusco 08002 Peru",Cusco ,4.0,202,$,R$ 69 - R$ 148,-13.518824577331543,-71.980712890625,https://www.tripadvisor.com.br/Restaurant_Review-g294314-d3137181-Reviews-Antojitos_Cusco-Cusco_Cusco_Region.html
1637534,Paddy's Irish Pub,"24 Calle Triunfo Plaza des Armas, Cusco Peru",Cusco ,4.0,995,$$ - $$$,indef,-13.516790390014648,-71.97769927978516,https://www.tripadvisor.com.br/Restaurant_Review-g294314-d1637534-Reviews-Paddy_s_Irish_Pub-Cusco_Cusco_Region.html
4586809,Qori Sara Cusco,"Cal. Horacio Mayo la Rosa H-5 Frente al supermercado Orion de la av cultura, Cusco 08002 Peru",Cusco ,4.5,137,$,indef,-13.517951965332031,-71.98114776611328,https://www.tripadvisor.com.br/Restaurant_Review-g294314-d4586809-Reviews-Qori_Sara_Cusco-Cusco_Cusco_Region.html
2073426,La Retama Restaurant,"Portal de Harinas N° 191 Second Floor, Cusco 08000 Peru",Cusco ,4.0,216,$$ - $$$,R$ 42 - R$ 159,-13.515893936157227,-71.97895812988281,https://www.tripadvisor.com.br/Restaurant_Review-g294314-d2073426-Reviews-La_Retama_Restaurant-Cusco_Cusco_Region.html
3528912,Senzo,"Belmond Palacio Nazarenas Calle Palacio 144, Cusco 84 Peru",Cusco ,4.5,200,$$$$,indef,-13.51449966430664,-71.97697448730469,https://www.tripadvisor.com.br/Restaurant_Review-g294314-d3528912-Reviews-Senzo-Cusco_Cusco_Region.html
5999561,El Cuadro Restaurant Bar Grill,"Calle Heladeros S/N corner Plazoleta Cabildo, Cusco 0 084 Peru",Cusco ,4.0,277,$$ - $$$,indef,-13.517502784729004,-71.98017120361328,https://www.tripadvisor.com.br/Restaurant_Review-g294314-d5999561-Reviews-El_Cuadro_Restaurant_Bar_Grill-Cusco_Cusco_Region.html
8489319,Amaranto Anticuchos Grill and Coffee,"Calle Carmen Alto # 281 San Blas Neighborhood, Cusco 0800 Peru",Cusco ,4.5,123,$$ - $$$,indef,-13.513755798339844,-71.97620391845703,https://www.tripadvisor.com.br/Restaurant_Review-g294314-d8489319-Reviews-Amaranto_Anticuchos_Grill_and_Coffee-Cusco_Cusco_Region.html
3536786,Divina Rosa,"Huaynapata 410, Cusco Peru",Cusco ,4.5,126,$,indef,-13.514739036560059,-71.97955322265625,https://www.tripadvisor.com.br/Restaurant_Review-g294314-d3536786-Reviews-Divina_Rosa-Cusco_Cusco_Region.html
10723149,Sancho Panza | Pintxos y Tapas,"Calle Suecia 343 C, Cusco 08002 Peru",Cusco ,4.5,101,$$ - $$$,R$ 4 - R$ 11,-13.53602123260498,-71.90525817871094,https://www.tripadvisor.com.br/Restaurant_Review-g294314-d10723149-Reviews-Sancho_Panza_Pintxos_y_Tapas-Cusco_Cusco_Region.html
2660629,El Molino,"Calle Plateros No. 339, Cusco Peru",Cusco ,4.5,96,$$ - $$$,indef,-13.516227722167969,-71.98002624511719,https://www.tripadvisor.com.br/Restaurant_Review-g294314-d2660629-Reviews-El_Molino-Cusco_Cusco_Region.html
2275096,La Caverne del Oriente,"Plazoleta San Blas 646 Junto al Templo y Plaza de San Blas, Cusco 08003 Peru",Cusco ,4.5,121,$$ - $$$,R$ 38 - R$ 48,-13.51490592956543,-71.97389221191406,https://www.tripadvisor.com.br/Restaurant_Review-g294314-d2275096-Reviews-La_Caverne_del_Oriente-Cusco_Cusco_Region.html
1456662,El Meson de Don Tomas,"Calle Santa Catalina Angosta 169, Cusco 08002 Peru",Cusco ,4.0,820,$$ - $$$,R$ 53 - R$ 106,-13.51723861694336,-71.97728729248047,https://www.tripadvisor.com.br/Restaurant_Review-g294314-d1456662-Reviews-El_Meson_de_Don_Tomas-Cusco_Cusco_Region.html
7705089,Waykiss,"Calle Choquechaka # 229, Cusco 08001 Peru",Cusco ,5.0,58,$,indef,-13.514657020568848,-71.97659301757812,https://www.tripadvisor.com.br/Restaurant_Review-g294314-d7705089-Reviews-Waykiss-Cusco_Cusco_Region.html
2241099,Bambu Sushi & Noodle bar,"Procuradores 347 Centro Historico, Cusco Peru",Cusco ,4.5,255,$$ - $$$,R$ 26 - R$ 63,-13.515542030334473,-71.97941589355469,https://www.tripadvisor.com.br/Restaurant_Review-g294314-d2241099-Reviews-Bambu_Sushi_Noodle_bar-Cusco_Cusco_Region.html
2039544,Quinta Eulalia,"Calle Choquechaca 384, Cusco Peru",Cusco ,4.0,147,$$ - $$$,indef,-13.51331901550293,-71.97706604003906,https://www.tripadvisor.com.br/Restaurant_Review-g294314-d2039544-Reviews-Quinta_Eulalia-Cusco_Cusco_Region.html
1479258,Los Toldos Chicken,"171 Almagro Street Corner with Calle San Andres., Cusco 5184 Peru",Cusco ,4.0,485,$,R$ 16 - R$ 90,-13.51926040649414,-71.97880554199219,https://www.tripadvisor.com.br/Restaurant_Review-g294314-d1479258-Reviews-Los_Toldos_Chicken-Cusco_Cusco_Region.html
19076951,Mr. Ceviche - Barra Cevichera,"Avenida Tullumayo 874, Cusco 08002 Peru",Cusco ,5.0,44,$,R$ 27 - R$ 52,-13.524084091186523,-71.97290802001953,https://www.tripadvisor.com.br/Restaurant_Review-g294314-d19076951-Reviews-Mr_Ceviche_Barra_Cevichera-Cusco_Cusco_Region.html
12912956,Takysan Sushi Bar,"Cuesta Santa Ana 644, Cusco 08000 Peru",Cusco ,4.5,90,$,R$ 14 - R$ 48,-13.514913558959961,-71.98461151123047,https://www.tripadvisor.com.br/Restaurant_Review-g294314-d12912956-Reviews-Takysan_Sushi_Bar-Cusco_Cusco_Region.html
12272612,Pankracio,"Calle 7 Cuartones 249 One block from Sunat, Cusco 08002 Peru",Cusco ,4.5,68,$,R$ 10 - R$ 18,-13.516274452209473,-71.98219299316406,https://www.tripadvisor.com.br/Restaurant_Review-g294314-d12272612-Reviews-Pankracio-Cusco_Cusco_Region.html
15152439,Kintaro,"Calle Plateros 334 Near to Plaza de Armas, Cusco 08002 Peru",Cusco ,4.0,360,$$ - $$$,R$ 26 - R$ 63,-13.516071319580078,-71.97992706298828,https://www.tripadvisor.com.br/Restaurant_Review-g294314-d15152439-Reviews-Kintaro-Cusco_Cusco_Region.html
7716780,Kusi,"Calle Choquechaca 115 2nd Piso, Cusco Peru",Cusco ,4.5,79,$,indef,-13.515603065490723,-71.9757308959961,https://www.tripadvisor.com.br/Restaurant_Review-g294314-d7716780-Reviews-Kusi-Cusco_Cusco_Region.html
10492698,Belmond Hotel Monasterio,"Calle Palacio 140, Cusco 5184 Peru",Cusco ,4.5,82,$$$$,indef,-13.515180587768555,-71.97660064697266,https://www.tripadvisor.com.br/Restaurant_Review-g294314-d10492698-Reviews-Belmond_Hotel_Monasterio-Cusco_Cusco_Region.html
8472651,La Paccha Café,"Calle Tandapata 676-B San Blas, Cusco 084 Peru",Cusco ,4.5,75,$,R$ 7 - R$ 48,-13.515113830566406,-71.9737319946289,https://www.tripadvisor.com.br/Restaurant_Review-g294314-d8472651-Reviews-La_Paccha_Cafe-Cusco_Cusco_Region.html
8692492,Cholos Grill,"Calle Plateros 323, 084, Cusco Peru",Cusco ,4.0,209,$$ - $$$,indef,-13.516321182250977,-71.97978973388672,https://www.tripadvisor.com.br/Restaurant_Review-g294314-d8692492-Reviews-Cholos_Grill-Cusco_Cusco_Region.html
10145574,Prasada The Vegan Temple,"Choquechaca 425, Cusco 08471 Peru",Cusco ,5.0,53,$$ - $$$,R$ 26 - R$ 53,-13.513280868530273,-71.97726440429688,https://www.tripadvisor.com.br/Restaurant_Review-g294314-d10145574-Reviews-Prasada_The_Vegan_Temple-Cusco_Cusco_Region.html
8036736,El Encuentro,"Calle Tigre 130, Cusco 244643 Peru",Cusco ,4.5,87,$,indef,-13.515093803405762,-71.98043823242188,https://www.tripadvisor.com.br/Restaurant_Review-g294314-d8036736-Reviews-El_Encuentro-Cusco_Cusco_Region.html
12462757,Allin Trattoria Pizzería,"Calle Meloc 479 Centro histórico, Cusco 08002 Peru",Cusco ,5.0,58,$,R$ 16 - R$ 48,-13.516057968139648,-71.98358917236328,https://www.tripadvisor.com.br/Restaurant_Review-g294314-d12462757-Reviews-Allin_Trattoria_Pizzeria-Cusco_Cusco_Region.html
5065057,Sumaq,"Angelitos 7 casi esquina Carmen Alto, Cusco Peru",Cusco ,4.5,177,$$ - $$$,indef,-13.513644218444824,-71.97543334960938,https://www.tripadvisor.com.br/Restaurant_Review-g294314-d5065057-Reviews-Sumaq-Cusco_Cusco_Region.html
2623626,Pizzeria-Cafe Dinos,"278-B Choquechaka St, Cusco Peru",Cusco ,4.5,104,$$ - $$$,indef,-13.514324188232422,-71.97655487060547,https://www.tripadvisor.com.br/Restaurant_Review-g294314-d2623626-Reviews-Pizzeria_Cafe_Dinos-Cusco_Cusco_Region.html
2141865,Urpi,"Tecsecocha #149, Cusco 511 Peru",Cusco ,4.5,133,$$ - $$$,R$ 16 - R$ 106,-13.51513957977295,-71.9800796508789,https://www.tripadvisor.com.br/Restaurant_Review-g294314-d2141865-Reviews-Urpi-Cusco_Cusco_Region.html
2617372,Restaurante El Palacio del Inka,"Carretera Circunvalacion Z - 10, Cusco 13 Peru",Cusco ,4.5,68,$$ - $$$,R$ 42 - R$ 79,-13.51913070678711,-71.97525787353516,https://www.tripadvisor.com.br/Restaurant_Review-g294314-d2617372-Reviews-Restaurante_El_Palacio_del_Inka-Cusco_Cusco_Region.html
2286001,El Meson de Espaderos,"Espaderos 105, Cusco Peru",Cusco ,4.0,503,$$ - $$$,indef,-13.516539573669434,-71.97953033447266,https://www.tripadvisor.com.br/Restaurant_Review-g294314-d2286001-Reviews-El_Meson_de_Espaderos-Cusco_Cusco_Region.html
1086416,Don Antonio,"Santa Teresa 356, Cusco 084 Peru",Cusco ,4.0,283,$$ - $$$,indef,-13.51599407196045,-71.98095703125,https://www.tripadvisor.com.br/Restaurant_Review-g294314-d1086416-Reviews-Don_Antonio-Cusco_Cusco_Region.html
17556189,Pizzería Punto Napoli,"Calle Choqechaka 136, Cusco Peru",Cusco ,5.0,33,$,R$ 27 - R$ 62,0.0,0.0,https://www.tripadvisor.com.br/Restaurant_Review-g294314-d17556189-Reviews-Pizzeria_Punto_Napoli-Cusco_Cusco_Region.html
3484185,La Cusquenita Tradicional Picnteria,"Avenida Centenario No. 800 Wanchaq, Cusco 08002 Peru",Cusco ,4.0,1018,$$ - $$$,R$ 21 - R$ 74,-13.52333927154541,-71.97257995605469,https://www.tripadvisor.com.br/Restaurant_Review-g294314-d3484185-Reviews-La_Cusquenita_Tradicional_Picnteria-Cusco_Cusco_Region.html
14159365,SanCris Restobar Mirador,"Calle Pumacurco 650 Barrio San Cristobal, Cusco 08002 Peru",Cusco ,5.0,52,$,R$ 5 - R$ 14,-13.51128101348877,-71.97903442382812,https://www.tripadvisor.com.br/Restaurant_Review-g294314-d14159365-Reviews-SanCris_Restobar_Mirador-Cusco_Cusco_Region.html
2314957,Don Marcelo,"Calle Santa Catalina Angosta 115, Cusco 08002 Peru",Cusco ,4.0,622,$$ - $$$,indef,-13.516944885253906,-71.97798919677734,https://www.tripadvisor.com.br/Restaurant_Review-g294314-d2314957-Reviews-Don_Marcelo-Cusco_Cusco_Region.html
10227558,Paprika Restaurante Cusco,"Calle Santa Teresa 344 Estamos a 150 metros de la Plaza de Armas de la ciudad, Cusco 08002 Peru",Cusco ,4.5,115,$$ - $$$,R$ 48 - R$ 76,-13.515578269958496,-71.98069763183594,https://www.tripadvisor.com.br/Restaurant_Review-g294314-d10227558-Reviews-Paprika_Restaurante_Cusco-Cusco_Cusco_Region.html
14071504,El Choklo Peruvian Food,"Calle Plateros 348.A a media cuadra de la Plaza de Armas, Cusco 08002 Peru",Cusco ,4.5,69,$$ - $$$,R$ 25 - R$ 82,-13.515928268432617,-71.98018646240234,https://www.tripadvisor.com.br/Restaurant_Review-g294314-d14071504-Reviews-El_Choklo_Peruvian_Food-Cusco_Cusco_Region.html
3540244,El Tupay Restaurant,"Calle Plazoleta Nazarenas 337 Plazoleta Nazarenas, Cusco Peru",Cusco ,4.5,110,$$$$,indef,indef,indef,https://www.tripadvisor.com.br/Restaurant_Review-g294314-d3540244-Reviews-El_Tupay_Restaurant-Cusco_Cusco_Region.html
4154993,Sumac,"Calle Choquechaca 424, Cusco Peru",Cusco ,4.5,46,$$ - $$$,indef,-13.51485824584961,-71.97486877441406,https://www.tripadvisor.com.br/Restaurant_Review-g294314-d4154993-Reviews-Sumac-Cusco_Cusco_Region.html
8055716,Quilla Restobar,"Calle Triunfo 338 INT 203 Next to the Cathederal, Cusco 08002 Peru",Cusco ,4.0,133,$$ - $$$,R$ 21 - R$ 63,-13.516521453857422,-71.97726440429688,https://www.tripadvisor.com.br/Restaurant_Review-g294314-d8055716-Reviews-Quilla_Restobar-Cusco_Cusco_Region.html
1569998,Sara: The Organic Cafe Bistro,"Santa Catalina Ancha 370, Cusco 051 Peru",Cusco ,4.0,316,$$ - $$$,R$ 26 - R$ 79,-13.517057418823242,-71.9764404296875,https://www.tripadvisor.com.br/Restaurant_Review-g294314-d1569998-Reviews-Sara_The_Organic_Cafe_Bistro-Cusco_Cusco_Region.html
22974422,Local,"Calle Cuesta San Blas 525, Cusco 08003 Peru",Cusco ,5.0,24,$,R$ 16 - R$ 63,-13.551968574523926,-72.06916809082031,https://www.tripadvisor.com.br/Restaurant_Review-g294314-d22974422-Reviews-Local-Cusco_Cusco_Region.html
20114016,Moray Restaurant,"Calle Concebidayoc 107, Cusco 08002 Peru",Cusco ,5.0,30,$$ - $$$,R$ 21 - R$ 95,-13.519450187683105,-71.9816665649414,https://www.tripadvisor.com.br/Restaurant_Review-g294314-d20114016-Reviews-Moray_Restaurant-Cusco_Cusco_Region.html
1086409,Chez Maggy Pizzerias,"Calles 365, Cusco 0054 Peru",Cusco ,4.0,563,$$ - $$$,R$ 16 - R$ 53,-13.51549243927002,-71.97954559326172,https://www.tripadvisor.com.br/Restaurant_Review-g294314-d1086409-Reviews-Chez_Maggy_Pizzerias-Cusco_Cusco_Region.html
4085297,Pacha Mamma Restaurant,"Calle Plateros 310, Cusco Peru",Cusco ,4.0,336,$$ - $$$,indef,-13.51640796661377,-71.97968292236328,https://www.tripadvisor.com.br/Restaurant_Review-g294314-d4085297-Reviews-Pacha_Mamma_Restaurant-Cusco_Cusco_Region.html
14797688,PER.UK Sucursal,"Calle Tigre 110 One block from the Plaza de Armas, Cusco 08002 Peru",Cusco ,5.0,33,$$ - $$$,R$ 5 - R$ 16,-13.515378952026367,-71.97913360595703,https://www.tripadvisor.com.br/Restaurant_Review-g294314-d14797688-Reviews-PER_UK_Sucursal-Cusco_Cusco_Region.html
11981944,Saborita Snack Pizzeria,"Calle Ayacucho 235 cercado A un costado del Hotel Tambo., Cusco 08002 Peru",Cusco ,5.0,38,$,R$ 3 - R$ 18,-13.52097225189209,-71.97875213623047,https://www.tripadvisor.com.br/Restaurant_Review-g294314-d11981944-Reviews-Saborita_Snack_Pizzeria-Cusco_Cusco_Region.html
14008713,TikaSara Restaurant,"Santa Catalina Ancha Street N° 370 Near Machupicchu's Museum, Cusco 08002 Peru",Cusco ,4.5,47,$$ - $$$,R$ 32 - R$ 106,-13.51705265045166,-71.97644805908203,https://www.tripadvisor.com.br/Restaurant_Review-g294314-d14008713-Reviews-TikaSara_Restaurant-Cusco_Cusco_Region.html
10226681,La Quinta Comida Peruana,"Esquina de Av Tullumayu y Av Sol plaza Pumaqchupan 874, Cusco 084 Peru",Cusco ,4.5,168,$$ - $$$,R$ 21 - R$ 90,-13.523992538452148,-71.97291564941406,https://www.tripadvisor.com.br/Restaurant_Review-g294314-d10226681-Reviews-La_Quinta_Comida_Peruana-Cusco_Cusco_Region.html
15027049,Green Falafel,"Calle Siete Angelitos 662 Antiguamente restaurante Sumaq II, Cusco 08003 Peru",Cusco ,4.5,41,$,R$ 16 - R$ 26,-13.515121459960938,-71.9759521484375,https://www.tripadvisor.com.br/Restaurant_Review-g294314-d15027049-Reviews-Green_Falafel-Cusco_Cusco_Region.html
2218612,La Chomba Ajha Wasi,"Av. Tullumayo 339 Wooden doorway, Cusco Peru",Cusco ,4.0,184,$$ - $$$,indef,-13.517803192138672,-71.97406768798828,https://www.tripadvisor.com.br/Restaurant_Review-g294314-d2218612-Reviews-La_Chomba_Ajha_Wasi-Cusco_Cusco_Region.html
4453062,Cava Mora Restobar,"Plaza des Armas, Cusco Peru",Cusco ,4.0,227,$$ - $$$,indef,-13.517324447631836,-71.97875213623047,https://www.tripadvisor.com.br/Restaurant_Review-g294314-d4453062-Reviews-Cava_Mora_Restobar-Cusco_Cusco_Region.html
13161979,La Divina Patricia,"Calle Quera 259 Ejército, Cusco 08003 Peru",Cusco ,4.5,96,$$ - $$$,R$ 21 - R$ 106,-13.519819259643555,-71.97956848144531,https://www.tripadvisor.com.br/Restaurant_Review-g294314-d13161979-Reviews-La_Divina_Patricia-Cusco_Cusco_Region.html
13995282,Japeita,"Avenida de la cultura 2134 paradero Magisterio Wanchaq, Cusco 08002 Peru",Cusco ,5.0,33,$,R$ 7 - R$ 34,-13.507240295410156,-71.98884582519531,https://www.tripadvisor.com.br/Restaurant_Review-g294314-d13995282-Reviews-Japeita-Cusco_Cusco_Region.html
2458136,Encantasqa,"Choquechaca 131, Cusco Cusco Peru",Cusco ,4.5,142,$$ - $$$,R$ 13 - R$ 58,-13.51547908782959,-71.97579193115234,https://www.tripadvisor.com.br/Restaurant_Review-g294314-d2458136-Reviews-Encantasqa-Cusco_Cusco_Region.html
3195576,Valentina Restaurant,"Pardo Ave. Interseccion With El Sol Ave. # 1089, Cusco Peru",Cusco ,3.5,437,$$ - $$$,R$ 53 - R$ 106,-13.525167465209961,-71.97258758544922,https://www.tripadvisor.com.br/Restaurant_Review-g294314-d3195576-Reviews-Valentina_Restaurant-Cusco_Cusco_Region.html
4855390,KM 0,"Tandapata 100 San blas, Cusco Peru",Cusco ,4.0,177,$$ - $$$,indef,-13.514628410339355,-71.97416687011719,https://www.tripadvisor.com.br/Restaurant_Review-g294314-d4855390-Reviews-KM_0-Cusco_Cusco_Region.html
13398857,Amazonia Restaurante,"Calle Ruinas 463 Frente al Hotel Ruinas, Cusco Peru",Cusco ,5.0,53,$$ - $$$,R$ 4 - R$ 55,-13.516435623168945,-71.97564697265625,https://www.tripadvisor.com.br/Restaurant_Review-g294314-d13398857-Reviews-Amazonia_Restaurante-Cusco_Cusco_Region.html
15780392,Sub Art Cusco,"Calle Santa Teresa 383, Cusco 08002 Peru",Cusco ,5.0,33,$,R$ 16 - R$ 53,-13.516091346740723,-71.98114776611328,https://www.tripadvisor.com.br/Restaurant_Review-g294314-d15780392-Reviews-Sub_Art_Cusco-Cusco_Cusco_Region.html
17871526,Palate Pizza & Burger Bar Cusco,"Pasaje Sapantiana 424B Plaza de Armas del Cusco Barrio San Cristobal, Cusco 08002 Peru",Cusco ,5.0,23,$,R$ 16 - R$ 38,-13.511685371398926,-71.97858428955078,https://www.tripadvisor.com.br/Restaurant_Review-g294314-d17871526-Reviews-Palate_Pizza_Burger_Bar_Cusco-Cusco_Cusco_Region.html
8683976,Picarones Ruinas,"Calle Ruinas, Cusco Peru",Cusco ,4.5,62,$,indef,-13.516356468200684,-71.97531127929688,https://www.tripadvisor.com.br/Restaurant_Review-g294314-d8683976-Reviews-Picarones_Ruinas-Cusco_Cusco_Region.html
5262402,El Paisa - Restaurant Norteno,"Av. El Sol #819 Cusco, Cusco 08001 Peru",Cusco ,4.0,195,$$ - $$$,indef,-13.523384094238281,-71.97378540039062,https://www.tripadvisor.com.br/Restaurant_Review-g294314-d5262402-Reviews-El_Paisa_Restaurant_Norteno-Cusco_Cusco_Region.html
8856157,Estancia Andina,"Portal De Panes 147 Plaza De Armas, Cusco Peru",Cusco ,4.0,128,$$ - $$$,indef,-13.516122817993164,-71.97920989990234,https://www.tripadvisor.com.br/Restaurant_Review-g294314-d8856157-Reviews-Estancia_Andina-Cusco_Cusco_Region.html
2309158,Trattoria Adriano,"Calle Mantas 105 corner of Av Sol, Cusco Peru",Cusco ,3.5,520,$$ - $$$,indef,-13.51772403717041,-71.97886657714844,https://www.tripadvisor.com.br/Restaurant_Review-g294314-d2309158-Reviews-Trattoria_Adriano-Cusco_Cusco_Region.html
4366295,El Muelle de Tono,"Plazoleta Santo Domingo 275, Cusco 08000 Peru",Cusco ,4.5,115,$$ - $$$,R$ 42 - R$ 79,-13.519681930541992,-71.9753646850586,https://www.tripadvisor.com.br/Restaurant_Review-g294314-d4366295-Reviews-El_Muelle_de_Tono-Cusco_Cusco_Region.html
1906456,Pachamama,"Calle Carmen Alto 149 San Blas, Cusco Peru",Cusco ,4.0,193,$$ - $$$,indef,-13.516404151916504,-71.97962951660156,https://www.tripadvisor.com.br/Restaurant_Review-g294314-d1906456-Reviews-Pachamama-Cusco_Cusco_Region.html
3583796,Govinda Lila,"Carmen Bajo 225 3 Blocks from San Blas Plaza in the Market., Cusco Peru",Cusco ,4.5,44,$,R$ 8 - R$ 10,-13.515663146972656,-71.97282409667969,https://www.tripadvisor.com.br/Restaurant_Review-g294314-d3583796-Reviews-Govinda_Lila-Cusco_Cusco_Region.html
2344113,Blue Alpaca Restaurant,"Calle Choquechaca nro. 278, segundo piso A la Mitad de la Calle, Cusco Peru",Cusco ,4.5,147,$,indef,-13.514225959777832,-71.97661590576172,https://www.tripadvisor.com.br/Restaurant_Review-g294314-d2344113-Reviews-Blue_Alpaca_Restaurant-Cusco_Cusco_Region.html
5015751,Restaurante Taytafe,"Av. La Cultura A9 - Marcavalle, Cusco 08003 Peru",Cusco ,4.5,182,$$ - $$$,indef,-13.52728271484375,-71.94667053222656,https://www.tripadvisor.com.br/Restaurant_Review-g294314-d5015751-Reviews-Restaurante_Taytafe-Cusco_Cusco_Region.html
13342204,Last Supper Restaurant,"Calle Procuradores 341 Plaza de Armas, Floor 2, Cusco Peru",Cusco ,5.0,46,$,R$ 7 - R$ 52,-13.515759468078613,-71.97924041748047,https://www.tripadvisor.com.br/Restaurant_Review-g294314-d13342204-Reviews-Last_Supper_Restaurant-Cusco_Cusco_Region.html
19391315,Torus Restobar,"Jardines del Inca E1 Calle C San Blas 3ER Piso, Cusco 08003 Peru",Cusco ,5.0,23,$$ - $$$,R$ 7 - R$ 27,-13.51356315612793,-71.97100067138672,https://www.tripadvisor.com.br/Restaurant_Review-g294314-d19391315-Reviews-Torus_Restobar-Cusco_Cusco_Region.html
19757666,Abra Bistro,"Calle Santa Catalina Ancha 395 2do Piso, Cusco 08002 Peru",Cusco ,5.0,23,$$ - $$$,R$ 53 - R$ 148,-13.516804695129395,-71.97850036621094,https://www.tripadvisor.com.br/Restaurant_Review-g294314-d19757666-Reviews-Abra_Bistro-Cusco_Cusco_Region.html
13298762,Paucartambo Costumbres Andean Food,"Portal Comercio 129 2do. Piso Plaza de Armas, Cusco Peru",Cusco ,4.5,66,$,R$ 21 - R$ 55,-13.517125129699707,-71.9786605834961,https://www.tripadvisor.com.br/Restaurant_Review-g294314-d13298762-Reviews-Paucartambo_Costumbres_Andean_Food-Cusco_Cusco_Region.html
3977876,La Tratoria,"Av. Sol 101, Cusco Peru",Cusco ,4.0,190,$$ - $$$,indef,-13.517685890197754,-71.97885131835938,https://www.tripadvisor.com.br/Restaurant_Review-g294314-d3977876-Reviews-La_Tratoria-Cusco_Cusco_Region.html
13149056,Qamaq Restaurante,"Calle los Cipreces M-15 Urb La Florida, Cusco Peru",Cusco ,5.0,26,$,R$ 16 - R$ 34,-13.531026840209961,-71.96146392822266,https://www.tripadvisor.com.br/Restaurant_Review-g294314-d13149056-Reviews-Qamaq_Restaurante-Cusco_Cusco_Region.html
10494111,Niños Restaurant,"Calle Meloc 442 also Calle Fierro 476, Cusco Peru",Cusco ,4.5,36,$$ - $$$,indef,-13.516188621520996,-71.98316955566406,https://www.tripadvisor.com.br/Restaurant_Review-g294314-d10494111-Reviews-Ninos_Restaurant-Cusco_Cusco_Region.html
8485595,Qosqo Beer House Restobar,"Portal Escribanos #169 Plaza Regocijo, Cusco CUSCO01 Peru",Cusco ,4.0,180,$$ - $$$,R$ 26 - R$ 106,-13.517451286315918,-71.97991943359375,https://www.tripadvisor.com.br/Restaurant_Review-g294314-d8485595-Reviews-Qosqo_Beer_House_Restobar-Cusco_Cusco_Region.html
17452103,Papa Lucho's,"Calle Pumapaccha 236, Cusco 08000 Peru",Cusco ,5.0,26,indef,indef,-13.516175270080566,-71.97264099121094,https://www.tripadvisor.com.br/Restaurant_Review-g294314-d17452103-Reviews-Papa_Lucho_s-Cusco_Cusco_Region.html
10537590,La Mariana Restaurant & Destinos,"Hatunrumiyoc 480, Cusco Peru",Cusco ,4.5,56,$$ - $$$,R$ 14 - R$ 62,-13.515826225280762,-71.97588348388672,https://www.tripadvisor.com.br/Restaurant_Review-g294314-d10537590-Reviews-La_Mariana_Restaurant_Destinos-Cusco_Cusco_Region.html
20059924,Runasimi Restaurant,"Calle Ruinas 457 Frente al hotel Marriot, Cusco 08001 Peru",Cusco ,5.0,49,$$ - $$$,R$ 26 - R$ 106,-13.51657772064209,-71.97559356689453,https://www.tripadvisor.com.br/Restaurant_Review-g294314-d20059924-Reviews-Runasimi_Restaurant-Cusco_Cusco_Region.html
3251123,Sueno Azul o Jalom Kajol,"Atras de Plaza de Armas El Restaurant Se Encuentra Al Terminar La Calle Procuradores A Lado Del Hostal Felix, Cusco Peru",Cusco ,4.5,51,$,indef,-13.515108108520508,-71.97978973388672,https://www.tripadvisor.com.br/Restaurant_Review-g294314-d3251123-Reviews-Sueno_Azul_o_Jalom_Kajol-Cusco_Cusco_Region.html
13832040,Media Luna Café,"Chihuanpata 652- San Blas frente al mercado de San blas, Cusco 051 Peru",Cusco ,5.0,23,$,R$ 4 - R$ 25,-13.515984535217285,-71.97293853759766,https://www.tripadvisor.com.br/Restaurant_Review-g294314-d13832040-Reviews-Media_Luna_Cafe-Cusco_Cusco_Region.html
11876316,Don Bigote don moustached guy,"Av. Garciliazo 777 Esquina Avenida garcilazo con avenida tullumayu, Cusco Peru",Cusco ,4.5,54,$,R$ 14 - R$ 69,-13.522262573242188,-71.97325134277344,https://www.tripadvisor.com.br/Restaurant_Review-g294314-d11876316-Reviews-Don_Bigote_don_moustached_guy-Cusco_Cusco_Region.html
10344411,Plaza Cafe,"Portal Comercio Sin Numero Segundo Piso Esquina Portal Comercio Con Portal Mantas Frente A LA Plaza DE Armas Del Cusco, Cusco 08000 Peru",Cusco ,4.0,106,$$ - $$$,R$ 16 - R$ 21,-13.517477989196777,-71.97872161865234,https://www.tripadvisor.com.br/Restaurant_Review-g294314-d10344411-Reviews-Plaza_Cafe-Cusco_Cusco_Region.html
14932288,La Bodeguita 138,"Calle Granada 154 Plaza San Francisco, Cusco 08002 Peru",Cusco ,4.5,30,$$ - $$$,R$ 41 - R$ 82,-13.518378257751465,-71.98102569580078,https://www.tripadvisor.com.br/Restaurant_Review-g294314-d14932288-Reviews-La_Bodeguita_138-Cusco_Cusco_Region.html
5992752,La Casona Del Inka,"Urb. Balconcillo K11-12 Carretera Circunvalacion, Cusco Peru",Cusco ,4.0,114,$$ - $$$,R$ 53 - R$ 106,-13.514444351196289,-71.96654510498047,https://www.tripadvisor.com.br/Restaurant_Review-g294314-d5992752-Reviews-La_Casona_Del_Inka-Cusco_Cusco_Region.html
2365300,El Mordisco,"Calle San Juan de Dios # 298 Cerca A La Plaza De Armas, Cusco 005184 Peru",Cusco ,4.0,72,$,indef,-13.517122268676758,-71.98175048828125,https://www.tripadvisor.com.br/Restaurant_Review-g294314-d2365300-Reviews-El_Mordisco-Cusco_Cusco_Region.html
14156121,Mister DA Trattoria-Restaurant-Cafe,"Calle Carmen Alto 619 San Blas, Cusco 08003 Peru",Cusco ,4.5,82,$$ - $$$,R$ 106 - R$ 370,-13.514915466308594,-71.9747543334961,https://www.tripadvisor.com.br/Restaurant_Review-g294314-d14156121-Reviews-Mister_DA_Trattoria_Restaurant_Cafe-Cusco_Cusco_Region.html
8623301,Huaringas Cusco - Restaurante Bar,"Plazoleta Nazarenas 167 Plazoleta Nazarenas, 167 2nd floor, Cusco 084 Peru",Cusco ,4.5,71,$$ - $$$,R$ 11 - R$ 21,-13.515510559082031,-71.97708892822266,https://www.tripadvisor.com.br/Restaurant_Review-g294314-d8623301-Reviews-Huaringas_Cusco_Restaurante_Bar-Cusco_Cusco_Region.html
2617503,Sa Rang Che,"Procuradores 341, Cusco Peru",Cusco ,4.5,62,$$ - $$$,indef,-13.51574993133545,-71.97943878173828,https://www.tripadvisor.com.br/Restaurant_Review-g294314-d2617503-Reviews-Sa_Rang_Che-Cusco_Cusco_Region.html
13214342,La Barra Restobar,"Cusco. Cuzco Calle Cuesta San Blas 509 Esquina con calle Choquechaka, Cusco 08000 Peru",Cusco ,4.5,54,$$ - $$$,R$ 7 - R$ 21,-13.515634536743164,-71.97564697265625,https://www.tripadvisor.com.br/Restaurant_Review-g294314-d13214342-Reviews-La_Barra_Restobar-Cusco_Cusco_Region.html
7607993,Alturas Kitchen,"Avenida Pardo 1079, Cusco Peru",Cusco ,4.5,56,$$ - $$$,R$ 7 - R$ 11,-13.53336238861084,-71.97484588623047,https://www.tripadvisor.com.br/Restaurant_Review-g294314-d7607993-Reviews-Alturas_Kitchen-Cusco_Cusco_Region.html
1918938,Restaurant pizzeria Los Tomines,"Calle Triunfo 384 Cuzco, Cusco 08002 Peru",Cusco ,3.5,291,$$ - $$$,indef,-13.516283988952637,-71.97679901123047,https://www.tripadvisor.com.br/Restaurant_Review-g294314-d1918938-Reviews-Restaurant_pizzeria_Los_Tomines-Cusco_Cusco_Region.html
7784950,La Estancia Imperial,"Calle Suecia # 320, Cusco 08000 Peru",Cusco ,4.5,52,$$ - $$$,indef,-13.515612602233887,-71.97899627685547,https://www.tripadvisor.com.br/Restaurant_Review-g294314-d7784950-Reviews-La_Estancia_Imperial-Cusco_Cusco_Region.html
12666992,The Peruvian Encounter,"Calle Plateros 325, Cusco 08000 Peru",Cusco ,5.0,34,$$ - $$$,R$ 291 - R$ 317,-13.516364097595215,-71.97988891601562,https://www.tripadvisor.com.br/Restaurant_Review-g294314-d12666992-Reviews-The_Peruvian_Encounter-Cusco_Cusco_Region.html
15084702,Cusco Illa Restaurante,"Calle Carmen Alto 166 Illa Hotel - Barrio de San Blas, Cusco 08003 Peru",Cusco ,5.0,24,$,R$ 21 - R$ 48,-13.514450073242188,-71.97525024414062,https://www.tripadvisor.com.br/Restaurant_Review-g294314-d15084702-Reviews-Cusco_Illa_Restaurante-Cusco_Cusco_Region.html
13129723,Allegra Cusco,"Plaza Limacpampa Chico 434, Cusco 08003 Peru",Cusco ,4.5,26,$$ - $$$,R$ 21 - R$ 69,-13.519562721252441,-71.97425842285156,https://www.tripadvisor.com.br/Restaurant_Review-g294314-d13129723-Reviews-Allegra_Cusco-Cusco_Cusco_Region.html
775898,Tika Bistrot Gourmet,"Tocuyeros 566, Cusco Peru",Cusco ,4.5,52,$$ - $$$,R$ 26 - R$ 69,-13.515466690063477,-71.97506713867188,https://www.tripadvisor.com.br/Restaurant_Review-g294314-d775898-Reviews-Tika_Bistrot_Gourmet-Cusco_Cusco_Region.html
13325604,Sara Manca,"Calle san juan de dios 250, Cusco Peru",Cusco ,5.0,50,$$ - $$$,R$ 26 - R$ 106,-13.516885757446289,-71.98112487792969,https://www.tripadvisor.com.br/Restaurant_Review-g294314-d13325604-Reviews-Sara_Manca-Cusco_Cusco_Region.html
2709354,Plus Restaurant,"Calle Portal de Panes # 151, Cusco 08002 Peru",Cusco ,4.0,231,$$ - $$$,indef,-13.516135215759277,-71.97920227050781,https://www.tripadvisor.com.br/Restaurant_Review-g294314-d2709354-Reviews-Plus_Restaurant-Cusco_Cusco_Region.html
19417686,Avocado Toast & More,"Pasaje Warankallki 111 Calle Choquechaca, Cusco 08003 Peru",Cusco ,5.0,19,$$ - $$$,R$ 18 - R$ 33,-13.51628303527832,-71.97514343261719,https://www.tripadvisor.com.br/Restaurant_Review-g294314-d19417686-Reviews-Avocado_Toast_More-Cusco_Cusco_Region.html
3575251,Sara Wasi,"Plaza de armas Calle Procuradores Calle Procuradores N°375, Cusco 08002 Peru",Cusco ,4.5,56,$,indef,-13.5153226852417,-71.9796142578125,https://www.tripadvisor.com.br/Restaurant_Review-g294314-d3575251-Reviews-Sara_Wasi-Cusco_Cusco_Region.html
4327069,Bagel Cafe,"Calle Procuradores 351 Procuradorea Street 351, Cusco Peru",Cusco ,4.5,61,$,R$ 11 - R$ 37,-13.515559196472168,-71.97937774658203,https://www.tripadvisor.com.br/Restaurant_Review-g294314-d4327069-Reviews-Bagel_Cafe-Cusco_Cusco_Region.html
8482456,Viva Veggie Vegan Raw,"Calle Tandapata 635 From San Blas plaza, up the stairs to the right, Cusco 08000 Peru",Cusco ,4.5,44,$$ - $$$,R$ 42 - R$ 85,-13.515384674072266,-71.9734115600586,https://www.tripadvisor.com.br/Restaurant_Review-g294314-d8482456-Reviews-Viva_Veggie_Vegan_Raw-Cusco_Cusco_Region.html
2154033,Norton Rat s Tavern,"Calle Santa Catalina Angosta 116, Cusco Peru",Cusco ,3.5,444,$$ - $$$,indef,-13.516925811767578,-71.97772979736328,https://www.tripadvisor.com.br/Restaurant_Review-g294314-d2154033-Reviews-Norton_Rat_s_Tavern-Cusco_Cusco_Region.html
1086451,Victor Victoria Restaurant,"Calle Teqsecocha 466, Cusco 99999 Peru",Cusco ,4.0,116,$$ - $$$,indef,-13.51457691192627,-71.98058319091797,https://www.tripadvisor.com.br/Restaurant_Review-g294314-d1086451-Reviews-Victor_Victoria_Restaurant-Cusco_Cusco_Region.html
13224659,L'atelier Cafe Concept,"Atoqsayk'uchi 605 corner of Atoqsayk'uchi and Carmen Alto, Cusco 08000 Peru",Cusco ,4.5,42,$,indef,-13.513545989990234,-71.97635650634766,https://www.tripadvisor.com.br/Restaurant_Review-g294314-d13224659-Reviews-L_atelier_Cafe_Concept-Cusco_Cusco_Region.html
6985449,Yola Restaurante,"Avenida Pardo 789 Espaldas de SERPOST, Cusco 08002 Peru",Cusco ,4.0,124,$$ - $$$,indef,-13.523365020751953,-71.9750747680664,https://www.tripadvisor.com.br/Restaurant_Review-g294314-d6985449-Reviews-Yola_Restaurante-Cusco_Cusco_Region.html
12354258,Zelena Fast Good,"Street Qanchipata 596 Intersection with Calle Carmen Alto, Cusco Peru",Cusco ,4.5,37,$,R$ 16 - R$ 53,-13.51402759552002,-71.97586822509766,https://www.tripadvisor.com.br/Restaurant_Review-g294314-d12354258-Reviews-Zelena_Fast_Good-Cusco_Cusco_Region.html
3538751,Pizzeria Restaurant Libertad,"Calle Recoleta #652, Cusco Peru",Cusco ,4.0,83,$$ - $$$,indef,-13.516843795776367,-71.97328186035156,https://www.tripadvisor.com.br/Restaurant_Review-g294314-d3538751-Reviews-Pizzeria_Restaurant_Libertad-Cusco_Cusco_Region.html
4755410,La Casona Del Cuy- Tipon,"Tipon - Choquepata, Oropesa APV - Tipon Choquepata, Cusco 051 Peru",Cusco ,4.5,43,$$ - $$$,indef,-13.518730163574219,-71.9524917602539,https://www.tripadvisor.com.br/Restaurant_Review-g294314-d4755410-Reviews-La_Casona_Del_Cuy_Tipon-Cusco_Cusco_Region.html
8277537,Supremma Pizza shop,"Ave. Tullumayo, 775 in front of the school La Salle, Cusco 08002 Peru",Cusco ,4.5,63,$$ - $$$,R$ 42 - R$ 106,-13.52215576171875,-71.97335052490234,https://www.tripadvisor.com.br/Restaurant_Review-g294314-d8277537-Reviews-Supremma_Pizza_shop-Cusco_Cusco_Region.html
15770645,A Su Merced Restaurante,"Plazoleta Espinar 192 Basilica Menor de la Merced, Cusco 08000 Peru",Cusco ,4.5,56,$$ - $$$,R$ 5 - R$ 96,-13.51805305480957,-71.97969818115234,https://www.tripadvisor.com.br/Restaurant_Review-g294314-d15770645-Reviews-A_Su_Merced_Restaurante-Cusco_Cusco_Region.html
7342145,La Casa Del Kebab,"Calle Plateros 320, Cusco Peru",Cusco ,4.0,65,$,indef,-13.516261100769043,-71.9798583984375,https://www.tripadvisor.com.br/Restaurant_Review-g294314-d7342145-Reviews-La_Casa_Del_Kebab-Cusco_Cusco_Region.html
1963806,Ima Sumaq,"Calle Triunfo # 350, Cusco Peru",Cusco ,4.0,179,$$ - $$$,indef,-13.516477584838867,-71.9770736694336,https://www.tripadvisor.com.br/Restaurant_Review-g294314-d1963806-Reviews-Ima_Sumaq-Cusco_Cusco_Region.html
17437671,Frey's Rincón Criollo,"Calle Matara 242 frente a hostel Inka Wild, cerca de supermercados Orion a tres cuadras de plaza de armas, Cusco 08002 Peru",Cusco ,5.0,17,$,R$ 7 - R$ 12,-13.520670890808105,-71.97962188720703,https://www.tripadvisor.com.br/Restaurant_Review-g294314-d17437671-Reviews-Frey_s_Rincon_Criollo-Cusco_Cusco_Region.html
13341797,Refúgio,"Pasaje Tocuyeros 560 San Blas, Cuzco, Cusco 08003 Peru",Cusco ,5.0,20,$$$$,R$ 106 - R$ 185,-13.515761375427246,-71.97509765625,https://www.tripadvisor.com.br/Restaurant_Review-g294314-d13341797-Reviews-Refugio-Cusco_Cusco_Region.html
1202570,Ama Lur,"Plateros 327, Cusco Peru",Cusco ,4.0,158,$$ - $$$,indef,-13.516318321228027,-71.97978973388672,https://www.tripadvisor.com.br/Restaurant_Review-g294314-d1202570-Reviews-Ama_Lur-Cusco_Cusco_Region.html
1086421,El Virrey del Truco Restaurante,"Plaza Regocijo 261, Cusco 08002 Peru",Cusco ,3.5,251,$$ - $$$,indef,-13.517110824584961,-71.98056030273438,https://www.tripadvisor.com.br/Restaurant_Review-g294314-d1086421-Reviews-El_Virrey_del_Truco_Restaurante-Cusco_Cusco_Region.html
18828809,Kushka Restaurant,"Calle Espinar 159 Plaza Regocijo, Cusco 08002 Peru",Cusco ,5.0,17,$$ - $$$,R$ 48 - R$ 159,-13.517440795898438,-71.97982025146484,https://www.tripadvisor.com.br/Restaurant_Review-g294314-d18828809-Reviews-Kushka_Restaurant-Cusco_Cusco_Region.html
17593203,Butumak Cusco,"Calle San Juan de Dios 214, Cusco 08002 Peru",Cusco ,5.0,16,$$ - $$$,R$ 21 - R$ 58,-13.51678466796875,-71.98077392578125,https://www.tripadvisor.com.br/Restaurant_Review-g294314-d17593203-Reviews-Butumak_Cusco-Cusco_Cusco_Region.html
6439709,Apu Koricancha,"Calle Pampa Del Castillo 320 Centro Historico, Cusco Peru",Cusco ,4.5,33,$$ - $$$,indef,-13.51907730102539,-71.97665405273438,https://www.tripadvisor.com.br/Restaurant_Review-g294314-d6439709-Reviews-Apu_Koricancha-Cusco_Cusco_Region.html
20142208,Kao Thai & Peruvian Cuisine - Cusco,"Calle Hatunrumiyoc 487 Second Floor, Cusco 08002 Peru",Cusco ,5.0,15,$$ - $$$,R$ 32 - R$ 63,-13.515711784362793,-71.9758071899414,https://www.tripadvisor.com.br/Restaurant_Review-g294314-d20142208-Reviews-Kao_Thai_Peruvian_Cuisine_Cusco-Cusco_Cusco_Region.html
15184678,Catedral Restaurante | Bar & Terraza,"Calle Carmen Alto 133 near San Blas Sq, Cusco 08003 Peru",Cusco ,5.0,19,$$ - $$$,R$ 95 - R$ 264,-13.514835357666016,-71.97515869140625,https://www.tripadvisor.com.br/Restaurant_Review-g294314-d15184678-Reviews-Catedral_Restaurante_Bar_Terraza-Cusco_Cusco_Region.html
15348432,La Culture de Manger,"Nueva Alta 470 Close to plaza San Francisco, Cusco 08000 Peru",Cusco ,5.0,18,$$ - $$$,R$ 18 - R$ 41,-13.517304420471191,-71.98407745361328,https://www.tripadvisor.com.br/Restaurant_Review-g294314-d15348432-Reviews-La_Culture_de_Manger-Cusco_Cusco_Region.html
2022150,Restaurant Boheme Cusco,"Saphy 476, Cusco 051084 Peru",Cusco ,4.5,36,$$ - $$$,R$ 16 - R$ 106,-13.5306978225708,-71.93651580810547,https://www.tripadvisor.com.br/Restaurant_Review-g294314-d2022150-Reviews-Restaurant_Boheme_Cusco-Cusco_Cusco_Region.html
15670216,CaoCafe & Bar One Cusco,"28B Kiteni Echarate, Cusco 08750 Peru",Cusco ,5.0,20,$$ - $$$,indef,-12.648633003234863,-73.04913330078125,https://www.tripadvisor.com.br/Restaurant_Review-g294314-d15670216-Reviews-CaoCafe_Bar_One_Cusco-Cusco_Cusco_Region.html
10452291,Cuates Tequila,"Pampa del Castillo, 220 Plaza Santo Domiingo, Cusco Peru",Cusco ,4.5,31,$,R$ 79 - R$ 159,-13.519944190979004,-71.9759750366211,https://www.tripadvisor.com.br/Restaurant_Review-g294314-d10452291-Reviews-Cuates_Tequila-Cusco_Cusco_Region.html
3599438,Toqokachi,"244-a calle Carmen alto, Cusco Peru",Cusco ,4.5,31,$$ - $$$,indef,-13.513981819152832,-71.97561645507812,https://www.tripadvisor.com.br/Restaurant_Review-g294314-d3599438-Reviews-Toqokachi-Cusco_Cusco_Region.html
12996182,Plaza 106 Food & Drinks,"Pazoleta Limacpampa Grande, 106, Cusco 084 Peru",Cusco ,5.0,32,$,R$ 16 - R$ 34,-13.519927024841309,-71.9734115600586,https://www.tripadvisor.com.br/Restaurant_Review-g294314-d12996182-Reviews-Plaza_106_Food_Drinks-Cusco_Cusco_Region.html
8139084,Yakumama Restaurant,"Calle Procuradores 399 Cerca de la Plaza de Armas, Cusco 51 Peru",Cusco ,4.5,33,$$ - $$$,indef,-13.515092849731445,-71.97985076904297,https://www.tripadvisor.com.br/Restaurant_Review-g294314-d8139084-Reviews-Yakumama_Restaurant-Cusco_Cusco_Region.html
2326005,Mishti Mestizo,"Calle San Juan de Dios 255 A 2 cuadras de la Plaza de Armas, Cusco 08002 Peru",Cusco ,4.5,40,$$$$,R$ 53 - R$ 159,-13.517106056213379,-71.98119354248047,https://www.tripadvisor.com.br/Restaurant_Review-g294314-d2326005-Reviews-Mishti_Mestizo-Cusco_Cusco_Region.html
8610201,wei-nin peruvian chinese food,"449 Meloc, Cusco Peru",Cusco ,4.5,42,$$ - $$$,indef,-13.516242980957031,-71.9832534790039,https://www.tripadvisor.com.br/Restaurant_Review-g294314-d8610201-Reviews-Wei_nin_peruvian_chinese_food-Cusco_Cusco_Region.html
7176584,Hugo's Cafe,"Calle Choquechaca 124-A, Cusco 0000 Peru",Cusco ,4.5,36,$,indef,-13.515700340270996,-71.97567749023438,https://www.tripadvisor.com.br/Restaurant_Review-g294314-d7176584-Reviews-Hugo_s_Cafe-Cusco_Cusco_Region.html
13389041,Tiger Milk Cusco,"Jr. Cuba I 12b Urbanizacion Santa Ursula G3, Cusco 08000 Peru",Cusco ,5.0,58,$,R$ 26 - R$ 42,-13.526571273803711,-71.94660949707031,https://www.tripadvisor.com.br/Restaurant_Review-g294314-d13389041-Reviews-Tiger_Milk_Cusco-Cusco_Cusco_Region.html
19126676,Buenazo Restaurante Natural Food,"Avenida Tullumayo 350, Cusco 08002 Peru",Cusco ,5.0,24,$$ - $$$,R$ 21 - R$ 79,-13.51810073852539,-71.97418975830078,https://www.tripadvisor.com.br/Restaurant_Review-g294314-d19126676-Reviews-Buenazo_Restaurante_Natural_Food-Cusco_Cusco_Region.html
2238640,El Cajon del Naupa,"Calle Choquechaca 216, Cusco Peru",Cusco ,4.0,73,$$ - $$$,indef,-13.514469146728516,-71.97643280029297,https://www.tripadvisor.com.br/Restaurant_Review-g294314-d2238640-Reviews-El_Cajon_del_Naupa-Cusco_Cusco_Region.html
9558848,Luma Winay,"353-A Tandapata St. Barrio San Blas, Cusco Peru",Cusco ,5.0,36,$,R$ 12 - R$ 34,-13.512711524963379,-71.9761734008789,https://www.tripadvisor.com.br/Restaurant_Review-g294314-d9558848-Reviews-Luma_Winay-Cusco_Cusco_Region.html
7981577,Costumbres,"Portal Comercio 121 Plaza de Armas, Cusco 051 Peru",Cusco ,4.0,64,$$ - $$$,R$ 37 - R$ 69,-13.517492294311523,-71.97869110107422,https://www.tripadvisor.com.br/Restaurant_Review-g294314-d7981577-Reviews-Costumbres-Cusco_Cusco_Region.html
12847241,El Mariscal Barra Cevichera,"Jr. Retamas 5H Urb. Mariscal Gamarra, Cusco 08001 Peru",Cusco ,4.5,51,$,R$ 26 - R$ 53,-13.522052764892578,-71.9618911743164,https://www.tripadvisor.com.br/Restaurant_Review-g294314-d12847241-Reviews-El_Mariscal_Barra_Cevichera-Cusco_Cusco_Region.html
2695579,Inka Fusion Restaurante,"Loreto no 125, Cusco 051 Peru",Cusco ,4.5,35,$$ - $$$,indef,-13.517329216003418,-71.9777603149414,https://www.tripadvisor.com.br/Restaurant_Review-g294314-d2695579-Reviews-Inka_Fusion_Restaurante-Cusco_Cusco_Region.html
1086418,El Buen Pastor,"Cuesta San Blas 579, Cusco Peru",Cusco ,4.0,38,$,indef,-13.515056610107422,-71.97501373291016,https://www.tripadvisor.com.br/Restaurant_Review-g294314-d1086418-Reviews-El_Buen_Pastor-Cusco_Cusco_Region.html
3223868,Cafe Tinku,"Nueva Baja 560 Centro Tinku, Cusco 0051 Peru",Cusco ,4.5,40,$,R$ 16 - R$ 79,-13.518385887145996,-71.98419952392578,https://www.tripadvisor.com.br/Restaurant_Review-g294314-d3223868-Reviews-Cafe_Tinku-Cusco_Cusco_Region.html
17370628,Papa te amo,"Calle Suecia 401, Cusco 08002 Peru",Cusco ,4.5,24,$,R$ 11 - R$ 14,-13.514850616455078,-71.97966003417969,https://www.tripadvisor.com.br/Restaurant_Review-g294314-d17370628-Reviews-Papa_te_amo-Cusco_Cusco_Region.html
6383528,Fusi Chicken & Grill Restobar,"Av El Sol 106, Int 208, Niv 2, Cusco 08002 Peru",Cusco ,3.5,149,$$ - $$$,R$ 26 - R$ 106,-13.517753601074219,-71.97891235351562,https://www.tripadvisor.com.br/Restaurant_Review-g294314-d6383528-Reviews-Fusi_Chicken_Grill_Restobar-Cusco_Cusco_Region.html
6562507,Restaurante Gourmet Pukawi,"Calle Conquista Prolongacion 150 Inside of Aranwa Sacred Valley Hotel & Wellness, Cusco 08002 Peru",Cusco ,4.5,28,$$$$,indef,-13.33061695098877,-72.0517349243164,https://www.tripadvisor.com.br/Restaurant_Review-g294314-d6562507-Reviews-Restaurante_Gourmet_Pukawi-Cusco_Cusco_Region.html
5667704,Inkas Gourmet Restaurant,"Calle Quera 260 10 Min Away From the Plaza de Armas, Cusco 051 Peru",Cusco ,4.0,68,$$ - $$$,R$ 11 - R$ 32,-13.519694328308105,-71.97945404052734,https://www.tripadvisor.com.br/Restaurant_Review-g294314-d5667704-Reviews-Inkas_Gourmet_Restaurant-Cusco_Cusco_Region.html
6221090,Las Machitas,"Avenida Peru F-9 Av. Perú F-9 Urb. Progreso - Wanchaq - Cusco, Cusco 08006 Peru",Cusco ,4.0,58,$$ - $$$,R$ 42 - R$ 79,-13.530476570129395,-71.96179962158203,https://www.tripadvisor.com.br/Restaurant_Review-g294314-d6221090-Reviews-Las_Machitas-Cusco_Cusco_Region.html
9451502,Don Cafeone,"Calle Hatun Rumioq, 480, Cusco Peru",Cusco ,4.5,33,$$ - $$$,R$ 37 - R$ 63,-13.515783309936523,-71.9759292602539,https://www.tripadvisor.com.br/Restaurant_Review-g294314-d9451502-Reviews-Don_Cafeone-Cusco_Cusco_Region.html
7721224,Emperador Grill Restaurant,"Calle Escribanos 177 Plaza Regocijo, Cusco 08002 Peru",Cusco ,3.5,184,$$ - $$$,R$ 7 - R$ 27,-13.517333984375,-71.97994232177734,https://www.tripadvisor.com.br/Restaurant_Review-g294314-d7721224-Reviews-Emperador_Grill_Restaurant-Cusco_Cusco_Region.html
13123286,Casa Culinaria Marques,"Calle Marques 255 Muy Secar de la Plaza San Francisco, Cusco 08000 Peru",Cusco ,4.0,61,$,R$ 4 - R$ 22,-13.518540382385254,-71.98017883300781,https://www.tripadvisor.com.br/Restaurant_Review-g294314-d13123286-Reviews-Casa_Culinaria_Marques-Cusco_Cusco_Region.html
8114182,Mamma Mia,"Street Recoleta 555, Cusco 084 Peru",Cusco ,4.0,49,$$ - $$$,indef,-13.51671028137207,-71.97406005859375,https://www.tripadvisor.com.br/Restaurant_Review-g294314-d8114182-Reviews-Mamma_Mia-Cusco_Cusco_Region.html
2390028,Brava Grill & Pasta,"Portal de Espinar 144, Cusco Peru",Cusco ,4.0,57,$$ - $$$,indef,-13.517538070678711,-71.97943115234375,https://www.tripadvisor.com.br/Restaurant_Review-g294314-d2390028-Reviews-Brava_Grill_Pasta-Cusco_Cusco_Region.html
18031890,La Casa De Los Crepes Organicos,"Procuradores 357-1, Cusco 08002 Peru",Cusco ,5.0,12,$,R$ 10 - R$ 21,-13.51550006866455,-71.97953796386719,https://www.tripadvisor.com.br/Restaurant_Review-g294314-d18031890-Reviews-La_Casa_De_Los_Crepes_Organicos-Cusco_Cusco_Region.html
14958726,Nao Victoria Cafe Cultural,"Calle Procuradores 357 Inside Nao Victoria Hostel, Cusco 08002 Peru",Cusco ,4.5,17,$$ - $$$,indef,-13.515565872192383,-71.97957611083984,https://www.tripadvisor.com.br/Restaurant_Review-g294314-d14958726-Reviews-Nao_Victoria_Cafe_Cultural-Cusco_Cusco_Region.html
12297515,Fusión Andina,"Calle Mantas 106 Int. 208 Av. el Sol Galerías la Merced - Esquina de Calle Mantas y la Av. el Sol, Cusco Peru",Cusco ,4.0,53,$$ - $$$,R$ 59 - R$ 135,-13.517791748046875,-71.97892761230469,https://www.tripadvisor.com.br/Restaurant_Review-g294314-d12297515-Reviews-Fusion_Andina-Cusco_Cusco_Region.html
15333463,GARAJE Food Place,"Avenida Pardo 987 A espaldas del Hotel Sonesta, Cusco 08000 Peru",Cusco ,5.0,12,$,R$ 14 - R$ 41,-13.525174140930176,-71.97371673583984,https://www.tripadvisor.com.br/Restaurant_Review-g294314-d15333463-Reviews-GARAJE_Food_Place-Cusco_Cusco_Region.html
17585585,Sicilia In Bocca Cusco,"Calle hatunrumiyoc 487 segundo piso cerca de la piedra de 12 Angulos, Cusco Peru",Cusco ,4.5,17,$,indef,-13.523579597473145,-71.96208190917969,https://www.tripadvisor.com.br/Restaurant_Review-g294314-d17585585-Reviews-Sicilia_In_Bocca_Cusco-Cusco_Cusco_Region.html
3821382,Cebicheria EL Tiburon,"AV :Infancia Wanchaq, Cusco Peru",Cusco ,4.5,31,$$ - $$$,indef,-13.526331901550293,-71.9685287475586,https://www.tripadvisor.com.br/Restaurant_Review-g294314-d3821382-Reviews-Cebicheria_EL_Tiburon-Cusco_Cusco_Region.html
13138602,Itamae Sushi Restaurant,"Calle Palacio 126, Cusco 08002 Peru",Cusco ,4.5,28,$$ - $$$,R$ 3 - R$ 16,-13.515823364257812,-71.97657012939453,https://www.tripadvisor.com.br/Restaurant_Review-g294314-d13138602-Reviews-Itamae_Sushi_Restaurant-Cusco_Cusco_Region.html
6403849,Olas Bravas,"Urb. Mariscal Gamarra 2B, Cusco Peru",Cusco ,4.5,38,$$ - $$$,R$ 32 - R$ 63,-13.522500038146973,-71.98777770996094,https://www.tripadvisor.com.br/Restaurant_Review-g294314-d6403849-Reviews-Olas_Bravas-Cusco_Cusco_Region.html
9811548,Altar Inca,"Route cusco pisac - km 29, Mirador Taray, Cusco Peru",Cusco ,4.5,59,$$ - $$$,R$ 79 - R$ 264,-13.426188468933105,-71.86273193359375,https://www.tripadvisor.com.br/Restaurant_Review-g294314-d9811548-Reviews-Altar_Inca-Cusco_Cusco_Region.html
6699569,rey kebab en cusco,"Tecsecocha 400, Cusco Peru",Cusco ,4.5,28,$,indef,-13.515063285827637,-71.98011016845703,https://www.tripadvisor.com.br/Restaurant_Review-g294314-d6699569-Reviews-Rey_kebab_en_cusco-Cusco_Cusco_Region.html
12208441,Meatball Club,"Calle San Juan de Dios 278, Cusco 08000 Peru",Cusco ,4.0,64,$,R$ 16 - R$ 48,-13.516997337341309,-71.98145294189453,https://www.tripadvisor.com.br/Restaurant_Review-g294314-d12208441-Reviews-Meatball_Club-Cusco_Cusco_Region.html
4501171,Kukuli's,"Plaza Santa Catalina No 215, Cusco Peru",Cusco ,4.5,28,$$ - $$$,indef,-13.51724910736084,-71.97711944580078,https://www.tripadvisor.com.br/Restaurant_Review-g294314-d4501171-Reviews-Kukuli_s-Cusco_Cusco_Region.html
8548073,Rupha's Diner,"Urb. Marcavalle Mza. A-24 Wanchaq, Cusco 84 Peru",Cusco ,4.0,46,$,R$ 4 - R$ 23,-13.527514457702637,-71.9471664428711,https://www.tripadvisor.com.br/Restaurant_Review-g294314-d8548073-Reviews-Rupha_s_Diner-Cusco_Cusco_Region.html
10425795,La Fabrica Resto-Bar,"Calle Procuradores 341 2do nivel, Cusco Peru",Cusco ,4.5,22,$,R$ 21 - R$ 69,-13.515625953674316,-71.97930145263672,https://www.tripadvisor.com.br/Restaurant_Review-g294314-d10425795-Reviews-La_Fabrica_Resto_Bar-Cusco_Cusco_Region.html
4313155,Restaurant Mia Pizza,"Calle Procuradores, 379, Cusco Peru",Cusco ,4.0,55,$$ - $$$,indef,-13.515402793884277,-71.97972106933594,https://www.tripadvisor.com.br/Restaurant_Review-g294314-d4313155-Reviews-Restaurant_Mia_Pizza-Cusco_Cusco_Region.html
16237205,Red Llama Coffee & Sandwich Shop,"Calle Choquechaca 162, Cusco Peru",Cusco ,5.0,29,$,R$ 26 - R$ 53,-13.515270233154297,-71.9759292602539,https://www.tripadvisor.com.br/Restaurant_Review-g294314-d16237205-Reviews-Red_Llama_Coffee_Sandwich_Shop-Cusco_Cusco_Region.html
7997730,El Bijao,"Avenida 28 De Julio 1 cuadra antes de llegar a la comisaria de Ttio, Cusco Peru",Cusco ,4.0,30,$$ - $$$,indef,-13.522879600524902,-71.99175262451172,https://www.tripadvisor.com.br/Restaurant_Review-g294314-d7997730-Reviews-El_Bijao-Cusco_Cusco_Region.html
5892858,Rock House Cafe,"Tecsecocha 420, Cusco 84 Peru",Cusco ,4.5,21,$$ - $$$,indef,-13.515186309814453,-71.98019409179688,https://www.tripadvisor.com.br/Restaurant_Review-g294314-d5892858-Reviews-Rock_House_Cafe-Cusco_Cusco_Region.html
9825600,La Casona Inkaterra,"113 Plaza Las Nazarenas, Cusco Peru",Cusco ,5.0,14,$$$$,indef,0.0,0.0,https://www.tripadvisor.com.br/Restaurant_Review-g294314-d9825600-Reviews-La_Casona_Inkaterra-Cusco_Cusco_Region.html
4568601,Cafe Perla,"304 Plazoleta Santa catalina Al Costado Del Koricancha Templo, Cusco 08002 Peru",Cusco ,4.0,83,$$ - $$$,indef,-13.519991874694824,-71.97602844238281,https://www.tripadvisor.com.br/Restaurant_Review-g294314-d4568601-Reviews-Cafe_Perla-Cusco_Cusco_Region.html
8552734,Don Pimiento,"Jiron Granada Esquina Colegio Educandas, Cusco Peru",Cusco ,4.0,41,$,indef,-13.517990112304688,-71.98124694824219,https://www.tripadvisor.com.br/Restaurant_Review-g294314-d8552734-Reviews-Don_Pimiento-Cusco_Cusco_Region.html
3809097,Salvatore Bistro Lounge,"Calle Plateros 325 2do piso, Cusco Peru",Cusco ,4.5,31,$$ - $$$,indef,-13.516250610351562,-71.98007202148438,https://www.tripadvisor.com.br/Restaurant_Review-g294314-d3809097-Reviews-Salvatore_Bistro_Lounge-Cusco_Cusco_Region.html
17840563,La Emolienteria Cusco,"Calle Ruinas 451, Cusco 08000 Peru",Cusco ,4.5,23,$$ - $$$,R$ 53 - R$ 106,-13.516472816467285,-71.97569274902344,https://www.tripadvisor.com.br/Restaurant_Review-g294314-d17840563-Reviews-La_Emolienteria_Cusco-Cusco_Cusco_Region.html
14188869,Quinua Cafe Restaurant,"Choqechaka 208, Cusco 08000 Peru",Cusco ,5.0,11,$,indef,-14.274530410766602,-71.23532104492188,https://www.tripadvisor.com.br/Restaurant_Review-g294314-d14188869-Reviews-Quinua_Cafe_Restaurant-Cusco_Cusco_Region.html
17327731,El Dorado Restaurant,"Calle Maruri 320 Centro Historico, Cusco 08000 Peru",Cusco ,5.0,12,$$ - $$$,R$ 3 - R$ 14,-13.518704414367676,-71.97631072998047,https://www.tripadvisor.com.br/Restaurant_Review-g294314-d17327731-Reviews-El_Dorado_Restaurant-Cusco_Cusco_Region.html
6877852,Restaurante Egos,"Arequipa 248, Cusco Peru",Cusco ,4.0,36,$$ - $$$,indef,-13.516280174255371,-71.95391845703125,https://www.tripadvisor.com.br/Restaurant_Review-g294314-d6877852-Reviews-Restaurante_Egos-Cusco_Cusco_Region.html
6407263,Allenby,"Calle Marquez 250, Cusco Peru",Cusco ,4.5,23,$$ - $$$,indef,-13.519499778747559,-71.9817123413086,https://www.tripadvisor.com.br/Restaurant_Review-g294314-d6407263-Reviews-Allenby-Cusco_Cusco_Region.html
15530830,Stone Pizzas,"Avenida Baja # 116, Cusco 08002 Peru",Cusco ,5.0,29,$$ - $$$,R$ 27 - R$ 82,-13.52066707611084,-71.98429107666016,https://www.tripadvisor.com.br/Restaurant_Review-g294314-d15530830-Reviews-Stone_Pizzas-Cusco_Cusco_Region.html
6638555,Wara Wara Lounge,"San Cristobal 185 Close to San Cristobal Church, Cusco 08000 Peru",Cusco ,4.5,24,$$ - $$$,R$ 7 - R$ 41,-13.513997077941895,-71.97980499267578,https://www.tripadvisor.com.br/Restaurant_Review-g294314-d6638555-Reviews-Wara_Wara_Lounge-Cusco_Cusco_Region.html
10894981,T''Oqo Kachi,"Calle Carmen Alto 244 Near plaza San Blas, Cusco Peru",Cusco ,4.5,17,$$ - $$$,indef,-13.513981819152832,-71.97561645507812,https://www.tripadvisor.com.br/Restaurant_Review-g294314-d10894981-Reviews-T_Oqo_Kachi-Cusco_Cusco_Region.html
17727621,The BrewBar,"Calle Plateros 348 A, Cusco 08002 Peru",Cusco ,5.0,10,$,R$ 8 - R$ 14,-13.515862464904785,-71.98019409179688,https://www.tripadvisor.com.br/Restaurant_Review-g294314-d17727621-Reviews-The_BrewBar-Cusco_Cusco_Region.html
16665596,mercado San Blas,"Calle Pumapaccha 231 Seccion jugos, Cusco 08003 Peru",Cusco ,4.5,14,$,indef,-13.515582084655762,-71.97306060791016,https://www.tripadvisor.com.br/Restaurant_Review-g294314-d16665596-Reviews-Mercado_San_Blas-Cusco_Cusco_Region.html
15125460,Nero de la 375,"Avenida Tullumayo 375 Tullumayo parte alta, después de la plazoleta Limacpampa, Cusco 08002 Peru",Cusco ,5.0,11,$,R$ 11 - R$ 63,-13.516169548034668,-71.98107147216797,https://www.tripadvisor.com.br/Restaurant_Review-g294314-d15125460-Reviews-Nero_de_la_375-Cusco_Cusco_Region.html
2314515,La Chomba Restaurant,"Huaran Huaran Km 60.5, Cusco cusco 084 Peru",Cusco ,4.0,34,$,R$ 53 - R$ 159,-13.51760196685791,-71.97392272949219,https://www.tripadvisor.com.br/Restaurant_Review-g294314-d2314515-Reviews-La_Chomba_Restaurant-Cusco_Cusco_Region.html
13174472,Raices - Hande Made Cusco,"Calle Saphy 595, Cusco Peru",Cusco ,5.0,13,$,R$ 11 - R$ 53,-13.511940002441406,-71.984130859375,https://www.tripadvisor.com.br/Restaurant_Review-g294314-d13174472-Reviews-Raices_Hande_Made_Cusco-Cusco_Cusco_Region.html
15527211,Sama Restaurante Café,"Calle Chihuampata 278 - San Blas Casa Andina Standard Cusco San Blas, Cusco 08003 Peru",Cusco ,4.5,15,$$ - $$$,R$ 37 - R$ 79,-13.516280174255371,-71.97370910644531,https://www.tripadvisor.com.br/Restaurant_Review-g294314-d15527211-Reviews-Sama_Restaurante_Cafe-Cusco_Cusco_Region.html
10391687,El Lado De Qucharitas,"Calle Granada 138, Cusco 08423 Peru",Cusco ,4.5,16,$,R$ 3 - R$ 55,-13.518463134765625,-71.98079681396484,https://www.tripadvisor.com.br/Restaurant_Review-g294314-d10391687-Reviews-El_Lado_De_Qucharitas-Cusco_Cusco_Region.html
10693892,La Cusqueñita,"Av. La Cultura Puente Marcavalle, Cusco Peru",Cusco ,3.5,67,$$ - $$$,indef,-13.5247802734375,-71.95452117919922,https://www.tripadvisor.com.br/Restaurant_Review-g294314-d10693892-Reviews-La_Cusquenita-Cusco_Cusco_Region.html
15558144,Kaypacha Cultural Restobar,"Calle Tecsecocha 148 Centro Histórico de Cusco, Cusco 08002 Peru",Cusco ,5.0,10,$,indef,-13.515236854553223,-71.97991943359375,https://www.tripadvisor.com.br/Restaurant_Review-g294314-d15558144-Reviews-Kaypacha_Cultural_Restobar-Cusco_Cusco_Region.html
15749374,Akatsuka Sushi Bar,"Avenida de la Cultura 9 Al lado del edificio Credinka, Cusco 08002 Peru",Cusco ,4.5,12,$,R$ 21 - R$ 33,-13.527132987976074,-71.94628143310547,https://www.tripadvisor.com.br/Restaurant_Review-g294314-d15749374-Reviews-Akatsuka_Sushi_Bar-Cusco_Cusco_Region.html
1820799,La Mammacha Trattoria Peruana,"San Juan De Dios 250, Cusco 00 51 Peru",Cusco ,4.0,25,$$ - $$$,R$ 26 - R$ 63,-13.516831398010254,-71.98123931884766,https://www.tripadvisor.com.br/Restaurant_Review-g294314-d1820799-Reviews-La_Mammacha_Trattoria_Peruana-Cusco_Cusco_Region.html
782530,Panaderia Don Esteban & Don Pancho,"El Soll, Cusco Peru",Cusco ,4.0,51,$$ - $$$,indef,-13.52623176574707,-71.95056915283203,https://www.tripadvisor.com.br/Restaurant_Review-g294314-d782530-Reviews-Panaderia_Don_Esteban_Don_Pancho-Cusco_Cusco_Region.html
3681414,Let's Go Bananas,"Recoleta 554, Cusco 084 Peru",Cusco ,4.0,74,$,R$ 11 - R$ 21,-13.516926765441895,-71.97415924072266,https://www.tripadvisor.com.br/Restaurant_Review-g294314-d3681414-Reviews-Let_s_Go_Bananas-Cusco_Cusco_Region.html
17652578,Bembé Restaurante cubano,"Procuradores 366. Segundo Patio. A media cuadra de la Plaza de Armas., Cusco Peru",Cusco ,5.0,9,indef,indef,-13.515312194824219,-71.9793472290039,https://www.tripadvisor.com.br/Restaurant_Review-g294314-d17652578-Reviews-Bembe_Restaurante_cubano-Cusco_Cusco_Region.html
4012294,Chicharroneria Mundialistas,"Saylla A Una Cuadra Del Coricancha, Cusco Peru",Cusco ,4.0,48,$,indef,-13.519274711608887,-71.97669219970703,https://www.tripadvisor.com.br/Restaurant_Review-g294314-d4012294-Reviews-Chicharroneria_Mundialistas-Cusco_Cusco_Region.html
8041511,La Taberna,"Calle 7 Cuartones 306, Cusco Peru",Cusco ,4.5,20,$$ - $$$,indef,-13.516228675842285,-71.98248291015625,https://www.tripadvisor.com.br/Restaurant_Review-g294314-d8041511-Reviews-La_Taberna-Cusco_Cusco_Region.html
10482143,Muna Restaurant´s,"Calle San Juan de Dios 214 Plaza Regocijo, Cusco 08001 Peru",Cusco ,4.0,31,$$ - $$$,indef,-13.516815185546875,-71.98088073730469,https://www.tripadvisor.com.br/Restaurant_Review-g294314-d10482143-Reviews-Muna_Restaurant_s-Cusco_Cusco_Region.html
7285904,Naturlandia Cusco,"Calle Carmen Alto 146, Cusco Peru",Cusco ,4.5,17,$,indef,-13.514644622802734,-71.97492980957031,https://www.tripadvisor.com.br/Restaurant_Review-g294314-d7285904-Reviews-Naturlandia_Cusco-Cusco_Cusco_Region.html
6616992,Las Nustas,"Calle Choquechaca Nro. 278-C, Cusco Peru",Cusco ,4.0,62,$$ - $$$,indef,-13.514300346374512,-71.97667694091797,https://www.tripadvisor.com.br/Restaurant_Review-g294314-d6616992-Reviews-Las_Nustas-Cusco_Cusco_Region.html
2084720,Etapoy,"Calle Almagro 125 between San Anders and El Sol, Cusco Peru",Cusco ,3.5,56,$$ - $$$,indef,-13.518834114074707,-71.9785385131836,https://www.tripadvisor.com.br/Restaurant_Review-g294314-d2084720-Reviews-Etapoy-Cusco_Cusco_Region.html
6556349,Pachamama Original Cafe Restaurant Pizzeria Traditional,"Calle Maruri 316, Cusco 08002 Peru",Cusco ,3.5,98,$$ - $$$,R$ 26 - R$ 132,-13.52068042755127,-71.9732894897461,https://www.tripadvisor.com.br/Restaurant_Review-g294314-d6556349-Reviews-Pachamama_Original_Cafe_Restaurant_Pizzeria_Traditional-Cusco_Cusco_Region.html
3264767,Paloma Imbis,"Calle Plateros 369, Cusco 08002 Peru",Cusco ,4.0,75,$,indef,-13.515742301940918,-71.98040008544922,https://www.tripadvisor.com.br/Restaurant_Review-g294314-d3264767-Reviews-Paloma_Imbis-Cusco_Cusco_Region.html
1752414,Inkaria,"Calle Suecia 395, Cusco Peru",Cusco ,4.0,25,$$ - $$$,indef,-13.515098571777344,-71.9795913696289,https://www.tripadvisor.com.br/Restaurant_Review-g294314-d1752414-Reviews-Inkaria-Cusco_Cusco_Region.html
20264069,Molly's Irish Bar & Restaurant,"Calle Triunfo 350 2nd Floor, Cusco 08002 Peru",Cusco ,5.0,8,$$ - $$$,R$ 26 - R$ 79,-13.51648235321045,-71.97711944580078,https://www.tripadvisor.com.br/Restaurant_Review-g294314-d20264069-Reviews-Molly_s_Irish_Bar_Restaurant-Cusco_Cusco_Region.html
9806195,Kukuly,"Calle Waynapata 318, Cusco Peru",Cusco ,4.0,21,$$ - $$$,R$ 16 - R$ 132,-13.51449203491211,-71.97868347167969,https://www.tripadvisor.com.br/Restaurant_Review-g294314-d9806195-Reviews-Kukuly-Cusco_Cusco_Region.html
17802114,Trattoria Cafe Roma,"Calle Nueva Baja 490 frente al colegio san fransisco de Asis, Cusco 08002 Peru",Cusco ,4.5,12,indef,indef,-13.518074989318848,-71.9834976196289,https://www.tripadvisor.com.br/Restaurant_Review-g294314-d17802114-Reviews-Trattoria_Cafe_Roma-Cusco_Cusco_Region.html
4132806,Mixtura Valle Restaurant,"Av. San Martin 300 Yukay Urubamba, Cusco Peru",Cusco ,4.5,18,$$ - $$$,indef,-13.529080390930176,-71.96991729736328,https://www.tripadvisor.com.br/Restaurant_Review-g294314-d4132806-Reviews-Mixtura_Valle_Restaurant-Cusco_Cusco_Region.html
14148842,Salchipower,"Avenida Pardo 769-A 769-a, Cusco 08002 Peru",Cusco ,4.5,28,$$ - $$$,R$ 48 - R$ 90,-13.522843360900879,-71.9754867553711,https://www.tripadvisor.com.br/Restaurant_Review-g294314-d14148842-Reviews-Salchipower-Cusco_Cusco_Region.html
12514614,Pacha,"Calle Abracitos 470 Pista principal, Cusco 08000 Peru",Cusco ,4.0,22,$,R$ 18 - R$ 27,-13.519489288330078,-71.97399139404297,https://www.tripadvisor.com.br/Restaurant_Review-g294314-d12514614-Reviews-Pacha-Cusco_Cusco_Region.html
1750112,Tupana Wasi,"Cuesta San Blas Cusco, Cusco Peru",Cusco ,3.5,90,$$ - $$$,indef,-13.51551342010498,-71.97493743896484,https://www.tripadvisor.com.br/Restaurant_Review-g294314-d1750112-Reviews-Tupana_Wasi-Cusco_Cusco_Region.html
4580801,Fuego's Grill Restaurant,"Calle Retiro Nro 06 958113511, Cusco 01 Peru",Cusco ,4.5,21,$$ - $$$,indef,-13.515724182128906,-71.9803466796875,https://www.tripadvisor.com.br/Restaurant_Review-g294314-d4580801-Reviews-Fuego_s_Grill_Restaurant-Cusco_Cusco_Region.html
8841907,El Huarique,"Calle Tandapata 909 San Blas, Cusco CUSC01 Peru",Cusco ,5.0,12,$$ - $$$,R$ 21 - R$ 48,-13.518171310424805,-71.98006439208984,https://www.tripadvisor.com.br/Restaurant_Review-g294314-d8841907-Reviews-El_Huarique-Cusco_Cusco_Region.html
8378720,Bar & Cafe 21,"Portal Confituria 233 Segundo Piso, Plaza de Armas de Cusco, Cusco Peru",Cusco ,4.0,24,$$ - $$$,R$ 21 - R$ 63,-13.516807556152344,-71.97946166992188,https://www.tripadvisor.com.br/Restaurant_Review-g294314-d8378720-Reviews-Bar_Cafe_21-Cusco_Cusco_Region.html
22827440,Cusqueñísima Picantería,"Alfredo Yepez C8, Magisterio 2da Etapa, Cusco Peru",Cusco ,5.0,8,indef,R$ 11 - R$ 85,-13.525189399719238,-71.946533203125,https://www.tripadvisor.com.br/Restaurant_Review-g294314-d22827440-Reviews-Cusquenisima_Picanteria-Cusco_Cusco_Region.html
14009432,Umai,"Calle Suecia 368, Cusco 08002 Peru",Cusco ,5.0,8,$$ - $$$,R$ 14 - R$ 14,-13.515325546264648,-71.97917175292969,https://www.tripadvisor.com.br/Restaurant_Review-g294314-d14009432-Reviews-Umai-Cusco_Cusco_Region.html
15527206,Sama Restaurante Café,"Portal Espinar 142 Casa Andina Standard Cusco Plaza, Cusco 08002 Peru",Cusco ,5.0,8,$$ - $$$,R$ 37 - R$ 79,-13.517545700073242,-71.97942352294922,https://www.tripadvisor.com.br/Restaurant_Review-g294314-d15527206-Reviews-Sama_Restaurante_Cafe-Cusco_Cusco_Region.html
11822515,Restaurant Los Apus Grill,"Street Tandapata No 1026 a 10 Metros de la Plaza de San Blas, Con Vista Panorámica al Centro Historico, Cusco 084 Peru",Cusco ,4.5,18,$$ - $$$,indef,-13.515192985534668,-71.97381591796875,https://www.tripadvisor.com.br/Restaurant_Review-g294314-d11822515-Reviews-Restaurant_Los_Apus_Grill-Cusco_Cusco_Region.html
10375179,Dufrape,"Calle Jose Gabriel Cosio N° 200, Cusco 08002 Peru",Cusco ,4.0,19,$,R$ 8 - R$ 26,-13.525811195373535,-71.9483871459961,https://www.tripadvisor.com.br/Restaurant_Review-g294314-d10375179-Reviews-Dufrape-Cusco_Cusco_Region.html
6890558,MANOLO E VITTORINO,"Calle Recoleta Angosta 555, Cusco Cusc 01 Peru",Cusco ,4.5,18,$$ - $$$,indef,-13.517069816589355,-71.97766876220703,https://www.tripadvisor.com.br/Restaurant_Review-g294314-d6890558-Reviews-MANOLO_E_VITTORINO-Cusco_Cusco_Region.html
7068606,Phaway,"Av. Pardo 895-B, Cusco 005184 Peru",Cusco ,4.5,19,$$ - $$$,indef,-13.523269653320312,-71.97515869140625,https://www.tripadvisor.com.br/Restaurant_Review-g294314-d7068606-Reviews-Phaway-Cusco_Cusco_Region.html
12096377,Tikay Café & Pizzería,"Espaderos 138 Near Plaza Regocijo / Al lado de la Plaza Regocijo, Cusco Peru",Cusco ,4.0,19,$$ - $$$,indef,-13.516667366027832,-71.9800033569336,https://www.tripadvisor.com.br/Restaurant_Review-g294314-d12096377-Reviews-Tikay_Cafe_Pizzeria-Cusco_Cusco_Region.html
4782380,Bar Cusco,"Plaza Regocijo, Cusco Peru",Cusco ,4.0,24,$$ - $$$,indef,0.0,0.0,https://www.tripadvisor.com.br/Restaurant_Review-g294314-d4782380-Reviews-Bar_Cusco-Cusco_Cusco_Region.html
4306662,Gustos y Sabores,"Avenida Tullumayo 878, Cusco Peru",Cusco ,4.5,21,$,indef,-13.523836135864258,-71.97290802001953,https://www.tripadvisor.com.br/Restaurant_Review-g294314-d4306662-Reviews-Gustos_y_Sabores-Cusco_Cusco_Region.html
12636941,Maizito Cuyeria,"La Pradera B-10 Puquin, Cusco 051 Peru",Cusco ,5.0,9,$$ - $$$,R$ 27 - R$ 55,-13.34501838684082,-72.16070556640625,https://www.tripadvisor.com.br/Restaurant_Review-g294314-d12636941-Reviews-Maizito_Cuyeria-Cusco_Cusco_Region.html
8428606,Ricuras,"Avenida El Sol, Cusco Peru",Cusco ,4.5,15,$$ - $$$,indef,-13.521539688110352,-71.97564697265625,https://www.tripadvisor.com.br/Restaurant_Review-g294314-d8428606-Reviews-Ricuras-Cusco_Cusco_Region.html
16660616,indef,indef,indef,indef,0,indef,indef,indef,indef,https://www.tripadvisor.com.br/Restaurant_Review-g294314-d16660616-Reviews-Candelaria-Cusco_Cusco_Region.html
15224360,El Bizarro,"Pasaje Plaza San Francisco 310, Cusco 08002 Peru",Cusco ,5.0,8,$$ - $$$,R$ 16 - R$ 69,-13.517903327941895,-71.98197174072266,https://www.tripadvisor.com.br/Restaurant_Review-g294314-d15224360-Reviews-El_Bizarro-Cusco_Cusco_Region.html
17328891,La Herencia,"Calle San Andres 477 Calle San Andrés 477 esquina con puente rosario la segunda casa ala derecha empezando San Andrés, Cusco 08002 Peru",Cusco ,5.0,8,$$ - $$$,R$ 14 - R$ 77,-13.521157264709473,-71.97693634033203,https://www.tripadvisor.com.br/Restaurant_Review-g294314-d17328891-Reviews-La_Herencia-Cusco_Cusco_Region.html
21380690,Te Piteado Munay Cusco,"Urb. Huancaro Residencial Calle triunfo M-8, Cusco 08002 Peru",Cusco ,5.0,6,$$ - $$$,R$ 21 - R$ 275,-13.533170700073242,-71.97502136230469,https://www.tripadvisor.com.br/Restaurant_Review-g294314-d21380690-Reviews-Te_Piteado_Munay_Cusco-Cusco_Cusco_Region.html
19459448,Qenqo Resto Bar,"Av. Circunvalación D - 8, Cuzco , Cuzco, Perú, Cusco 08001 Peru",Cusco ,5.0,8,$,R$ 16 - R$ 38,-13.512134552001953,-71.97237396240234,https://www.tripadvisor.com.br/Restaurant_Review-g294314-d19459448-Reviews-Qenqo_Resto_Bar-Cusco_Cusco_Region.html
19274185,Mirchi Indian Cuisine,"Ambiente 207,Galaria La Merced Avenida Sol 106 Plaza de Armas, Cusco 08002 Peru",Cusco ,5.0,29,$$ - $$$,R$ 27 - R$ 58,-13.517901420593262,-71.97888946533203,https://www.tripadvisor.com.br/Restaurant_Review-g294314-d19274185-Reviews-Mirchi_Indian_Cuisine-Cusco_Cusco_Region.html
7736092,The Craft,"Calle Saphi 476, Cusco 00084 Peru",Cusco ,4.5,58,$$ - $$$,R$ 106 - R$ 211,-13.514915466308594,-71.98112487792969,https://www.tripadvisor.com.br/Restaurant_Review-g294314-d7736092-Reviews-The_Craft-Cusco_Cusco_Region.html
4005839,Pizzeria Romana,"Av. La Cultura A-12, Cusco Peru",Cusco ,4.0,32,$$ - $$$,indef,-13.524809837341309,-71.95448303222656,https://www.tripadvisor.com.br/Restaurant_Review-g294314-d4005839-Reviews-Pizzeria_Romana-Cusco_Cusco_Region.html
2046556,Coca Shop,"Calle Calmen Alto 115 San Blas, Cusco 0000-0000 Peru",Cusco ,4.0,26,$$ - $$$,indef,-13.514961242675781,-71.9749984741211,https://www.tripadvisor.com.br/Restaurant_Review-g294314-d2046556-Reviews-Coca_Shop-Cusco_Cusco_Region.html
