restaurante_id,nome,endereco,cidade,nota,qtd_avaliacoes,categoria_preco,faixa_preco,latitude,longitude,fonte
3854404,Finch Bay Restaurant,"Barrio Punta Estrada S/N Playa de los Alemanes, Galapagos Islands, Puerto Ayora 200350 Equador",Santa Cruz ,4.5,198,$$$$,R$ 133 - R$ 346,-0.7542570233345032,-90.31026458740234,https://www.tripadvisor.com.br/Restaurant_Review-g297533-d3854404-Reviews-Finch_Bay_Restaurant-Puerto_Ayora_Santa_Cruz_Galapagos_Islands.html
12891718,Almar Seafood & Grill,"Av. Charles Darwin y Piqueros Dentro del hotel Galapagos Habitat Eco Luxury Hotel, Puerto Ayora 200350 Equador",Santa Cruz ,4.5,266,$$ - $$$,R$ 80 - R$ 170,-0.742883026599884,-90.30975341796876,https://www.tripadvisor.com.br/Restaurant_Review-g297533-d12891718-Reviews-Almar_Seafood_Grill-Puerto_Ayora_Santa_Cruz_Galapagos_Islands.html
5043050,Booby Trap,"Antonio Gil - Pto Villamil Note:Across St. From Casa Rosada, Puerto Villamil 200250 Equador",Isabela ,4.5,514,$$ - $$$,R$ 32 - R$ 160,-0.9572499990463256,-90.97063446044922,https://www.tripadvisor.com.br/Restaurant_Review-g1732554-d5043050-Reviews-Booby_Trap-Puerto_Villamil_Isabela_Galapagos_Islands.html
14770523,Bahía Mar Restaurant,"Av. Charles Darwin, 200350 Equador",Santa Cruz ,4.5,133,$$ - $$$,R$ 53 - R$ 239,-0.7448430061340332,-90.31114959716795,https://www.tripadvisor.com.br/Restaurant_Review-g297532-d14770523-Reviews-Bahia_Mar_Restaurant-Santa_Cruz_Galapagos_Islands.html
2341771,Galapagos Deli,"Tomas de Berlanga y Av. Baltra, Puerto Ayora 200350 Equador",Santa Cruz ,4.5,768,$$ - $$$,R$ 32 - R$ 106,-0.746487021446228,-90.31363677978516,https://www.tripadvisor.com.br/Restaurant_Review-g297533-d2341771-Reviews-Galapagos_Deli-Puerto_Ayora_Santa_Cruz_Galapagos_Islands.html
14093384,1835 Coffee Lab,"Av. Charles Darwin #825, Puerto Ayora 200350 Equador",Santa Cruz ,4.5,118,$$ - $$$,R$ 11 - R$ 85,-0.7428370118141174,-90.31105041503906,https://www.tripadvisor.com.br/Restaurant_Review-g297533-d14093384-Reviews-1835_Coffee_Lab-Puerto_Ayora_Santa_Cruz_Galapagos_Islands.html
8684019,Coco Surf,"Av. Antonio Gil 16 de Marzo, Puerto Villamil 200250 Equador",Isabela ,4.5,293,$$ - $$$,R$ 21 - R$ 160,-0.9569000005722046,-90.96717834472656,https://www.tripadvisor.com.br/Restaurant_Review-g1732554-d8684019-Reviews-Coco_Surf-Puerto_Villamil_Isabela_Galapagos_Islands.html
13172526,TJ Restaurant | Cocktail & Coffee,"Av Charles Darwin Av. Baltra, Puerto Ayora 200350 Equador",Santa Cruz ,5.0,316,$$ - $$$,R$ 27 - R$ 53,-0.7468249797821045,-90.3127670288086,https://www.tripadvisor.com.br/Restaurant_Review-g297533-d13172526-Reviews-TJ_Restaurant_Cocktail_Coffee-Puerto_Ayora_Santa_Cruz_Galapagos_Islands.html
2371344,La Garrapata Galapagos - Resto Bar,"Ave Charles Darwin 457, Puerto Ayora 200350 Equador",Santa Cruz ,4.5,984,$$ - $$$,R$ 53 - R$ 266,-0.7451090216636658,-90.31155395507812,https://www.tripadvisor.com.br/Restaurant_Review-g297533-d2371344-Reviews-La_Garrapata_Galapagos_Resto_Bar-Puerto_Ayora_Santa_Cruz_Galapagos_Islands.html
1928047,IslaGrill,"Punta Estrada Dentro del hotel Angermeyer Waterfront Inn., Puerto Ayora 200350 Equador",Santa Cruz ,4.5,916,$$ - $$$,R$ 53 - R$ 213,-0.7483890056610107,-90.3134994506836,https://www.tripadvisor.com.br/Restaurant_Review-g297533-d1928047-Reviews-IslaGrill-Puerto_Ayora_Santa_Cruz_Galapagos_Islands.html
10205440,Kiosko de Renato,"Charles Binford, Puerto Ayora 200350 Equador",Santa Cruz ,4.5,271,$,indef,-0.7459160089492798,-90.314453125,https://www.tripadvisor.com.br/Restaurant_Review-g297533-d10205440-Reviews-Kiosko_de_Renato-Puerto_Ayora_Santa_Cruz_Galapagos_Islands.html
12811292,Fresco Cafe,"Waterfront and Manuel Agama Playa de Oro, in front of the Fishermen Pier, Puerto Baquerizo Moreno 200150 Equador",San Cristobal ,5.0,72,$,R$ 32 - R$ 64,-0.8991420269012451,-89.60934448242188,https://www.tripadvisor.com.br/Restaurant_Review-g297531-d12811292-Reviews-Fresco_Cafe-Puerto_Baquerizo_Moreno_San_Cristobal_Galapagos_Islands.html
5577899,PIZZA.EAT,"Av. Charles Darwin, Puerto Ayora 200350 Equador",Santa Cruz ,4.0,363,$,R$ 11 - R$ 59,-0.7444360256195068,-90.31202697753906,https://www.tripadvisor.com.br/Restaurant_Review-g297533-d5577899-Reviews-PIZZA_EAT-Puerto_Ayora_Santa_Cruz_Galapagos_Islands.html
13544928,Muyu Galapagos,"Charles Darwin 3 In front of San Cristobal's Golden Beach, Puerto Baquerizo Moreno 200150 Equador",San Cristobal ,4.5,139,$$ - $$$,R$ 53 - R$ 373,-0.8996919989585876,-89.60935974121094,https://www.tripadvisor.com.br/Restaurant_Review-g297531-d13544928-Reviews-Muyu_Galapagos-Puerto_Baquerizo_Moreno_San_Cristobal_Galapagos_Islands.html
13960247,Santa Cruz Brewery,"Av. Charles Darwin corner with Floreana, 200350 Equador",Santa Cruz ,4.5,67,$$ - $$$,R$ 27 - R$ 106,-0.7431870102882385,-90.31226348876952,https://www.tripadvisor.com.br/Restaurant_Review-g297532-d13960247-Reviews-Santa_Cruz_Brewery-Santa_Cruz_Galapagos_Islands.html
9991830,Midori Sushi & Pub,"Charles Darwin Ave., Puerto Ayora 200350 Equador",Santa Cruz ,4.5,150,$$ - $$$,R$ 43 - R$ 80,-0.7425990104675293,-90.31086730957033,https://www.tripadvisor.com.br/Restaurant_Review-g297533-d9991830-Reviews-Midori_Sushi_Pub-Puerto_Ayora_Santa_Cruz_Galapagos_Islands.html
19493577,FraFre GastroBar,"Puerto Ayora Seymour Av. Seymour 141 y Adolfo Hanny frente a Bodega Blanca, 200350 Equador",Santa Cruz ,5.0,39,$$ - $$$,R$ 64 - R$ 133,-0.7422749996185303,-90.31148529052734,https://www.tripadvisor.com.br/Restaurant_Review-g297532-d19493577-Reviews-FraFre_GastroBar-Santa_Cruz_Galapagos_Islands.html
1925853,Il Giardino,"Charles Darwin y Charles Binford, Puerto Ayora 200350 Equador",Santa Cruz ,4.0,1725,$$ - $$$,indef,-0.744047999382019,-90.31229400634766,https://www.tripadvisor.com.br/Restaurant_Review-g297533-d1925853-Reviews-Il_Giardino-Puerto_Ayora_Santa_Cruz_Galapagos_Islands.html
7228474,Rancho El Manzanillo,"Main Road, 200350 Equador",Santa Cruz ,4.5,75,$$ - $$$,indef,-0.6966879963874817,-90.40193176269533,https://www.tripadvisor.com.br/Restaurant_Review-g297532-d7228474-Reviews-Rancho_El_Manzanillo-Santa_Cruz_Galapagos_Islands.html
5523397,EL DESCANSO MARINERO,"Calle Alsacio Northia y Espanola, Puerto Baquerizo Moreno 200150 Equador",San Cristobal ,4.0,362,$$ - $$$,indef,-0.9014400243759156,-89.61000061035156,https://www.tripadvisor.com.br/Restaurant_Review-g297531-d5523397-Reviews-EL_DESCANSO_MARINERO-Puerto_Baquerizo_Moreno_San_Cristobal_Galapagos_Islands.html
2314356,Cafe Hernan,"Av. Baltra y Charles Darwin, Puerto Ayora 200350 Equador",Santa Cruz ,4.0,475,$$ - $$$,indef,-0.7469609975814819,-90.31336212158205,https://www.tripadvisor.com.br/Restaurant_Review-g297533-d2314356-Reviews-Cafe_Hernan-Puerto_Ayora_Santa_Cruz_Galapagos_Islands.html
12390131,Giuseppe's Restaurant,"Av. Charles Darwin y Manuel J. Cobos Diagonal al barco de souvenirs, 200150 Equador",San Cristobal ,4.5,136,$$ - $$$,indef,-0.903474986553192,-89.61244201660156,https://www.tripadvisor.com.br/Restaurant_Review-g297530-d12390131-Reviews-Giuseppe_s_Restaurant-San_Cristobal_Galapagos_Islands.html
1934877,Angermeyer Waterfront Inn,"Academy Bay, Puerto Ayora 200350 Equador",Santa Cruz ,4.0,232,$$$$,indef,-0.7504079937934875,-90.30972290039062,https://www.tripadvisor.com.br/Restaurant_Review-g297533-d1934877-Reviews-Angermeyer_Waterfront_Inn-Puerto_Ayora_Santa_Cruz_Galapagos_Islands.html
1504639,The Rock Galapagos - Seafood Grill & Bar,"Avenida Charles Darwin 270 Islas plazas, Puerto Ayora 200102 Equador",Santa Cruz ,4.0,897,$$ - $$$,R$ 27 - R$ 75,-0.7464249730110168,-90.3125,https://www.tripadvisor.com.br/Restaurant_Review-g297533-d1504639-Reviews-The_Rock_Galapagos_Seafood_Grill_Bar-Puerto_Ayora_Santa_Cruz_Galapagos_Islands.html
4547832,Lo&Lo Restaurant,"Third Street off the Waterfront deck, Puerto Ayora 200350 Equador",Santa Cruz ,4.0,205,$$ - $$$,R$ 21 - R$ 112,-0.7462559938430786,-90.3136749267578,https://www.tripadvisor.com.br/Restaurant_Review-g297533-d4547832-Reviews-Lo_Lo_Restaurant-Puerto_Ayora_Santa_Cruz_Galapagos_Islands.html
8364419,Otoy Restaurant Organic Farms,"Cerro Verde, Carretera Principal Via a la Galapagera y Puerto Chino Equador",San Cristobal ,4.5,85,$$ - $$$,R$ 53 - R$ 149,-0.9027990102767944,-89.44188690185547,https://www.tripadvisor.com.br/Restaurant_Review-g297530-d8364419-Reviews-Otoy_Restaurant_Organic_Farms-San_Cristobal_Galapagos_Islands.html
8440588,Cri's,"Teodoro Wolf, Puerto Baquerizo Moreno 200150 Equador",San Cristobal ,4.0,139,$,indef,-0.9012370109558104,-89.61070251464844,https://www.tripadvisor.com.br/Restaurant_Review-g297531-d8440588-Reviews-Cri_s-Puerto_Baquerizo_Moreno_San_Cristobal_Galapagos_Islands.html
3191805,El Cafetal Galápagos,"Av Antonio Gil Fragatas 0006, Puerto Villamil 200250 Equador",Isabela ,4.5,290,$$ - $$$,R$ 64 - R$ 399,-0.9569510221481324,-90.96604919433594,https://www.tripadvisor.com.br/Restaurant_Review-g1732554-d3191805-Reviews-El_Cafetal_Galapagos-Puerto_Villamil_Isabela_Galapagos_Islands.html
2470092,K.F. William,"Charles Binford 2 Blocks From The Dock, Puerto Ayora 200350 Equador",Santa Cruz ,4.5,155,$,indef,-0.7458209991455078,-90.31427001953124,https://www.tripadvisor.com.br/Restaurant_Review-g297533-d2470092-Reviews-K_F_William-Puerto_Ayora_Santa_Cruz_Galapagos_Islands.html
9747535,Shawarma Hot,"Puerto Villamil, 200103 Equador",Isabela ,4.5,131,$$ - $$$,R$ 16 - R$ 27,-0.9572250247001648,-90.96492004394533,https://www.tripadvisor.com.br/Restaurant_Review-g297525-d9747535-Reviews-Shawarma_Hot-Isabela_Galapagos_Islands.html
11872228,Sabor Cuencano Bakery and Coffee Shop,"Av. Alsacio Northia s/n Federico Garcia, Puerto Baquerizo Moreno 200150 Equador",San Cristobal ,5.0,41,$,indef,-0.9006630182266235,-89.60894775390625,https://www.tripadvisor.com.br/Restaurant_Review-g297531-d11872228-Reviews-Sabor_Cuencano_Bakery_and_Coffee_Shop-Puerto_Baquerizo_Moreno_San_Cristobal_Gala.html
3397157,Calypso,"Av. Charles Darwin y Manuel Cobos, Puerto Baquerizo Moreno 200150 Equador",San Cristobal ,4.0,315,$$ - $$$,indef,-0.9024009704589844,-89.61225128173828,https://www.tripadvisor.com.br/Restaurant_Review-g297531-d3397157-Reviews-Calypso-Puerto_Baquerizo_Moreno_San_Cristobal_Galapagos_Islands.html
14125731,Midori Sushi,"Igancio Hernandez, Puerto Baquerizo Moreno 200150 Equador",San Cristobal ,4.5,62,$$ - $$$,indef,-0.9010649919509888,-89.61127471923828,https://www.tripadvisor.com.br/Restaurant_Review-g297531-d14125731-Reviews-Midori_Sushi-Puerto_Baquerizo_Moreno_San_Cristobal_Galapagos_Islands.html
10219883,New Angermeyer Point,"Punta Estrada, Muelle Angermeyer, Puerto Ayora 200350 Equador",Santa Cruz ,4.5,61,$$ - $$$,R$ 106 - R$ 266,-0.761210024356842,-90.30594635009766,https://www.tripadvisor.com.br/Restaurant_Review-g297533-d10219883-Reviews-New_Angermeyer_Point-Puerto_Ayora_Santa_Cruz_Galapagos_Islands.html
4944006,El Descanso del Guia,"Av. Charles Darwin y baltra Frente Al Malecon, Puerto Ayora 200350 Equador",Santa Cruz ,4.0,136,$,R$ 53 - R$ 101,0.0,0.0,https://www.tripadvisor.com.br/Restaurant_Review-g297533-d4944006-Reviews-El_Descanso_del_Guia-Puerto_Ayora_Santa_Cruz_Galapagos_Islands.html
12881145,Villa Luna Brewhouse & Kitchen,"Tomas de Berlanga corner with 12 de Febrero, Puerto Ayora 200350 Equador",Santa Cruz ,4.5,37,$$ - $$$,R$ 16 - R$ 133,-0.7453680038452148,-90.31256866455078,https://www.tripadvisor.com.br/Restaurant_Review-g297533-d12881145-Reviews-Villa_Luna_Brewhouse_Kitchen-Puerto_Ayora_Santa_Cruz_Galapagos_Islands.html
14214671,Andrea & Valerio,"Avenida Charles Darwin, 200350 Equador",Santa Cruz ,4.5,43,$$ - $$$,indef,-0.7436259984970093,-90.312255859375,https://www.tripadvisor.com.br/Restaurant_Review-g297532-d14214671-Reviews-Andrea_Valerio-Santa_Cruz_Galapagos_Islands.html
12897447,Restaurante La Casa de Marita,"Conocarpus Via al embarcadero Cenar frente al Océano Pacifico, Puerto Villamil 200250 Equador",Isabela ,4.5,45,$$ - $$$,R$ 37 - R$ 192,-0.9581210017204284,-90.9638900756836,https://www.tripadvisor.com.br/Restaurant_Review-g1732554-d12897447-Reviews-Restaurante_La_Casa_de_Marita-Puerto_Villamil_Isabela_Galapagos_Islands.html
2489486,Rosita,"Igancio Hernandez Jose de Villamil, Puerto Baquerizo Moreno 200150 Equador",San Cristobal ,4.0,304,$$ - $$$,indef,-0.9021120071411132,-89.6111068725586,https://www.tripadvisor.com.br/Restaurant_Review-g297531-d2489486-Reviews-Rosita-Puerto_Baquerizo_Moreno_San_Cristobal_Galapagos_Islands.html
13411914,Rolls & Pops,"Av. Baltra Frente al Hospital Republica del Ecuador Local #092, Puerto Ayora 200350 Equador",Santa Cruz ,5.0,24,$,R$ 11 - R$ 106,-0.7467510104179382,-90.31375122070312,https://www.tripadvisor.com.br/Restaurant_Review-g297533-d13411914-Reviews-Rolls_Pops-Puerto_Ayora_Santa_Cruz_Galapagos_Islands.html
14025298,Endemic Turtle Resto-Bar,"Calle Petreles y Av. Antonio Gil Junto a Hotel La Laguna, Puerto Villamil 200103 Equador",Isabela ,4.0,57,$$ - $$$,R$ 43 - R$ 186,-0.9565560221672058,-90.96749114990234,https://www.tripadvisor.com.br/Restaurant_Review-g1732554-d14025298-Reviews-Endemic_Turtle_Resto_Bar-Puerto_Villamil_Isabela_Galapagos_Islands.html
7175682,La Regata,"Charles Darwin Ave In front of La Capitania, Puerto Ayora 200350 Equador",Santa Cruz ,4.0,208,$$ - $$$,indef,-0.7468159794807434,-90.31291198730467,https://www.tripadvisor.com.br/Restaurant_Review-g297533-d7175682-Reviews-La_Regata-Puerto_Ayora_Santa_Cruz_Galapagos_Islands.html
5983022,Isabela Grill Steak House,"Isabela Galapagos Av. 16 de Marzo y Los Jelies, Puerto Villamil 593 Equador",Isabela ,4.0,119,$$ - $$$,R$ 21 - R$ 117,-0.955402970314026,-90.9666976928711,https://www.tripadvisor.com.br/Restaurant_Review-g1732554-d5983022-Reviews-Isabela_Grill_Steak_House-Puerto_Villamil_Isabela_Galapagos_Islands.html
12899017,Red Tuna Restaurant & Seafood,"Ave. Charles Darwin y Tomas de Berlanga Esquina, 200350 Equador",Santa Cruz ,4.5,49,$$ - $$$,R$ 48 - R$ 213,-0.7449129819869995,-90.31175994873048,https://www.tripadvisor.com.br/Restaurant_Review-g297532-d12899017-Reviews-Red_Tuna_Restaurant_Seafood-Santa_Cruz_Galapagos_Islands.html
9711723,Luckys,"Avenida Ignacio De Hernandez Jose De Villamil. Esquina, Puerto Baquerizo Moreno 200150 Equador",San Cristobal ,4.5,31,$,indef,-0.9021829962730408,-89.61139678955078,https://www.tripadvisor.com.br/Restaurant_Review-g297531-d9711723-Reviews-Luckys-Puerto_Baquerizo_Moreno_San_Cristobal_Galapagos_Islands.html
12164534,Maestro De Casa,"Av. Antonio Gil y Escalecia Esquina, Puerto Villamil 200250 Equador",Isabela ,4.5,48,$$ - $$$,R$ 27 - R$ 160,-0.957168996334076,-90.96503448486328,https://www.tripadvisor.com.br/Restaurant_Review-g1732554-d12164534-Reviews-Maestro_De_Casa-Puerto_Villamil_Isabela_Galapagos_Islands.html
12207404,De Sal y Dulce,"Avenida Charles Darwin, Puerto Ayora 200350 Equador",Santa Cruz ,4.5,35,$,indef,-0.7445319890975952,-90.31169891357422,https://www.tripadvisor.com.br/Restaurant_Review-g297533-d12207404-Reviews-De_Sal_y_Dulce-Puerto_Ayora_Santa_Cruz_Galapagos_Islands.html
2369971,Renato's,"Just off corner of Av Baltra and Charles Binford, Puerto Ayora 200350 Equador",Santa Cruz ,4.0,90,$,indef,-0.7459149956703186,-90.3144760131836,https://www.tripadvisor.com.br/Restaurant_Review-g297533-d2369971-Reviews-Renato_s-Puerto_Ayora_Santa_Cruz_Galapagos_Islands.html
9977737,Cafeteria Proinsular,"Charles Darwin y Ninfas Muelle principal, Puerto Ayora 200350 Equador",Santa Cruz ,4.5,33,$$ - $$$,indef,-0.7479760050773621,-90.3138198852539,https://www.tripadvisor.com.br/Restaurant_Review-g297533-d9977737-Reviews-Cafeteria_Proinsular-Puerto_Ayora_Santa_Cruz_Galapagos_Islands.html
13085785,OMG Galapagos Coffee House,"Charles Darwin Ave. Between Marchena and Piqueros, Puerto Ayora 200350 Equador",Santa Cruz ,4.5,37,$$ - $$$,indef,-0.7425259947776794,-90.31066131591795,https://www.tripadvisor.com.br/Restaurant_Review-g297533-d13085785-Reviews-OMG_Galapagos_Coffee_House-Puerto_Ayora_Santa_Cruz_Galapagos_Islands.html
15132093,El Muelle de Darwin,"Charles Darwin Ave. Seymour, Puerto Ayora 200102 Equador",Santa Cruz ,4.0,96,$$ - $$$,R$ 64 - R$ 266,-0.742792010307312,-90.3114013671875,https://www.tripadvisor.com.br/Restaurant_Review-g297533-d15132093-Reviews-El_Muelle_de_Darwin-Puerto_Ayora_Santa_Cruz_Galapagos_Islands.html
10201096,Zayapa Son-Bar Restaurant,"Floreana y Charles Darwin Frente al Molino de PelicanBay. Diagonal al monumento a la tortuga., Puerto Ayora 200350 Equador",Santa Cruz ,4.5,57,$$ - $$$,R$ 21 - R$ 293,-0.7428420186042786,-90.3121566772461,https://www.tripadvisor.com.br/Restaurant_Review-g297533-d10201096-Reviews-Zayapa_Son_Bar_Restaurant-Puerto_Ayora_Santa_Cruz_Galapagos_Islands.html
1765636,Tropic Bird Cafe,"Avenida Charles Darwin, Puerto Ayora 200350 Equador",Santa Cruz ,4.0,57,$,indef,-0.7441369891166687,-90.31222534179688,https://www.tripadvisor.com.br/Restaurant_Review-g297533-d1765636-Reviews-Tropic_Bird_Cafe-Puerto_Ayora_Santa_Cruz_Galapagos_Islands.html
12797476,Las Delicias del Pirata,"Calle de los Kioskos, Puerto Ayora, Santa Cruz, Galapagos, Ecuador., Puerto Ayora 200350 Equador",Santa Cruz ,4.5,21,$,R$ 27 - R$ 213,-0.745881974697113,-90.31434631347656,https://www.tripadvisor.com.br/Restaurant_Review-g297533-d12797476-Reviews-Las_Delicias_del_Pirata-Puerto_Ayora_Santa_Cruz_Galapagos_Islands.html
10748045,Lemon & Coffee,"Av. Charles Darwin y calle 12 de febrero 12 de Febrero y Avenida Charles Darwin, Puerto Ayora 200350 Equador",Santa Cruz ,4.0,87,$$ - $$$,R$ 43 - R$ 149,-0.7457290291786194,-90.3119125366211,https://www.tripadvisor.com.br/Restaurant_Review-g297533-d10748045-Reviews-Lemon_Coffee-Puerto_Ayora_Santa_Cruz_Galapagos_Islands.html
2341772,Servisabroson,"Binford y Baltra, Puerto Ayora 200350 Equador",Santa Cruz ,4.0,64,$$ - $$$,indef,-0.7422599792480469,-90.31852722167967,https://www.tripadvisor.com.br/Restaurant_Review-g297533-d2341772-Reviews-Servisabroson-Puerto_Ayora_Santa_Cruz_Galapagos_Islands.html
3906251,César's Restaurant,"Av. Antonio Gil y 16 de Marzo Main Square, Puerto Villamil 200250 Equador",Isabela ,3.5,260,$$ - $$$,R$ 32 - R$ 240,-0.9572409987449646,-90.9666748046875,https://www.tripadvisor.com.br/Restaurant_Review-g1732554-d3906251-Reviews-Cesar_s_Restaurant-Puerto_Villamil_Isabela_Galapagos_Islands.html
12718472,Galapagonia Sushi Bar,"Charles Binford y 12 de febrero Esquina Del Ministerio Del Turismo, 200350 Equador",Santa Cruz ,5.0,21,$$$$,R$ 53 - R$ 426,-0.7450000047683716,-90.31277465820312,https://www.tripadvisor.com.br/Restaurant_Review-g297532-d12718472-Reviews-Galapagonia_Sushi_Bar-Santa_Cruz_Galapagos_Islands.html
7216256,Parrilladas San Jose,"Vicente Rocafuerte and Gabriel Garcia Moreno, 120506 Equador",San Cristobal ,4.5,36,$$ - $$$,indef,0.0,0.0,https://www.tripadvisor.com.br/Restaurant_Review-g297530-d7216256-Reviews-Parrilladas_San_Jose-San_Cristobal_Galapagos_Islands.html
2314363,Rincon del Alma,"Avenida Charles Darwin between Avenida Baltra and Islas Plaza, Puerto Ayora 200350 Equador",Santa Cruz ,4.0,77,$$ - $$$,R$ 16 - R$ 106,-0.746749997138977,-90.31270599365234,https://www.tripadvisor.com.br/Restaurant_Review-g297533-d2314363-Reviews-Rincon_del_Alma-Puerto_Ayora_Santa_Cruz_Galapagos_Islands.html
13204855,Creperia El Puerto,"Av 12 de Febrero e Ignacio Hernandez Esquina, 010559 Equador",San Cristobal ,5.0,16,indef,indef,-0.902758002281189,-89.6115951538086,https://www.tripadvisor.com.br/Restaurant_Review-g297530-d13204855-Reviews-Creperia_El_Puerto-San_Cristobal_Galapagos_Islands.html
14792218,Ukku Acai Bar,"Av. Charles Darwin, 200350 Equador",Santa Cruz ,4.5,22,$,R$ 11 - R$ 43,-0.7423459887504578,-90.31281280517578,https://www.tripadvisor.com.br/Restaurant_Review-g297532-d14792218-Reviews-Ukku_Acai_Bar-Santa_Cruz_Galapagos_Islands.html
12975430,Nativo Bar Y Cafe,"Avenida Charles Darwin Malecon, Puerto Baquerizo Moreno 200150 Equador",San Cristobal ,4.0,31,$$ - $$$,R$ 32 - R$ 186,-0.9019330143928528,-89.61211395263672,https://www.tripadvisor.com.br/Restaurant_Review-g297531-d12975430-Reviews-Nativo_Bar_Y_Cafe-Puerto_Baquerizo_Moreno_San_Cristobal_Galapagos_Islands.html
9720383,Sol y Luna,Puerto Ayora Equador,Santa Cruz ,4.0,35,$,indef,-0.7459480166435242,-90.31452941894533,https://www.tripadvisor.com.br/Restaurant_Review-g297533-d9720383-Reviews-Sol_y_Luna-Puerto_Ayora_Santa_Cruz_Galapagos_Islands.html
7303941,Omg Moments,"Avenida Charles Darwin entre Marchena y Piqueros, 200350 Equador",Santa Cruz ,4.5,29,$$ - $$$,indef,0.0,0.0,https://www.tripadvisor.com.br/Restaurant_Review-g297532-d7303941-Reviews-Omg_Moments-Santa_Cruz_Galapagos_Islands.html
13996971,Palm Beach Restaurant,"Av. Escalecias y Tero Real, Puerto Villamil 200103 Equador",Isabela ,5.0,12,$$ - $$$,R$ 16 - R$ 160,-0.9560570120811462,-90.96508026123048,https://www.tripadvisor.com.br/Restaurant_Review-g1732554-d13996971-Reviews-Palm_Beach_Restaurant-Puerto_Villamil_Isabela_Galapagos_Islands.html
3629918,El Faro,"Las Fragatas, Puerto Villamil 200250 Equador",Isabela ,3.5,126,$$ - $$$,R$ 16 - R$ 106,-0.9562579989433287,-90.96623229980467,https://www.tripadvisor.com.br/Restaurant_Review-g1732554-d3629918-Reviews-El_Faro-Puerto_Villamil_Isabela_Galapagos_Islands.html
9555732,Bambu,"Calle Ignacio Hernandez, Puerto Baquerizo Moreno 200150 Equador",San Cristobal ,4.5,25,$$ - $$$,indef,-0.9008579850196838,-89.61062622070312,https://www.tripadvisor.com.br/Restaurant_Review-g297531-d9555732-Reviews-Bambu-Puerto_Baquerizo_Moreno_San_Cristobal_Galapagos_Islands.html
10348354,La Garrapata,"Pto. Ayora Barrio Pelican Bay Ave., 200350 Equador",Santa Cruz ,4.5,14,$$ - $$$,indef,0.0,0.0,https://www.tripadvisor.com.br/Restaurant_Review-g297532-d10348354-Reviews-La_Garrapata-Santa_Cruz_Galapagos_Islands.html
8001871,Casa del Lago Coffee Place,"Moisés Brito 185 y Juan Montalvo At the entrance of the Ninfas Lake, Puerto Ayora 200350 Equador",Santa Cruz ,4.5,25,$,indef,-0.74686598777771,-90.31597900390624,https://www.tripadvisor.com.br/Restaurant_Review-g297533-d8001871-Reviews-Casa_del_Lago_Coffee_Place-Puerto_Ayora_Santa_Cruz_Galapagos_Islands.html
15636436,Rincon de Sebas,"Av. Alsacio Northia y Espanola, Puerto Baquerizo Moreno 200101 Equador",San Cristobal ,4.5,14,$,indef,-0.9017189741134644,-89.6099853515625,https://www.tripadvisor.com.br/Restaurant_Review-g297531-d15636436-Reviews-Rincon_de_Sebas-Puerto_Baquerizo_Moreno_San_Cristobal_Galapagos_Islands.html
4746100,Blue Footed Booby,"La Calle de los Kioscos, Puerto Ayora 200350 Equador",Santa Cruz ,4.0,40,$,indef,-0.7461619973182678,-90.31455993652344,https://www.tripadvisor.com.br/Restaurant_Review-g297533-d4746100-Reviews-Blue_Footed_Booby-Puerto_Ayora_Santa_Cruz_Galapagos_Islands.html
4588428,BM Lobster Endemic,"Antonio Gil, Puerto Villamil 200250 Equador",Isabela ,4.0,51,$$ - $$$,R$ 53 - R$ 160,-0.9568819999694824,-90.96424865722656,https://www.tripadvisor.com.br/Restaurant_Review-g1732554-d4588428-Reviews-BM_Lobster_Endemic-Puerto_Villamil_Isabela_Galapagos_Islands.html
3645239,Restaurante Miconia,"Av. Charles Darwin, Puerto Baquerizo Moreno 200150 Equador",San Cristobal ,3.5,165,$$ - $$$,indef,-0.9007490277290344,-89.61093139648438,https://www.tripadvisor.com.br/Restaurant_Review-g297531-d3645239-Reviews-Restaurante_Miconia-Puerto_Baquerizo_Moreno_San_Cristobal_Galapagos_Islands.html
3906255,Los Delfines,"Antonio Gil & Las Fragatas, Puerto Villamil Equador",Isabela ,3.5,225,$$ - $$$,R$ 27 - R$ 213,-0.9572439789772034,-90.96617126464844,https://www.tripadvisor.com.br/Restaurant_Review-g1732554-d3906255-Reviews-Los_Delfines-Puerto_Villamil_Isabela_Galapagos_Islands.html
15606078,Mi Tierra Galápagos,"Avenida Baltra Barrio Pelikan Bay, Puerto Ayora 200350 Equador",Santa Cruz ,4.5,15,$$ - $$$,R$ 27 - R$ 186,-0.7428650259971619,-90.31168365478516,https://www.tripadvisor.com.br/Restaurant_Review-g297533-d15606078-Reviews-Mi_Tierra_Galapagos-Puerto_Ayora_Santa_Cruz_Galapagos_Islands.html
16843996,The Seafood House,"Espanola, Puerto Baquerizo Moreno 200150 Equador",San Cristobal ,4.5,9,indef,indef,-0.901669979095459,-89.61092376708984,https://www.tripadvisor.com.br/Restaurant_Review-g297531-d16843996-Reviews-The_Seafood_House-Puerto_Baquerizo_Moreno_San_Cristobal_Galapagos_Islands.html
3782563,La Fogata,"Avinas, Puerto Villamil 200250 Equador",Isabela ,3.5,51,$$ - $$$,indef,-0.9565399885177612,-90.96622467041016,https://www.tripadvisor.com.br/Restaurant_Review-g1732554-d3782563-Reviews-La_Fogata-Puerto_Villamil_Isabela_Galapagos_Islands.html
12906867,El Agachadito -Trattoria de Pippo,"Charles Binford, s/n, Puerto Ayora 200350 Equador",Santa Cruz ,4.5,20,$$ - $$$,indef,-0.7455819845199585,-90.31401824951172,https://www.tripadvisor.com.br/Restaurant_Review-g297533-d12906867-Reviews-El_Agachadito_Trattoria_de_Pippo-Puerto_Ayora_Santa_Cruz_Galapagos_Islands.html
8467319,Aqua Cocina Nativa,"Avenida Charles Darwin y Piqueros, Puerto Ayora 200350 Equador",Santa Cruz ,4.0,44,$$ - $$$,R$ 53 - R$ 186,-0.7427200078964233,-90.31120300292967,https://www.tripadvisor.com.br/Restaurant_Review-g297533-d8467319-Reviews-Aqua_Cocina_Nativa-Puerto_Ayora_Santa_Cruz_Galapagos_Islands.html
6167997,Iguana Point Bar,"Puerto Villamil, 010850 Equador",Isabela ,4.5,65,$$ - $$$,indef,-0.9577640295028688,-90.96676635742188,https://www.tripadvisor.com.br/Restaurant_Review-g297525-d6167997-Reviews-Iguana_Point_Bar-Isabela_Galapagos_Islands.html
12211925,BJ Beach Club Café Bar Coctelería,"Malecon, Puerto Villamil 200250 Equador",Isabela ,4.0,24,$$ - $$$,R$ 16 - R$ 96,-0.9577869772911072,-90.9666519165039,https://www.tripadvisor.com.br/Restaurant_Review-g1732554-d12211925-Reviews-BJ_Beach_Club_Cafe_Bar_Cocteleria-Puerto_Villamil_Isabela_Galapagos_Islands.html
4795014,Tsunami sport bar,"Pr-466 Intersection of PR-466 & PR-4466, 010850 Equador",Isabela ,4.5,17,$,indef,0.0,0.0,https://www.tripadvisor.com.br/Restaurant_Review-g297525-d4795014-Reviews-Tsunami_sport_bar-Isabela_Galapagos_Islands.html
3704430,El Encanto De La Pepa,"Av. Antonio Gil, Puerto Villamil 200250 Equador",Isabela ,3.5,140,$,indef,-0.9572219848632812,-90.9664535522461,https://www.tripadvisor.com.br/Restaurant_Review-g1732554-d3704430-Reviews-El_Encanto_De_La_Pepa-Puerto_Villamil_Isabela_Galapagos_Islands.html
11833321,Urban Food,"Hernan Melville y Charles Darwin Frente al Mueye de Pasajeros, Puerto Baquerizo Moreno 200150 Equador",San Cristobal ,3.5,43,$,R$ 21 - R$ 80,-0.9006810188293457,-89.610595703125,https://www.tripadvisor.com.br/Restaurant_Review-g297531-d11833321-Reviews-Urban_Food-Puerto_Baquerizo_Moreno_San_Cristobal_Galapagos_Islands.html
9603621,El Velero,"Avenue Antonio Gil Av. Antonio Gil, Puerto Villamil 200250 Equador",Isabela ,3.5,167,$$ - $$$,R$ 27 - R$ 160,-0.9572809934616088,-90.96636199951172,https://www.tripadvisor.com.br/Restaurant_Review-g1732554-d9603621-Reviews-El_Velero-Puerto_Villamil_Isabela_Galapagos_Islands.html
15058999,Maui RestoBar,"Av. Armada Nacional, 120506 Equador",San Cristobal ,5.0,8,$$ - $$$,indef,-0.9043539762496948,-89.61300659179688,https://www.tripadvisor.com.br/Restaurant_Review-g297530-d15058999-Reviews-Maui_RestoBar-San_Cristobal_Galapagos_Islands.html
12049096,Sazón manabita,"Galapgos, Puerto Ayora 200350 Equador",Santa Cruz ,4.0,13,$,indef,0.0,0.0,https://www.tripadvisor.com.br/Restaurant_Review-g297533-d12049096-Reviews-Sazon_manabita-Puerto_Ayora_Santa_Cruz_Galapagos_Islands.html
9555737,Patagonia,"Avenida Darwin Con Teodoro Wolf, Puerto Baquerizo Moreno 200150 Equador",San Cristobal ,3.5,43,$,indef,-0.9007899761199952,-89.61103820800781,https://www.tripadvisor.com.br/Restaurant_Review-g297531-d9555737-Reviews-Patagonia-Puerto_Baquerizo_Moreno_San_Cristobal_Galapagos_Islands.html
13376029,La Canchalagua,Main Road Puerto Velazco Equador,Floreana ,4.5,8,$$ - $$$,indef,0.0,0.0,https://www.tripadvisor.com.br/Restaurant_Review-g297523-d13376029-Reviews-La_Canchalagua-Floreana_Galapagos_Islands.html
13399631,El Cangrejo Loco,"1625 N Story Rd Suite 136, 75061 Equador",San Cristobal ,4.0,12,$$ - $$$,indef,0.0,0.0,https://www.tripadvisor.com.br/Restaurant_Review-g297530-d13399631-Reviews-El_Cangrejo_Loco-San_Cristobal_Galapagos_Islands.html
8004792,Volcano Bay Bar Restaurante,"Av. Charles Darwin e Isla Floreana next to Supermarket Proinsular, 200101 Equador",Santa Cruz ,4.0,32,$$ - $$$,indef,-0.7481489777565002,-90.3137664794922,https://www.tripadvisor.com.br/Restaurant_Review-g297532-d8004792-Reviews-Volcano_Bay_Bar_Restaurante-Santa_Cruz_Galapagos_Islands.html
10178359,Mockingbird Cafe,"Malecon 2nd Street Espanola & Hernandez, Puerto Baquerizo Moreno 200150 Equador",San Cristobal ,3.5,64,$,indef,-0.9013130068778992,-89.61088562011719,https://www.tripadvisor.com.br/Restaurant_Review-g297531-d10178359-Reviews-Mockingbird_Cafe-Puerto_Baquerizo_Moreno_San_Cristobal_Galapagos_Islands.html
19994820,Magma Lounge,"Av. Alsacio Northia s/n, 200150 Equador",San Cristobal ,5.0,5,$$ - $$$,R$ 106 - R$ 266,-0.909030020236969,-89.61721801757812,https://www.tripadvisor.com.br/Restaurant_Review-g297530-d19994820-Reviews-Magma_Lounge-San_Cristobal_Galapagos_Islands.html
8006289,Bello Puerto Restaurant,"Av. Antonio Gil, Via Al Embarcadero Galapagos, 010850 Equador",Isabela ,indef,0,$,indef,0.0,0.0,https://www.tripadvisor.com.br/Restaurant_Review-g297525-d8006289-Reviews-Bello_Puerto_Restaurant-Isabela_Galapagos_Islands.html
15050665,El Sorbete,"Av. Antonio Gil Diagonal al Centro de Salud, Puerto Villamil 200250 Equador",Isabela ,5.0,6,$,R$ 11 - R$ 32,-0.95695698261261,-90.96719360351562,https://www.tripadvisor.com.br/Restaurant_Review-g1732554-d15050665-Reviews-El_Sorbete-Puerto_Villamil_Isabela_Galapagos_Islands.html
2660508,El Chocolate Galapagos,"Av Charles Darwin City Centre, 200350 Equador",Santa Cruz ,3.5,86,$$ - $$$,indef,-0.746999979019165,-90.3133316040039,https://www.tripadvisor.com.br/Restaurant_Review-g297532-d2660508-Reviews-El_Chocolate_Galapagos-Santa_Cruz_Galapagos_Islands.html
8300808,Encanto Manabita,"Avenue Alsacio Northia, Puerto Baquerizo Moreno 200150 Equador",San Cristobal ,4.0,12,$$ - $$$,indef,-0.9070000052452089,-89.44224548339844,https://www.tripadvisor.com.br/Restaurant_Review-g297531-d8300808-Reviews-Encanto_Manabita-Puerto_Baquerizo_Moreno_San_Cristobal_Galapagos_Islands.html
4040826,Lelia´s Restaurant,Calle Oswaldo Rosero S/N e Ignacio Hernandez Equador,Floreana ,4.0,9,$$ - $$$,indef,0.0,0.0,https://www.tripadvisor.com.br/Restaurant_Review-g297523-d4040826-Reviews-Lelia_s_Restaurant-Floreana_Galapagos_Islands.html
5970136,Neptuno Restaurant,"General Rodriguez Lara y Charles Binford, Puerto Ayora 200350 Equador",Santa Cruz ,4.5,10,indef,indef,0.0,0.0,https://www.tripadvisor.com.br/Restaurant_Review-g297533-d5970136-Reviews-Neptuno_Restaurant-Puerto_Ayora_Santa_Cruz_Galapagos_Islands.html
15808987,Sunrise & Coffee,"Malecón Bahía Naufragio Next To Second Naval Zone, 200150 Equador",San Cristobal ,5.0,4,$$ - $$$,R$ 16 - R$ 133,-0.9022629857063292,-89.61385345458984,https://www.tripadvisor.com.br/Restaurant_Review-g297530-d15808987-Reviews-Sunrise_Coffee-San_Cristobal_Galapagos_Islands.html
15610248,Restaurante Pizzeria Playa Sol y Mar,"Charles Binford y Av. Baltra, Puerto Ayora 200350 Equador",Santa Cruz ,5.0,4,$$ - $$$,R$ 27 - R$ 133,-0.7456859946250916,-90.31439208984376,https://www.tripadvisor.com.br/Restaurant_Review-g297533-d15610248-Reviews-Restaurante_Pizzeria_Playa_Sol_y_Mar-Puerto_Ayora_Santa_Cruz_Galapagos_Islands.html
13389402,Restaurant The Oasis,"Pinzon Artesano, Puerto Villamil 200250 Equador",Isabela ,5.0,4,$$ - $$$,R$ 80 - R$ 186,-0.9542999863624572,-90.96355438232422,https://www.tripadvisor.com.br/Restaurant_Review-g1732554-d13389402-Reviews-Restaurant_The_Oasis-Puerto_Villamil_Isabela_Galapagos_Islands.html
7595631,Royal Bambu,"Via Playa de Oro, Puerto Baquerizo Moreno 200150 Equador",San Cristobal ,4.0,8,$$ - $$$,indef,0.0,0.0,https://www.tripadvisor.com.br/Restaurant_Review-g297531-d7595631-Reviews-Royal_Bambu-Puerto_Baquerizo_Moreno_San_Cristobal_Galapagos_Islands.html
18929953,Burger House GPS,"Miraflores Charles Binford y 12 de Febrero, 200350 Equador",Santa Cruz ,5.0,12,$$ - $$$,R$ 43 - R$ 133,-0.7452620267868042,-90.312744140625,https://www.tripadvisor.com.br/Restaurant_Review-g297532-d18929953-Reviews-Burger_House_GPS-Santa_Cruz_Galapagos_Islands.html
9586192,Los Frutos Del Mar,Puerto Ayora Equador,Santa Cruz ,4.0,9,$,indef,0.0,0.0,https://www.tripadvisor.com.br/Restaurant_Review-g297533-d9586192-Reviews-Los_Frutos_Del_Mar-Puerto_Ayora_Santa_Cruz_Galapagos_Islands.html
13956373,Galapago's Bread Coffee & Drink,"Av. Baltra Diagonal a la calle los kioskos, Puerto Ayora 200350 Equador",Santa Cruz ,4.5,3,$$ - $$$,R$ 27 - R$ 106,-0.7464020252227783,-90.3146514892578,https://www.tripadvisor.com.br/Restaurant_Review-g297533-d13956373-Reviews-Galapago_s_Bread_Coffee_Drink-Puerto_Ayora_Santa_Cruz_Galapagos_Islands.html
12413579,Isleno Restaurant & Bar,"Av. Conocarpus, S/N 200 mts. from the Pier, Puerto Villamil 170527 Equador",Isabela ,4.0,7,$$ - $$$,R$ 80 - R$ 106,-0.9602620005607604,-90.96151733398438,https://www.tripadvisor.com.br/Restaurant_Review-g1732554-d12413579-Reviews-Isleno_Restaurant_Bar-Puerto_Villamil_Isabela_Galapagos_Islands.html
11890504,"Restaurant ""La Playa""","Av. Alsacio Northia y Jose Vallejo, 120506 Equador",San Cristobal ,4.5,4,indef,indef,-0.9014300107955932,-89.61007690429688,https://www.tripadvisor.com.br/Restaurant_Review-g297530-d11890504-Reviews-Restaurant_La_Playa-San_Cristobal_Galapagos_Islands.html
18340742,Restaurante Rancho Manabita,"Avenida Alsacio Northia y Espanola Barrio Central, 120506 Equador",San Cristobal ,5.0,2,$$ - $$$,R$ 16 - R$ 122,-0.9017540216445924,-89.61026763916016,https://www.tripadvisor.com.br/Restaurant_Review-g297530-d18340742-Reviews-Restaurante_Rancho_Manabita-San_Cristobal_Galapagos_Islands.html
2630003,Galápagos Cocina,"Rodriguez Lara Rodríguez Lara, Puerto Ayora 200350 Equador",Santa Cruz ,4.5,5,$$$$,R$ 21 - R$ 426,0.0,0.0,https://www.tripadvisor.com.br/Restaurant_Review-g297533-d2630003-Reviews-Galapagos_Cocina-Puerto_Ayora_Santa_Cruz_Galapagos_Islands.html
19274791,Cabana mi Grande,"Jose de Villamill Puerto Baquerizo Moreno, Puerto Baquerizo Moreno 120506 Equador",San Cristobal ,5.0,2,indef,indef,-0.9021099805831908,-89.61119842529297,https://www.tripadvisor.com.br/Restaurant_Review-g297531-d19274791-Reviews-Cabana_mi_Grande-Puerto_Baquerizo_Moreno_San_Cristobal_Galapagos_Islands.html
17630371,La Calle de Los Kioskos,"Charles Binford Av. Baltra and Islas Plazas, Puerto Ayora 200350 Equador",Santa Cruz ,5.0,2,indef,indef,0.0,0.0,https://www.tripadvisor.com.br/Restaurant_Review-g297533-d17630371-Reviews-La_Calle_de_Los_Kioskos-Puerto_Ayora_Santa_Cruz_Galapagos_Islands.html
10187988,El Toque De Melida,Puerto Villamil Equador,Isabela ,4.0,5,$,indef,0.0,0.0,https://www.tripadvisor.com.br/Restaurant_Review-g1732554-d10187988-Reviews-El_Toque_De_Melida-Puerto_Villamil_Isabela_Galapagos_Islands.html
13576914,Lemon & Coffee,"De Febrero 12 Ave Charles Darwin, Puerto Ayora 200350 Equador",Santa Cruz ,4.0,5,indef,indef,0.0,0.0,https://www.tripadvisor.com.br/Restaurant_Review-g297533-d13576914-Reviews-Lemon_Coffee-Puerto_Ayora_Santa_Cruz_Galapagos_Islands.html
11715013,Galatacos Bay,"Charles darwin e indefatigable, Puerto Ayora 200350 Equador",Santa Cruz ,4.5,3,indef,indef,0.0,0.0,https://www.tripadvisor.com.br/Restaurant_Review-g297533-d11715013-Reviews-Galatacos_Bay-Puerto_Ayora_Santa_Cruz_Galapagos_Islands.html
23261400,Chef Chino-galapagos Chinese Food,Avenue Baltra Equador,Santa Cruz ,5.0,1,indef,indef,-0.4447439908981323,-90.2689437866211,https://www.tripadvisor.com.br/Restaurant_Review-g297532-d23261400-Reviews-Chef_Chino_galapagos_Chinese_Food-Santa_Cruz_Galapagos_Islands.html
13316661,Royal Rock,"Antonio Gil, Puerto Villamil 200250 Equador",Isabela ,4.0,17,$$ - $$$,R$ 43 - R$ 186,-0.9587739706039428,-90.96552276611328,https://www.tripadvisor.com.br/Restaurant_Review-g1732554-d13316661-Reviews-Royal_Rock-Puerto_Villamil_Isabela_Galapagos_Islands.html
19890089,Green Food Galapagos,"Albatros Santa Cruz, Galapagos, Puerto Ayora 200350 Equador",Santa Cruz ,5.0,1,$,R$ 27 - R$ 53,-0.7453359961509705,-90.31145477294922,https://www.tripadvisor.com.br/Restaurant_Review-g297533-d19890089-Reviews-Green_Food_Galapagos-Puerto_Ayora_Santa_Cruz_Galapagos_Islands.html
12407280,Paulev Lounge,"Av Quito y Alsacio Northia N/r, Puerto Baquerizo Moreno 200101 Equador",San Cristobal ,5.0,1,$$$$,R$ 27 - R$ 479,-0.9045010209083556,-89.6115951538086,https://www.tripadvisor.com.br/Restaurant_Review-g297531-d12407280-Reviews-Paulev_Lounge-Puerto_Baquerizo_Moreno_San_Cristobal_Galapagos_Islands.html
19769410,Jamil Kame,"Av. Alsacio Northia y Hernan Melville Junto al Cne, 200015 Equador",San Cristobal ,5.0,1,indef,indef,0.0,0.0,https://www.tripadvisor.com.br/Restaurant_Review-g297530-d19769410-Reviews-Jamil_Kame-San_Cristobal_Galapagos_Islands.html
14012491,La Choza,"Av Malecon, Puerto Villamil 200250 Equador",Isabela ,3.5,6,$,indef,-0.9578089714050292,-90.96641540527344,https://www.tripadvisor.com.br/Restaurant_Review-g1732554-d14012491-Reviews-La_Choza-Puerto_Villamil_Isabela_Galapagos_Islands.html
13150837,Playa Sol Y Mar,"Charles Binford, Puerto Ayora 200350 Equador",Santa Cruz ,3.5,7,$,indef,-0.7458879947662354,-90.31436920166016,https://www.tripadvisor.com.br/Restaurant_Review-g297533-d13150837-Reviews-Playa_Sol_Y_Mar-Puerto_Ayora_Santa_Cruz_Galapagos_Islands.html
11871019,Galapagos Dreams Restaurant,"Av. Charles Darwin y 12 de febrero Ubicados en la segunda planta., 120506 Equador",San Cristobal ,3.5,43,$$ - $$$,R$ 27 - R$ 133,-0.9023810029029846,-89.61216735839844,https://www.tripadvisor.com.br/Restaurant_Review-g297530-d11871019-Reviews-Galapagos_Dreams_Restaurant-San_Cristobal_Galapagos_Islands.html
20362233,J & J,"Avenida 12 de Febrero, Puerto Baquerizo Moreno 200150 Equador",San Cristobal ,4.0,1,indef,indef,-0.9043999910354614,-89.6089096069336,https://www.tripadvisor.com.br/Restaurant_Review-g297531-d20362233-Reviews-J_J-Puerto_Baquerizo_Moreno_San_Cristobal_Galapagos_Islands.html
6360223,La Cascada,"La Calle de Los Kioskos, Puerto Ayora 200350 Equador",Santa Cruz ,4.0,2,indef,indef,0.0,0.0,https://www.tripadvisor.com.br/Restaurant_Review-g297533-d6360223-Reviews-La_Cascada-Puerto_Ayora_Santa_Cruz_Galapagos_Islands.html
10178028,Picanteria lagostita,Puerto Baquerizo Moreno Equador,San Cristobal ,4.0,1,indef,indef,0.0,0.0,https://www.tripadvisor.com.br/Restaurant_Review-g297531-d10178028-Reviews-Picanteria_lagostita-Puerto_Baquerizo_Moreno_San_Cristobal_Galapagos_Islands.html
14189424,Sun & Coffee,"Av. Antonio Gil y Petreles, Puerto Villamil 200250 Equador",Isabela ,4.5,5,$$ - $$$,R$ 37 - R$ 122,-0.9568600058555604,-90.96728515625,https://www.tripadvisor.com.br/Restaurant_Review-g1732554-d14189424-Reviews-Sun_Coffee-Puerto_Villamil_Isabela_Galapagos_Islands.html
14968829,Patio De Comidas Del Mercado Municipal De San Cristobal,"AV. 12 DE Febrero Y Juan Jose Flores, 200150 Equador",San Cristobal ,3.0,1,$,R$ 21 - R$ 80,-0.9040870070457458,-89.60994720458984,https://www.tripadvisor.com.br/Restaurant_Review-g297530-d14968829-Reviews-Patio_De_Comidas_Del_Mercado_Municipal_De_San_Cristobal-San_Cristobal_Galapagos_.html
19453103,Camino del SOL Craft Brewery,"Charles Darwin and isla Floreana Roof Top, Puerto Ayora 200350 Equador",Santa Cruz ,4.0,6,$$ - $$$,R$ 43 - R$ 85,-0.7430329918861389,-90.3119659423828,https://www.tripadvisor.com.br/Restaurant_Review-g297533-d19453103-Reviews-Camino_del_SOL_Craft_Brewery-Puerto_Ayora_Santa_Cruz_Galapagos_Islands.html
17413390,"Parrillada ""Dona Mery""","Av Padre Julio Herrera Barrio el Porvenir - Near Camino Viejo, Bellavista Equador",Santa Cruz ,3.0,1,indef,indef,-0.7134400010108948,-90.32585906982422,https://www.tripadvisor.com.br/Restaurant_Review-g8125477-d17413390-Reviews-Parrillada_Dona_Mery-Bellavista_Santa_Cruz_Galapagos_Islands.html
9590696,Flamboyant,"Igancio Hernandez, s/n, Puerto Baquerizo Moreno 200150 Equador",San Cristobal ,5.0,6,$$ - $$$,R$ 11 - R$ 133,-0.8398720026016235,-89.432373046875,https://www.tripadvisor.com.br/Restaurant_Review-g297531-d9590696-Reviews-Flamboyant-Puerto_Baquerizo_Moreno_San_Cristobal_Galapagos_Islands.html
13224308,Restaurante Isla de Faro,"Av. Baltra and Charles Binford, 200350 Equador",Santa Cruz ,3.0,3,$$ - $$$,R$ 27 - R$ 96,-0.7464219927787781,-90.31462860107422,https://www.tripadvisor.com.br/Restaurant_Review-g297532-d13224308-Reviews-Restaurante_Isla_de_Faro-Santa_Cruz_Galapagos_Islands.html
15117271,Wing Stop Galapagos,"Av Charles Binford 12 de Febrero, Puerto Ayora 200350 Equador",Santa Cruz ,4.5,3,$$ - $$$,R$ 37 - R$ 133,-0.7450950145721436,-90.3133773803711,https://www.tripadvisor.com.br/Restaurant_Review-g297533-d15117271-Reviews-Wing_Stop_Galapagos-Puerto_Ayora_Santa_Cruz_Galapagos_Islands.html
19932099,Lecocarpus Bar & Restaurant,"Av. 12 de Febrero Corner with Juan Salgado, 200152 Equador",Floreana ,2.5,2,indef,indef,-1.2749290466308594,-90.48663330078124,https://www.tripadvisor.com.br/Restaurant_Review-g297523-d19932099-Reviews-Lecocarpus_Bar_Restaurant-Floreana_Galapagos_Islands.html
2689995,Sheanovi,"Ignacio Hernandez Jose de Villamil, 200150 Equador",San Cristobal ,5.0,1,$$ - $$$,R$ 27 - R$ 96,0.0,0.0,https://www.tripadvisor.com.br/Restaurant_Review-g297530-d2689995-Reviews-Sheanovi-San_Cristobal_Galapagos_Islands.html
16874771,Darwin's Lounge,"Av. Charles Darwin, 200350 Equador",Ilhas Galápagos ,indef,0,$$ - $$$,R$ 27 - R$ 80,-0.7423419952392578,-90.31028747558594,https://www.tripadvisor.com.br/Restaurant_Review-g294310-d16874771-Reviews-Darwin_s_Lounge-Galapagos_Islands.html
23061721,Galápagos Frontier,"Guayabillo Occidental Rancho Galápagos Frontier, Puerto Ayora Equador",Santa Cruz ,5.0,1,indef,indef,-0.7116529941558838,-90.35172271728516,https://www.tripadvisor.com.br/Restaurant_Review-g297533-d23061721-Reviews-Galapagos_Frontier-Puerto_Ayora_Santa_Cruz_Galapagos_Islands.html
4363819,Ariel Bistro Cafe,"Avenida Rafael Vidal, Plaza Sunset Boulevard. Right next to Shell gas station, 51000 Equador",Santiago ,indef,0,indef,indef,0.0,0.0,https://www.tripadvisor.com.br/Restaurant_Review-g297535-d4363819-Reviews-Ariel_Bistro_Cafe-Santiago_Galapagos_Islands.html
3913751,Oki Sushi,"Cuba 69, 110159 Equador",Santiago ,indef,0,indef,indef,0.0,0.0,https://www.tripadvisor.com.br/Restaurant_Review-g297535-d3913751-Reviews-Oki_Sushi-Santiago_Galapagos_Islands.html
17630372,La Calle De Los Kioskos,"Charles Binford, 200350 Equador",Santa Cruz ,indef,0,indef,indef,0.0,0.0,https://www.tripadvisor.com.br/Restaurant_Review-g297532-d17630372-Reviews-La_Calle_De_Los_Kioskos-Santa_Cruz_Galapagos_Islands.html
20378296,Royal Taj India Cuisine,"270 Soquel Ave, 95062 Equador",Santa Cruz ,indef,0,indef,indef,36.97369766235352,-122.02165222167967,https://www.tripadvisor.com.br/Restaurant_Review-g297532-d20378296-Reviews-Royal_Taj_India_Cuisine-Santa_Cruz_Galapagos_Islands.html
16835901,Restaurante Sazon Manabita,"Calle de los Kioskos El tercer local de lado izquierdo, 200350 Equador",Santa Cruz ,indef,0,indef,indef,0.0,0.0,https://www.tripadvisor.com.br/Restaurant_Review-g297532-d16835901-Reviews-Restaurante_Sazon_Manabita-Santa_Cruz_Galapagos_Islands.html
23309403,J & C Fast Food,Scalecia y Cormoran 214 in front of Gran Escape Equador,Santa Cruz ,indef,0,indef,indef,0.0,0.0,https://www.tripadvisor.com.br/Restaurant_Review-g297532-d23309403-Reviews-J_C_Fast_Food-Santa_Cruz_Galapagos_Islands.html
23300641,Mr. Elote,"Calle Tomas De Berlanga Y Av Charles Darwin, 200105 Equador",Santa Cruz ,indef,0,$$ - $$$,R$ 37 - R$ 133,-0.7445639967918396,-90.31157684326172,https://www.tripadvisor.com.br/Restaurant_Review-g297532-d23300641-Reviews-Mr_Elote-Santa_Cruz_Galapagos_Islands.html
23309995,Jyc Fast Food Galapagos,"Scalecia Y Cormoran 214 Frente Al Gran Escape, Puerto Ayora Equador",Santa Cruz ,indef,0,$$ - $$$,R$ 27 - R$ 213,-0.7362779974937439,-90.31121063232422,https://www.tripadvisor.com.br/Restaurant_Review-g297533-d23309995-Reviews-Jyc_Fast_Food_Galapagos-Puerto_Ayora_Santa_Cruz_Galapagos_Islands.html
10810106,El agachadito comidas rápidas,"Tomas de berlanga & islas plazas, Puerto Ayora 200350 Equador",Santa Cruz ,indef,0,indef,indef,0.0,0.0,https://www.tripadvisor.com.br/Restaurant_Review-g297533-d10810106-Reviews-El_agachadito_comidas_rapidas-Puerto_Ayora_Santa_Cruz_Galapagos_Islands.html
17414172,Parrillada Doña Mery,"Galapagos Bellavista Santa Cruz Junto al Camino Viejo, Bellavista Equador",Santa Cruz ,indef,0,indef,indef,0.0,0.0,https://www.tripadvisor.com.br/Restaurant_Review-g8125477-d17414172-Reviews-Parrillada_Dona_Mery-Bellavista_Santa_Cruz_Galapagos_Islands.html
13551929,El Cangrejo Azúl,"Acceso prinicipal lado izquierdo, malecon A lado de coctelería riscos, 120506 Equador",San Cristobal ,indef,0,$,R$ 32 - R$ 64,-0.5222619771957397,-80.43951416015625,https://www.tripadvisor.com.br/Restaurant_Review-g297530-d13551929-Reviews-El_Cangrejo_Azul-San_Cristobal_Galapagos_Islands.html
23102814,Degusta - Restaurante,"Igancio Hernández Teodoro Wolf, 200150 Equador",San Cristobal ,indef,0,$,R$ 11 - R$ 69,-1.2415670156478882,-78.32278442382812,https://www.tripadvisor.com.br/Restaurant_Review-g297530-d23102814-Reviews-Degusta_Restaurante-San_Cristobal_Galapagos_Islands.html
19381357,Rocas y Tacos,"Avenida Juan Jose Flores Vicente Rocafuerte, 010559 Equador",San Cristobal ,indef,0,$,R$ 32 - R$ 69,-0.9033780097961426,-89.60977172851562,https://www.tripadvisor.com.br/Restaurant_Review-g297530-d19381357-Reviews-Rocas_y_Tacos-San_Cristobal_Galapagos_Islands.html
19274849,El Cangrejo Loco,"Malecon Charles Darwin, 200150 Equador",San Cristobal ,indef,0,indef,indef,-0.9020230174064636,-89.61156463623047,https://www.tripadvisor.com.br/Restaurant_Review-g297530-d19274849-Reviews-El_Cangrejo_Loco-San_Cristobal_Galapagos_Islands.html
19450769,Langostino II,"Herman Melville, Puerto Baquerizo Moreno 200150 Equador",San Cristobal ,indef,0,indef,indef,-0.900849997997284,-89.61036682128906,https://www.tripadvisor.com.br/Restaurant_Review-g297531-d19450769-Reviews-Langostino_II-Puerto_Baquerizo_Moreno_San_Cristobal_Galapagos_Islands.html
17457819,La Esquina / The Corner,"Alsacio Northia y Hernan Melville Centro de Artes El Gran Artista, Puerto Baquerizo Moreno 200150 Equador",San Cristobal ,indef,0,indef,indef,-0.9011600017547609,-89.60994720458984,https://www.tripadvisor.com.br/Restaurant_Review-g297531-d17457819-Reviews-La_Esquina_The_Corner-Puerto_Baquerizo_Moreno_San_Cristobal_Galapagos_Islands.html
23369994,Moros En La Costa Xpress Restaurant,"Asiclo Garay, Puerto Villamil Equador",Isabela ,indef,0,indef,indef,-2.1939849853515625,-79.90093231201172,https://www.tripadvisor.com.br/Restaurant_Review-g1732554-d23369994-Reviews-Moros_En_La_Costa_Xpress_Restaurant-Puerto_Villamil_Isabela_Galapagos_Islands.html
19932115,Devil's Crown,Next to Hostal Lecocarpus Equador,Floreana ,indef,0,indef,indef,0.0,0.0,https://www.tripadvisor.com.br/Restaurant_Review-g297523-d19932115-Reviews-Devil_s_Crown-Floreana_Galapagos_Islands.html
