atracao_id,nome,endereco,cidade,nota,qtd_avaliacoes,latitude,longitude,fonte
8399005,"Playa El Carabassi - Elche",indef,Elche,4.5,238,38.24039077758789,-0.5147629976272583,https://www.tripadvisor.com.br/Attraction_Review-g661469-d8399005-Reviews-Playa_El_Carabassi-Elche_Costa_Blanca_Province_of_Alicante_Valencian_Country.html
2186487,"Jardín Artístico Nacional Huerto Del Cura - Elche","Calle Porta de La Morera 49, 03203 Elche Espanha",Elche,4.5,935,38.26396179199219,-0.6917799711227417,https://www.tripadvisor.com.br/Attraction_Review-g661469-d2186487-Reviews-Jardin_Artistico_Nacional_Huerto_Del_Cura-Elche_Costa_Blanca_Province_of_Alicante.html
4465888,"Basílica de Santa Maria - Elche","Plaza Santa Maria 2, 03202 Elche Espanha",Elche,4.5,512,38.26713180541992,-0.6980599761009216,https://www.tripadvisor.com.br/Attraction_Review-g661469-d4465888-Reviews-Basilica_de_Santa_Maria-Elche_Costa_Blanca_Province_of_Alicante_Valencian_Country.html
321492,"Palmeral de Elche","Calle Porta de la Morera 49, 03203 Elche Espanha",Elche,4.5,1043,38.26986312866211,-0.6982799768447876,https://www.tripadvisor.com.br/Attraction_Review-g661469-d321492-Reviews-Palmeral_de_Elche-Elche_Costa_Blanca_Province_of_Alicante_Valencian_Country.html
6975772,"MAHE - Museu Arqueològic i d'Història d'Elx (MAHE) - Elche","Carrer de la Diagonal del Palau, 9, 03202 Elche Espanha",Elche,4.5,195,38.26817321777344,-0.697629988193512,https://www.tripadvisor.com.br/Attraction_Review-g661469-d6975772-Reviews-MAHE_Museu_Arqueologic_i_d_Historia_d_Elx_MAHE-Elche_Costa_Blanca_Province_of_Ali.html
5039752,"Misteri D'Elx - Elche","Basilica de Santa Maria, 03201 Elche Espanha",Elche,5.0,200,38.267250061035156,-0.6970499753952026,https://www.tripadvisor.com.br/Attraction_Review-g661469-d5039752-Reviews-Misteri_D_Elx-Elche_Costa_Blanca_Province_of_Alicante_Valencian_Country.html
12611551,"Palmeral of Elche","Passeig l'Estacio 2, 03202 Elche Espanha",Elche,4.5,79,38.271148681640625,-0.6963199973106384,https://www.tripadvisor.com.br/Attraction_Review-g661469-d12611551-Reviews-Palmeral_of_Elche-Elche_Costa_Blanca_Province_of_Alicante_Valencian_Country.html
4884892,"Playa Del Pinet - Elche","Playa Del Pinet, 03104 Elche Espanha",Elche,4.0,158,38.15203094482422,-0.6287999749183655,https://www.tripadvisor.com.br/Attraction_Review-g661469-d4884892-Reviews-Playa_Del_Pinet-Elche_Costa_Blanca_Province_of_Alicante_Valencian_Country.html
2098626,"Museo Paleontologico de Elche","Calle Sant Joan 3, 03203 Elche Espanha",Elche,4.5,74,38.26145553588867,-0.6994240283966064,https://www.tripadvisor.com.br/Attraction_Review-g661469-d2098626-Reviews-Museo_Paleontologico_de_Elche-Elche_Costa_Blanca_Province_of_Alicante_Valencian_C.html
4547545,"Rio Safari Elche","Carretera Elche-Santa Pola, 03203 Elche Espanha",Elche,3.5,858,38.21732711791992,-0.6021450161933899,https://www.tripadvisor.com.br/Attraction_Review-g661469-d4547545-Reviews-Rio_Safari_Elche-Elche_Costa_Blanca_Province_of_Alicante_Valencian_Country.html
10358015,"Elche Tourist Information Office","Plaza del Parque 3, 03202 Elche Espanha",Elche,4.5,118,38.26845932006836,-0.6968330144882202,https://www.tripadvisor.com.br/Attraction_Review-g661469-d10358015-Reviews-Elche_Tourist_Information_Office-Elche_Costa_Blanca_Province_of_Alicante_Valenci.html
8292858,"Plaça de la Glorieta - Elche",indef,Elche,4.0,107,38.265830993652344,-0.6964709758758545,https://www.tripadvisor.com.br/Attraction_Review-g661469-d8292858-Reviews-Placa_de_la_Glorieta-Elche_Costa_Blanca_Province_of_Alicante_Valencian_Country.html
7161858,"Banys Àrabs - Elche","Passeig des Born, 03202 Elche Espanha",Elche,4.0,101,38.2553596496582,-0.5208200216293335,https://www.tripadvisor.com.br/Attraction_Review-g661469-d7161858-Reviews-Banys_Arabs-Elche_Costa_Blanca_Province_of_Alicante_Valencian_Country.html
3239588,"Museo Escolar de Pusol - Elche","Partida de Pusol 8 Colegio número 49 de Puçol, 03296 Elche Espanha",Elche,5.0,69,38.25592041015625,-0.5210300087928772,https://www.tripadvisor.com.br/Attraction_Review-g661469-d3239588-Reviews-Museo_Escolar_de_Pusol-Elche_Costa_Blanca_Province_of_Alicante_Valencian_Country.html
8377421,"Museo del Palmeral Huerto de San Plácido - Elche","Calle Porta de La Morera 12, 03203 Elche Espanha",Elche,4.5,51,38.264183044433594,-0.6932269930839539,https://www.tripadvisor.com.br/Attraction_Review-g661469-d8377421-Reviews-Museo_del_Palmeral_Huerto_de_San_Placido-Elche_Costa_Blanca_Province_of_Alicante_.html
9718304,"Torre de la Calaforra - Elche","Carrer Lluís Tur i Palau, 1, 03202 Elche Espanha",Elche,4.5,54,38.26728057861328,-0.6967399716377258,https://www.tripadvisor.com.br/Attraction_Review-g661469-d9718304-Reviews-Torre_de_la_Calaforra-Elche_Costa_Blanca_Province_of_Alicante_Valencian_Country.html
9866716,"Ruta Outlet Elche Parque Empresarial","Calle Miguel Servet 25. Elche Parque Empresarial, 03203 Elche Espanha",Elche,3.5,44,38.294921875,-0.6208900213241577,https://www.tripadvisor.com.br/Attraction_Review-g661469-d9866716-Reviews-Ruta_Outlet_Elche_Parque_Empresarial-Elche_Costa_Blanca_Province_of_Alicante_Vale.html
9710345,"Museo de la Festa - Elche","Calle Major de La Vila 25, 03202 Elche Espanha",Elche,4.5,37,38.2671012878418,-0.6988000273704529,https://www.tripadvisor.com.br/Attraction_Review-g661469-d9710345-Reviews-Museo_de_la_Festa-Elche_Costa_Blanca_Province_of_Alicante_Valencian_Country.html
9606361,"Parque Arqueologico la Alcudia - Elche","Calle Radio Elche 5 Carretera de Dolores, 03203 Elche Espanha",Elche,4.5,48,38.24001693725586,-0.6946529746055603,https://www.tripadvisor.com.br/Attraction_Review-g661469-d9606361-Reviews-Parque_Arqueologico_la_Alcudia-Elche_Costa_Blanca_Province_of_Alicante_Valencian_.html
8292517,"Gran Teatro de Elche","Calle Kursaal 3, 03203 Elche Espanha",Elche,5.0,16,38.26506423950195,-0.6965640187263489,https://www.tripadvisor.com.br/Attraction_Review-g661469-d8292517-Reviews-Gran_Teatro_de_Elche-Elche_Costa_Blanca_Province_of_Alicante_Valencian_Country.html
15710457,"Pantà d'Elx - Elche","Lugar Rio Vinalopo, 03205 Elche Espanha",Elche,4.5,6,38.27288818359375,-0.7004899978637695,https://www.tripadvisor.com.br/Attraction_Review-g661469-d15710457-Reviews-Panta_d_Elx-Elche_Costa_Blanca_Province_of_Alicante_Valencian_Country.html
6902950,"El Plantío Golf Resort - Elche","Calle de Alicante Km 3, 03195 Elche Espanha",Elche,4.0,17,38.362464904785156,-0.4354979991912842,https://www.tripadvisor.com.br/Attraction_Review-g661469-d6902950-Reviews-El_Plantio_Golf_Resort-Elche_Costa_Blanca_Province_of_Alicante_Valencian_Country.html
17550827,"Palau d’Altamira - Elche","Carrer de la Diagonal del Palau, 7, 03202 Elche Espanha",Elche,5.0,5,38.26796340942383,-0.6987329721450806,https://www.tripadvisor.com.br/Attraction_Review-g661469-d17550827-Reviews-Palau_d_Altamira-Elche_Costa_Blanca_Province_of_Alicante_Valencian_Country.html
10034498,"Plaça de la Mercè - Elche",indef,Elche,3.5,20,0.0,0.0,https://www.tripadvisor.com.br/Attraction_Review-g661469-d10034498-Reviews-Placa_de_la_Merce-Elche_Costa_Blanca_Province_of_Alicante_Valencian_Country.html
15076122,"Paseo De La Estacion - Elche","Passeig l'Estacio 2, 03202 Elche Espanha",Elche,4.0,4,38.26963806152344,-0.6967359781265259,https://www.tripadvisor.com.br/Attraction_Review-g661469-d15076122-Reviews-Paseo_De_La_Estacion-Elche_Costa_Blanca_Province_of_Alicante_Valencian_Country.html
17549846,"Ternari del Misteri d'Elx - Elche","Placa Santa Maria 1, 03202 Elche Espanha",Elche,4.0,8,38.26715087890625,-0.6978800296783447,https://www.tripadvisor.com.br/Attraction_Review-g661469-d17549846-Reviews-Ternari_del_Misteri_d_Elx-Elche_Costa_Blanca_Province_of_Alicante_Valencian_Coun.html
17555298,"Plaça de Santa Isabel - Elche","Plaça de Santa Isabel, 03202 Elche Espanha",Elche,4.5,2,38.26691818237305,-0.6969900131225586,https://www.tripadvisor.com.br/Attraction_Review-g661469-d17555298-Reviews-Placa_de_Santa_Isabel-Elche_Costa_Blanca_Province_of_Alicante_Valencian_Country.html
17549048,"Museo de la Virgen - Elche","Plaça de Sta Isabel, 6, 03202, 03202 Elche Espanha",Elche,4.0,4,38.26688003540039,-0.696940004825592,https://www.tripadvisor.com.br/Attraction_Review-g661469-d17549048-Reviews-Museo_de_la_Virgen-Elche_Costa_Blanca_Province_of_Alicante_Valencian_Country.html
6958932,"Proyecto Vibora II - Elche","Cauce Del Rio Vinalopo, 03201 Elche Espanha",Elche,4.0,37,38.29396057128906,-0.5908799767494202,https://www.tripadvisor.com.br/Attraction_Review-g661469-d6958932-Reviews-Proyecto_Vibora_II-Elche_Costa_Blanca_Province_of_Alicante_Valencian_Country.html
17549085,"Las Tres Marias - Elche","Placa de Sta Isabel, 03202 Elche Espanha",Elche,3.5,5,38.26691818237305,-0.6969900131225586,https://www.tripadvisor.com.br/Attraction_Review-g661469-d17549085-Reviews-Las_Tres_Marias-Elche_Costa_Blanca_Province_of_Alicante_Valencian_Country.html
18219259,"Puente De La Virgen/Santa Teresa - Elche",indef,Elche,4.0,1,38.26311111450195,-0.7006000280380249,https://www.tripadvisor.com.br/Attraction_Review-g661469-d18219259-Reviews-Puente_De_La_Virgen_Santa_Teresa-Elche_Costa_Blanca_Province_of_Alicante_Valenci.html
18219239,"Pont d'Altamira - Elche","Pont d'Altamira, 03202 Elche Espanha",Elche,4.5,2,38.2676887512207,-0.6995790004730225,https://www.tripadvisor.com.br/Attraction_Review-g661469-d18219239-Reviews-Pont_d_Altamira-Elche_Costa_Blanca_Province_of_Alicante_Valencian_Country.html
17037072,"Convent de Santa Llucia - Elche","Placa de la Merce, 03202 Elche Espanha",Elche,3.0,3,38.267120361328125,-0.6960399746894836,https://www.tripadvisor.com.br/Attraction_Review-g661469-d17037072-Reviews-Convent_de_Santa_Llucia-Elche_Costa_Blanca_Province_of_Alicante_Valencian_Countr.html
18219077,"Escultura de Jaime el Conquistador - Elche","Carrer Porta de la Morera, 49, 03203, 03203 Elche Espanha",Elche,3.0,1,38.26441955566406,-0.6955869793891907,https://www.tripadvisor.com.br/Attraction_Review-g661469-d18219077-Reviews-Escultura_de_Jaime_el_Conquistador-Elche_Costa_Blanca_Province_of_Alicante_Valen.html
13545563,"Museu d'Art Contemporani d'Elx - Elche","Placa Major del Raval 1 Alacant, 03203 Elche Espanha",Elche,3.0,2,38.260799407958984,-0.6987900137901306,https://www.tripadvisor.com.br/Attraction_Review-g661469-d13545563-Reviews-Museu_d_Art_Contemporani_d_Elx-Elche_Costa_Blanca_Province_of_Alicante_Valencian.html
18219281,"Para Deportes del Rio Vinalopo - Elche","Carrer de les Ànimes, 1D, 03202, 03202 Elche Espanha",Elche,3.0,1,38.26622009277344,-0.6985800266265869,https://www.tripadvisor.com.br/Attraction_Review-g661469-d18219281-Reviews-Para_Deportes_del_Rio_Vinalopo-Elche_Costa_Blanca_Province_of_Alicante_Valencian.html
7797216,"Bodegas Faelo",indef,Elche ,indef,0,38.22589874267578,-0.7482699751853943,https://www.tripadvisor.com.br/Attraction_Review-g661469-d7797216-Reviews-Bodegas_Faelo-Elche_Costa_Blanca_Province_of_Alicante_Valencian_Country.html
23182686,"L'Aljub - Elche","Calle de Jacarilla 7 Centro Comercial L'Aljub, 03205 Elche Espanha",Elche,5.0,141,38.262325286865234,-0.720982015132904,https://www.tripadvisor.com.br/Attraction_Review-g661469-d23182686-Reviews-L_Aljub-Elche_Costa_Blanca_Province_of_Alicante_Valencian_Country.html
11964146,"Ingenious Escape Room - Elche","Calle de Felix Laorden Garcia 12, 03202 Elche Espanha",Elche,5.0,261,38.27312088012695,-0.6857060194015503,https://www.tripadvisor.com.br/Attraction_Review-g661469-d11964146-Reviews-Ingenious_Escape_Room-Elche_Costa_Blanca_Province_of_Alicante_Valencian_Country.html
8008161,"ParaPark Elche & EnigmaPark","Calle Capita Gaspar Ortiz 145, 03204 Elche Espanha",Elche,5.0,282,38.257938385009766,-0.7097399830818176,https://www.tripadvisor.com.br/Attraction_Review-g661469-d8008161-Reviews-ParaPark_Elche_EnigmaPark-Elche_Costa_Blanca_Province_of_Alicante_Valencian_Count.html
15518688,"Komnata Quest Elche Escape Room","Calle Conrado del Campo 48, 03204 Elche Espanha",Elche,5.0,91,38.260318756103516,-0.7043200135231018,https://www.tripadvisor.com.br/Attraction_Review-g661469-d15518688-Reviews-Komnata_Quest_Elche_Escape_Room-Elche_Costa_Blanca_Province_of_Alicante_Valencia.html
21192099,"Sabotaje Rooms - Elche",indef,Elche,5.0,59,0.0,0.0,https://www.tripadvisor.com.br/Attraction_Review-g661469-d21192099-Reviews-Sabotaje_Rooms-Elche_Costa_Blanca_Province_of_Alicante_Valencian_Country.html
13164183,"BlackMoon Escape Room - Elche","Calle Filet de Fora, 03203 Elche Espanha",Elche,5.0,125,38.2618522644043,-0.6960960030555725,https://www.tripadvisor.com.br/Attraction_Review-g661469-d13164183-Reviews-BlackMoon_Escape_Room-Elche_Costa_Blanca_Province_of_Alicante_Valencian_Country.html
5323787,"Parque Municipal - Elche","Passeig l' Estacio s/n, 03202 Elche Espanha",Elche,4.5,74,38.27050018310547,-0.6966500282287598,https://www.tripadvisor.com.br/Attraction_Review-g661469-d5323787-Reviews-Parque_Municipal-Elche_Costa_Blanca_Province_of_Alicante_Valencian_Country.html
13866978,"Escape Rol - Elche","Calle Doctor Sapena 76, 03203 Elche Espanha",Elche,5.0,44,38.26243591308594,-0.7115949988365173,https://www.tripadvisor.com.br/Attraction_Review-g661469-d13866978-Reviews-Escape_Rol-Elche_Costa_Blanca_Province_of_Alicante_Valencian_Country.html
10294386,"My Taxi Paris Espana - Elche",indef,Elche,4.5,206,38.26953125,-0.6830300092697144,https://www.tripadvisor.com.br/Attraction_Review-g661469-d10294386-Reviews-My_Taxi_Paris_Espana-Elche_Costa_Blanca_Province_of_Alicante_Valencian_Country.html
21231979,"Vadum Maris",indef,Elche ,indef,0,38.269840240478516,-0.7060400247573853,https://www.tripadvisor.com.br/Attraction_Review-g661469-d21231979-Reviews-Vadum_Maris-Elche_Costa_Blanca_Province_of_Alicante_Valencian_Country.html
10783920,"Distrito 41 Paintball Indoor - Elche","Calle Villena 6, 03203 Elche Espanha",Elche,4.5,26,38.270469665527344,-0.6739400029182434,https://www.tripadvisor.com.br/Attraction_Review-g661469-d10783920-Reviews-Distrito_41_Paintball_Indoor-Elche_Costa_Blanca_Province_of_Alicante_Valencian_C.html
7132630,"Estadio Manuel Martínez Valero - Elche","Avenida Manuel Martinez Valero 3, 03208 Elche Espanha",Elche,4.5,34,38.26485824584961,-0.6646100282669067,https://www.tripadvisor.com.br/Attraction_Review-g661469-d7132630-Reviews-Estadio_Manuel_Martinez_Valero-Elche_Costa_Blanca_Province_of_Alicante_Valencian_.html
18494176,"Misteris Escape Room - Elche","Calle Esperidion Porta Requesens 63, 03206 Elche Espanha",Elche,5.0,12,38.27376937866211,-0.7071300148963928,https://www.tripadvisor.com.br/Attraction_Review-g661469-d18494176-Reviews-Misteris_Escape_Room-Elche_Costa_Blanca_Province_of_Alicante_Valencian_Country.html
8519492,"Multiaventura Elche",indef,Elche ,indef,0,38.26335525512695,-0.6688920259475708,https://www.tripadvisor.com.br/Attraction_Review-g661469-d8519492-Reviews-Multiaventura_Elche-Elche_Costa_Blanca_Province_of_Alicante_Valencian_Country.html
7104847,"Train touristique",indef,Elche ,indef,0,38.26826858520508,-0.6968100070953369,https://www.tripadvisor.com.br/Attraction_Review-g661469-d7104847-Reviews-Train_touristique-Elche_Costa_Blanca_Province_of_Alicante_Valencian_Country.html
6886504,"Almazara El Tendre",indef,Elche ,indef,0,38.254459381103516,-0.6688500046730042,https://www.tripadvisor.com.br/Attraction_Review-g661469-d6886504-Reviews-Almazara_El_Tendre-Elche_Costa_Blanca_Province_of_Alicante_Valencian_Country.html
17391917,"Escapatelly - Elche",indef,Elche,5.0,12,38.25566101074219,-0.7059209942817688,https://www.tripadvisor.com.br/Attraction_Review-g661469-d17391917-Reviews-Escapatelly-Elche_Costa_Blanca_Province_of_Alicante_Valencian_Country.html
3801307,"Aeroglobo Tours",indef,Elche ,indef,0,0.0,0.0,https://www.tripadvisor.com.br/Attraction_Review-g661469-d3801307-Reviews-Aeroglobo_Tours-Elche_Costa_Blanca_Province_of_Alicante_Valencian_Country.html
19798931,"Leontin Nemet",indef,Elche ,5.0,0,0.0,0.0,https://www.tripadvisor.com.br/Attraction_Review-g661469-d19798931-Reviews-Leontin_Nemet-Elche_Costa_Blanca_Province_of_Alicante_Valencian_Country.html
19206178,"La Logia Negra - Elche","Algoda, 03296 Elche Espanha",Elche,5.0,7,38.226806640625,-0.7457320094108582,https://www.tripadvisor.com.br/Attraction_Review-g661469-d19206178-Reviews-La_Logia_Negra-Elche_Costa_Blanca_Province_of_Alicante_Valencian_Country.html
5906029,"La taronja bar - Elche","Calle Porta de La Morera 45, 03203 Elche Espanha",Elche,4.5,12,38.264190673828125,-0.6920139789581299,https://www.tripadvisor.com.br/Attraction_Review-g661469-d5906029-Reviews-La_taronja_bar-Elche_Costa_Blanca_Province_of_Alicante_Valencian_Country.html
18358581,"Mental War Escape Room - Elche","Jose Gomez Mompean, 61, 03203 Elche Espanha",Elche,5.0,5,38.27509307861328,-0.7113000154495239,https://www.tripadvisor.com.br/Attraction_Review-g661469-d18358581-Reviews-Mental_War_Escape_Room-Elche_Costa_Blanca_Province_of_Alicante_Valencian_Country.html
5899845,"EL TAPEO ILICITANO - Elche","Calle Adolfo Marsillach 12, 03202 Elche Espanha",Elche,4.5,8,38.27655029296875,-0.6779500246047974,https://www.tripadvisor.com.br/Attraction_Review-g661469-d5899845-Reviews-EL_TAPEO_ILICITANO-Elche_Costa_Blanca_Province_of_Alicante_Valencian_Country.html
21059166,"Azarkia Eventos",indef,Elche ,indef,0,0.0,0.0,https://www.tripadvisor.com.br/Attraction_Review-g661469-d21059166-Reviews-Azarkia_Eventos-Elche_Costa_Blanca_Province_of_Alicante_Valencian_Country.html
3514710,"Balloon Flights",indef,Elche ,indef,0,38.222618103027344,-0.6467800140380859,https://www.tripadvisor.com.br/Attraction_Review-g661469-d3514710-Reviews-Balloon_Flights-Elche_Costa_Blanca_Province_of_Alicante_Valencian_Country.html
5909956,"BV-22 - Elche","Calle Blas Valero 22, 03201 Elche Espanha",Elche,4.5,11,38.266448974609375,-0.7015399932861328,https://www.tripadvisor.com.br/Attraction_Review-g661469-d5909956-Reviews-BV_22-Elche_Costa_Blanca_Province_of_Alicante_Valencian_Country.html
5909127,"Paquito - Elche","Carrer Isaac Peral, 14, 03203 Elche Espanha",Elche,4.5,9,38.25835037231445,-0.6977199912071228,https://www.tripadvisor.com.br/Attraction_Review-g661469-d5909127-Reviews-Paquito-Elche_Costa_Blanca_Province_of_Alicante_Valencian_Country.html
14189034,"Street Jump - Elche","Calle de Sabadell 5, 03203 Elche Espanha",Elche,4.5,3,38.271018981933594,-0.672789990901947,https://www.tripadvisor.com.br/Attraction_Review-g661469-d14189034-Reviews-Street_Jump-Elche_Costa_Blanca_Province_of_Alicante_Valencian_Country.html
5910079,"Winners Bar - Elche","Avenida Manuel Martinez Valero 16, 03208 Elche Espanha",Elche,4.5,4,38.264678955078125,-0.6648600101470947,https://www.tripadvisor.com.br/Attraction_Review-g661469-d5910079-Reviews-Winners_Bar-Elche_Costa_Blanca_Province_of_Alicante_Valencian_Country.html
5910004,"Flaherty's - Elche","Paseo Eres de Santa Llucia 13, 03202 Elche Espanha",Elche,3.5,20,38.267669677734375,-0.6962100267410278,https://www.tripadvisor.com.br/Attraction_Review-g661469-d5910004-Reviews-Flaherty_s-Elche_Costa_Blanca_Province_of_Alicante_Valencian_Country.html
5907877,"La Cuna Teteria - Elche","Calle Porta de Les Tafulles 18, 03203 Elche Espanha",Elche,4.0,5,38.25851821899414,-0.6980100274085999,https://www.tripadvisor.com.br/Attraction_Review-g661469-d5907877-Reviews-La_Cuna_Teteria-Elche_Costa_Blanca_Province_of_Alicante_Valencian_Country.html
5904074,"Cafeteria Excalibur - Elche","Felipe Moya, 03202 Elche Espanha",Elche,4.5,3,38.270050048828125,-0.6846299767494202,https://www.tripadvisor.com.br/Attraction_Review-g661469-d5904074-Reviews-Cafeteria_Excalibur-Elche_Costa_Blanca_Province_of_Alicante_Valencian_Country.html
12686674,"Homelands - Elche","Calle Sant Vicent 19 Lower part to left, 03202 Elche Espanha",Elche,4.0,2,38.26791000366211,-0.6942499876022339,https://www.tripadvisor.com.br/Attraction_Review-g661469-d12686674-Reviews-Homelands-Elche_Costa_Blanca_Province_of_Alicante_Valencian_Country.html
5900958,"Bar restaurante casa manolo - Elche","Calle Segorbe 68, 03206 Elche Espanha",Elche,4.0,5,38.28361892700195,-0.7203099727630615,https://www.tripadvisor.com.br/Attraction_Review-g661469-d5900958-Reviews-Bar_restaurante_casa_manolo-Elche_Costa_Blanca_Province_of_Alicante_Valencian_Cou.html
5905221,"Bar Nou Corona - Elche","Calle Jaime Pomares Javaloyes 3, 03202 Elche Espanha",Elche,4.0,2,38.27027893066406,-0.6825500130653381,https://www.tripadvisor.com.br/Attraction_Review-g661469-d5905221-Reviews-Bar_Nou_Corona-Elche_Costa_Blanca_Province_of_Alicante_Valencian_Country.html
5910503,"Maloan - Elche","Calle Diagonal 39, 03206 Elche Espanha",Elche,3.5,3,38.272159576416016,-0.7080399990081787,https://www.tripadvisor.com.br/Attraction_Review-g661469-d5910503-Reviews-Maloan-Elche_Costa_Blanca_Province_of_Alicante_Valencian_Country.html
5919769,"Cantina Ciudad Deportiva - Elche","Calle Confrides S/N, 03202 Elche Espanha",Elche,3.5,7,38.27299880981445,-0.6769800186157227,https://www.tripadvisor.com.br/Attraction_Review-g661469-d5919769-Reviews-Cantina_Ciudad_Deportiva-Elche_Costa_Blanca_Province_of_Alicante_Valencian_Countr.html
21078690,"Bunker 02 - Elche","6fw2+r9 Elche, 03195 Elche Espanha",Elche,3.0,1,38.15597152709961,-0.6353099942207336,https://www.tripadvisor.com.br/Attraction_Review-g661469-d21078690-Reviews-Bunker_02-Elche_Costa_Blanca_Province_of_Alicante_Valencian_Country.html
21174322,"Ermita De San Antonio De Asis - Elche","5835+8v Elche, 03194 Elche Espanha",Elche,3.0,1,38.26218032836914,-0.7010700106620789,https://www.tripadvisor.com.br/Attraction_Review-g661469-d21174322-Reviews-Ermita_De_San_Antonio_De_Asis-Elche_Costa_Blanca_Province_of_Alicante_Valencian_.html
10852308,"Radio Taxi Elche",indef,Elche,3.5,18,0.0,0.0,https://www.tripadvisor.com.br/Attraction_Review-g661469-d10852308-Reviews-Radio_Taxi_Elche-Elche_Costa_Blanca_Province_of_Alicante_Valencian_Country.html
19378483,"Primark - Elche","Local 1030. Calle Jacarilla 7 Centro Comercial L'Aljub, 03205 Elche Espanha",Elche,1.0,1,38.263790130615234,-0.7202500104904175,https://www.tripadvisor.com.br/Attraction_Review-g661469-d19378483-Reviews-Primark-Elche_Costa_Blanca_Province_of_Alicante_Valencian_Country.html
10746865,"H2O Spa Marine Zenter - Elche","Calle de Antonio Machado 27, 03204 Elche Espanha",Elche,3.0,2,38.2624397277832,-0.7051399946212769,https://www.tripadvisor.com.br/Attraction_Review-g661469-d10746865-Reviews-H2O_Spa_Marine_Zenter-Elche_Costa_Blanca_Province_of_Alicante_Valencian_Country.html
12695005,"Ole ole - Elche","Calle de San Bartolome de Tirajana 22, 03195 Elche Espanha",Elche,4.0,1,38.255008697509766,-0.5177199840545654,https://www.tripadvisor.com.br/Attraction_Review-g661469-d12695005-Reviews-Ole_ole-Elche_Costa_Blanca_Province_of_Alicante_Valencian_Country.html
5905645,"La Chata Tapas BAR - Elche","Calle Montesinos 20, 03203 Elche Espanha",Elche,1.5,15,38.266258239746094,-0.6781200170516968,https://www.tripadvisor.com.br/Attraction_Review-g661469-d5905645-Reviews-La_Chata_Tapas_BAR-Elche_Costa_Blanca_Province_of_Alicante_Valencian_Country.html
10358801,"My Taxi Alicante - Elche",indef,Elche,indef,5,0.0,0.0,https://www.tripadvisor.com.br/Attraction_Review-g661469-d10358801-Reviews-My_Taxi_Alicante-Elche_Costa_Blanca_Province_of_Alicante_Valencian_Country.html
10750565,"Rosa Negra - Elche","Calle de Sabadell 8 Poligono Altabix, 03203 Elche Espanha",Elche,indef,5,38.2712287902832,-0.6731399893760681,https://www.tripadvisor.com.br/Attraction_Review-g661469-d10750565-Reviews-Rosa_Negra-Elche_Costa_Blanca_Province_of_Alicante_Valencian_Country.html
18935884,"Hermes Wellness Esthetic & SPA",indef,Elche ,indef,0,0.0,0.0,https://www.tripadvisor.com.br/Attraction_Review-g661469-d18935884-Reviews-Hermes_Wellness_Esthetic_SPA-Elche_Costa_Blanca_Province_of_Alicante_Valencian_C.html
15274616,"MyTaxiBarcelona - Elche",indef,Elche,indef,5,0.0,0.0,https://www.tripadvisor.com.br/Attraction_Review-g661469-d15274616-Reviews-MyTaxiBarcelona-Elche_Costa_Blanca_Province_of_Alicante_Valencian_Country.html
10670662,"Angel Castano Art Space Acas - Elche","Placa Sant Joan, 1 Frente iglesia de Sant Joan y junto al Museo Paleontológico, 03203 Elche Espanha",Elche,indef,5,38.2613410949707,-0.699059009552002,https://www.tripadvisor.com.br/Attraction_Review-g661469-d10670662-Reviews-Angel_Castano_Art_Space_Acas-Elche_Costa_Blanca_Province_of_Alicante_Valencian_C.html
21266244," Mama Juana Restaurante Elche",indef,Elche ,indef,0,38.26453399658203,-0.6988009810447693,https://www.tripadvisor.com.br/Attraction_Review-g661469-d21266244-Reviews-Mama_Juana_Restaurante_Elche-Elche_Costa_Blanca_Province_of_Alicante_Valencian_C.html
15083588,"Parque Infantil De Trafico - Elche","Avenida del Alcalde Vicente Quiles 1, 03202 Elche Espanha",Elche,indef,5,38.25421142578125,-0.5208500027656555,https://www.tripadvisor.com.br/Attraction_Review-g661469-d15083588-Reviews-Parque_Infantil_De_Trafico-Elche_Costa_Blanca_Province_of_Alicante_Valencian_Cou.html
15636387,"TaxiBooker Airport Transfers - Elche","Avenida de Alicante 51, 03202 Elche Espanha",Elche,indef,5,38.26953125,-0.6830300092697144,https://www.tripadvisor.com.br/Attraction_Review-g661469-d15636387-Reviews-TaxiBooker_Airport_Transfers-Elche_Costa_Blanca_Province_of_Alicante_Valencian_C.html
21208172,"Mercat Central D’Elx - Elche",indef,Elche,indef,5,0.0,0.0,https://www.tripadvisor.com.br/Attraction_Review-g661469-d21208172-Reviews-Mercat_Central_D_Elx-Elche_Costa_Blanca_Province_of_Alicante_Valencian_Country.html
19834418,"La Dama Tours",indef,Elche ,indef,0,0.0,0.0,https://www.tripadvisor.com.br/Attraction_Review-g661469-d19834418-Reviews-La_Dama_Tours-Elche_Costa_Blanca_Province_of_Alicante_Valencian_Country.html
21064059,"Fast Kart Elche",indef,Elche ,indef,0,0.0,0.0,https://www.tripadvisor.com.br/Attraction_Review-g661469-d21064059-Reviews-Fast_Kart_Elche-Elche_Costa_Blanca_Province_of_Alicante_Valencian_Country.html
17326122,"Mega Laser Game - Elche","Calle d'Almansa 28, 03206 Elche Espanha",Elche,indef,5,38.281097412109375,-0.7153819799423218,https://www.tripadvisor.com.br/Attraction_Review-g661469-d17326122-Reviews-Mega_Laser_Game-Elche_Costa_Blanca_Province_of_Alicante_Valencian_Country.html
19874320,"Outlet Store Moda Elche","Calle Reina Victoria 18 Elche, 03201 Elche Espanha",Elche,indef,5,38.26530456542969,-0.7019309997558594,https://www.tripadvisor.com.br/Attraction_Review-g661469-d19874320-Reviews-Outlet_Store_Moda_Elche-Elche_Costa_Blanca_Province_of_Alicante_Valencian_Countr.html
23336764,"El Castellar de la Morera - Elche",indef,Elche,indef,5,0.0,0.0,https://www.tripadvisor.com.br/Attraction_Review-g661469-d23336764-Reviews-El_Castellar_de_la_Morera-Elche_Costa_Blanca_Province_of_Alicante_Valencian_Coun.html
