hotel_id,nome,endereco,cidade,preco,tipo,qtd_quartos,qtd_avaliacoes,nota,categoria,nota_pedestres,restaurantes_perto,atracoes_perto,latitude,longitude,fonte
6219588,Recanto Águas de Minas,"Rua Joao Batista 560, Mariana, Minas Gerais 35420-000 Brasil",Mariana ,248,indef,5,37,4.5,indef,indef,indef,indef,-20.393003463745117,-43.45360565185547,https://www.tripadvisor.com.br/Hotel_Review-g303386-d6219588-Reviews-Recanto_Aguas_de_Minas-Mariana_State_of_Minas_Gerais.html
2624525,Avenida Palace Hotel,"Avenida Nossa Senhora do Carmo 694 Vila do Carmo, Mariana, Minas Gerais 35420-000 Brasil",Mariana ,238,Hotel,18,32,3.5,1.0,76,23,10,-20.38610076904297,-43.42496109008789,https://www.tripadvisor.com.br/Hotel_Review-g303386-d2624525-Reviews-Avenida_Palace_Hotel-Mariana_State_of_Minas_Gerais.html
13412215,Pousada Primaz de Minas,"Rua do Seminario 36, Mariana, Minas Gerais 35420-000 Brasil",Mariana ,281,Pousada,indef,18,4.5,indef,94,34,29,-20.380754470825195,-43.41429138183594,https://www.tripadvisor.com.br/Hotel_Review-g303386-d13412215-Reviews-Pousada_Primaz_de_Minas-Mariana_State_of_Minas_Gerais.html
2626342,Pousada do Chafariz,"Rua Conego Rego, 149 ,Centro Centro Historico, Mariana, Minas Gerais 35420-000 Brasil",Mariana ,267,Pousada,20,86,3.5,indef,100,52,36,-20.38079071044922,-43.41872024536133,https://www.tripadvisor.com.br/Hotel_Review-g303386-d2626342-Reviews-Pousada_do_Chafariz-Mariana_State_of_Minas_Gerais.html
2657294,Pousada Da Chácara,"Rua Amelia Alves 77 Sao Jose, Mariana, Minas Gerais 35420-000 Brasil",Mariana ,276,Pousada,19,47,4.0,indef,71,19,8,-20.38936424255371,-43.41547775268555,https://www.tripadvisor.com.br/Hotel_Review-g303386-d2657294-Reviews-Pousada_da_Chacara-Mariana_State_of_Minas_Gerais.html
2624391,Pousada Rainha dos Anjos,"Rua Dom Silvério, 304, Mariana, Minas Gerais 35420-000 Brasil",Mariana ,indef,Pousada,15,39,3.5,indef,100,50,36,-20.380889892578125,-43.41904830932617,https://www.tripadvisor.com.br/Hotel_Review-g303386-d2624391-Reviews-Pousada_Rainha_dos_Anjos-Mariana_State_of_Minas_Gerais.html
2275483,Hotel Brasil Real,"Rua Helvio Moreira Moraes 196 Vila do Carmo, Mariana, Minas Gerais 35420-000 Brasil",Mariana ,indef,Hotel,23,24,4.0,2.0,78,30,13,-20.386350631713867,-43.423919677734375,https://www.tripadvisor.com.br/Hotel_Review-g303386-d2275483-Reviews-Hotel_Brasil_Real-Mariana_State_of_Minas_Gerais.html
2275414,Pousada Gamarano,"Rua Raimundo Gamarano Sao Pedro No. 1, Mariana, Minas Gerais 35420-000 Brasil",Mariana ,indef,Pousada,8,46,3.5,indef,84,59,38,-20.38542938232422,-43.42076873779297,https://www.tripadvisor.com.br/Hotel_Review-g303386-d2275414-Reviews-Pousada_Gamarano-Mariana_State_of_Minas_Gerais.html
2492021,Hotel Muller,"Avenida Getulio Vargas 34, Mariana, Minas Gerais 35420-000 Brasil",Mariana ,270,Hotel,40,48,3.0,indef,100,72,28,-20.375730514526367,-43.41651153564453,https://www.tripadvisor.com.br/Hotel_Review-g303386-d2492021-Reviews-Hotel_Muller-Mariana_State_of_Minas_Gerais.html
2656278,Pousada Contos De Minas,"Rua Zizinha Camello, 15 - Centro -, Mariana, Minas Gerais 35420-000 Brasil",Mariana ,431,Pousada,32,61,4.0,indef,100,64,26,-20.376529693603516,-43.415191650390625,https://www.tripadvisor.com.br/Hotel_Review-g303386-d2656278-Reviews-Pousada_Contos_De_Minas-Mariana_State_of_Minas_Gerais.html
3207258,Minas Hotel,"Zona Rodovia dos Inconfidentes 1650 Bairro Vila do carmo, Mariana, Minas Gerais 35420-000 Brasil",Mariana ,indef,Hotel,22,25,3.0,indef,65,23,4,-20.388221740722656,-43.42504119873047,https://www.tripadvisor.com.br/Hotel_Review-g303386-d3207258-Reviews-Minas_Hotel-Mariana_State_of_Minas_Gerais.html
5565239,Albergue Recanto Dos Tropeiros,"Rua Mestre Vicente, 41 Centro, Mariana, Minas Gerais 35420-000 Brasil",Mariana ,indef,indef,indef,1,4.0,3.0,69,25,1,-20.363445281982422,-43.4160270690918,https://www.tripadvisor.com.br/Hotel_Review-g303386-d5565239-Reviews-Albergue_Recanto_Dos_Tropeiros-Mariana_State_of_Minas_Gerais.html
17574273,Hostel Relicario das Minas,"Rua Mestre Vicente 41, Mariana, Minas Gerais 35420-000 Brasil",Mariana ,indef,Hostel,indef,3,4.5,4.0,indef,indef,indef,-20.192190170288086,-43.4192008972168,https://www.tripadvisor.com.br/Hotel_Review-g303386-d17574273-Reviews-Hostel_Relicario_das_Minas-Mariana_State_of_Minas_Gerais.html
5564488,Pousada Getsemani,"Rua Vereador Roberto Brandao Guimaraes 10, Mariana, Minas Gerais 35420-000 Brasil",Mariana ,indef,Pousada,23,6,3.5,indef,91,37,10,-20.37689208984375,-43.412841796875,https://www.tripadvisor.com.br/Hotel_Review-g303386-d5564488-Reviews-Pousada_Getsemani-Mariana_State_of_Minas_Gerais.html
5565256,Pousada Cachoeira Do Brumado,"Distrito De Cachoeira Do Brumado, Mariana, Minas Gerais 35420-000 Brasil",Mariana ,indef,Pousada,indef,1,5.0,3.0,indef,indef,indef,-20.400339126586914,-43.421119689941406,https://www.tripadvisor.com.br/Hotel_Review-g303386-d5565256-Reviews-Pousada_Cachoeira_Do_Brumado-Mariana_State_of_Minas_Gerais.html
4512020,Pouso Da Typographia,"Praça Gomes Freire, 220 Centro, Mariana, Minas Gerais 35420-000 Brasil",Mariana ,indef,indef,indef,23,4.0,indef,100,61,36,-20.37953758239746,-43.41693115234375,https://www.tripadvisor.com.br/Hotel_Review-g303386-d4512020-Reviews-Pouso_Da_Typographia-Mariana_State_of_Minas_Gerais.html
5565250,Hotel Panorama,"Mg 262, Km 1700 Anel Rodoviário, Mariana, Minas Gerais 35420-000 Brasil",Mariana ,indef,Hotel,indef,1,3.0,3.0,76,46,3,-20.36638069152832,-43.41419982910156,https://www.tripadvisor.com.br/Hotel_Review-g303386-d5565250-Reviews-Hotel_Panorama-Mariana_State_of_Minas_Gerais.html
5565265,Pousada Do Mário,"Rua Tombadouro, 391 Cachoeira Do Brumado, Mariana, Minas Gerais 35420-000 Brasil",Mariana ,indef,Pousada,12,2,3.0,3.0,indef,indef,indef,-20.399402618408203,-43.277992248535156,https://www.tripadvisor.com.br/Hotel_Review-g303386-d5565265-Reviews-Pousada_Do_Mario-Mariana_State_of_Minas_Gerais.html
5565258,Pousada Solar Dos Dois Sinos,"Praça Aristides Pereira, 7, Mariana, Minas Gerais 35420-000 Brasil",Mariana ,indef,Pousada,indef,5,4.0,3.0,98,44,4,-20.373090744018555,-43.41661071777344,https://www.tripadvisor.com.br/Hotel_Review-g303386-d5565258-Reviews-Pousada_Solar_Dos_Dois_Sinos-Mariana_State_of_Minas_Gerais.html
4512238,Hotel Central,"R Frei Durão 8 Centro, Mariana, Minas Gerais 35420-000 Brasil",Mariana ,indef,Hotel,indef,3,2.5,3.0,100,58,33,-20.37894058227539,-43.41648864746094,https://www.tripadvisor.com.br/Hotel_Review-g303386-d4512238-Reviews-Hotel_Central-Mariana_State_of_Minas_Gerais.html
4512427,Hotel Pousada Das Gerais,"Av Nossa Senhora Do Carmo, 890 Vila Do Carmo, Mariana, Minas Gerais 35420-000 Brasil",Mariana ,indef,Hotel,57,28,3.0,indef,65,16,3,-20.387453079223633,-43.426151275634766,https://www.tripadvisor.com.br/Hotel_Review-g303386-d4512427-Reviews-Hotel_Pousada_Das_Gerais-Mariana_State_of_Minas_Gerais.html
5565302,Pousada Shunyata,"Rua São Geraldo, S/N Distrito De Cachoeira Do Brumado, Mariana, Minas Gerais 35420-000 Brasil",Mariana ,indef,Pousada,indef,0,indef,3.0,indef,indef,indef,-20.397550582885742,-43.41427993774414,https://www.tripadvisor.com.br/Hotel_Review-g303386-d5565302-Reviews-Pousada_Shunyata-Mariana_State_of_Minas_Gerais.html
5565276,Pousada Chácara Camargos,"Rua Do Cruzeiro, 61 Camargos, Mariana, Minas Gerais 35420-000 Brasil",Mariana ,indef,Pousada,indef,1,1.0,4.0,indef,indef,indef,-20.273786544799805,-43.4019660949707,https://www.tripadvisor.com.br/Hotel_Review-g303386-d5565276-Reviews-Pousada_Chacara_Camargos-Mariana_State_of_Minas_Gerais.html
5565274,Pousada Aconchego Das Águas,"Rua Tombadouro, 391 Distrito De Cachoeira Do Brumado, Mariana, Minas Gerais 35420-000 Brasil",Mariana ,indef,Pousada,indef,0,indef,3.0,indef,indef,indef,-20.399402618408203,-43.277992248535156,https://www.tripadvisor.com.br/Hotel_Review-g303386-d5565274-Reviews-Pousada_Aconchego_Das_Aguas-Mariana_State_of_Minas_Gerais.html
5565273,Pousada Passo Do Carmo,"Rua Monsenhor Horta, 13 Centro, Mariana, Minas Gerais 35420-000 Brasil",Mariana ,indef,Pousada,indef,0,indef,3.0,100,59,24,-20.37470054626465,-43.41844940185547,https://www.tripadvisor.com.br/Hotel_Review-g303386-d5565273-Reviews-Pousada_Passo_Do_Carmo-Mariana_State_of_Minas_Gerais.html
5565269,Antônio Olinto,"Rua V, 77 São José, Mariana, Minas Gerais 35420-000 Brasil",Mariana ,indef,indef,indef,0,indef,3.0,85,84,35,-20.374958038330078,-43.42413330078125,https://www.tripadvisor.com.br/Hotel_Review-g303386-d5565269-Reviews-Antonio_Olinto-Mariana_State_of_Minas_Gerais.html
5565266,Pousada Solar Dos Corrêa,"Rua Direita, 124 Centro, Mariana, Minas Gerais 35420-000 Brasil",Mariana ,indef,Pousada,indef,0,indef,3.0,100,65,33,-20.377370834350586,-43.417781829833984,https://www.tripadvisor.com.br/Hotel_Review-g303386-d5565266-Reviews-Pousada_Solar_Dos_Correa-Mariana_State_of_Minas_Gerais.html
6373820,Pouso da Passagem,"Rua do Boqueirao 28, Mariana, Minas Gerais 35420-000 Brasil",Mariana ,171,indef,6,10,4.5,indef,41,436,151,-20.392911911010742,-43.44336700439453,https://www.tripadvisor.com.br/Hotel_Review-g303386-d6373820-Reviews-Pouso_da_Passagem-Mariana_State_of_Minas_Gerais.html
13474033,Quartos Para Temporada,"Rua 3 Vila Maquine 81, Mariana, Minas Gerais 35420-000 Brasil",Mariana ,indef,indef,indef,0,indef,3.0,59,13,4,-20.391895294189453,-43.415828704833984,https://www.tripadvisor.com.br/Hotel_Review-g303386-d13474033-Reviews-Quartos_Para_Temporada-Mariana_State_of_Minas_Gerais.html
5558411,Pousada Do Toco,"Rua Professor Antônio Marcos Pinheiro, 44, Mariana, Minas Gerais 35420-000 Brasil",Mariana ,indef,Pousada,indef,0,indef,indef,indef,indef,indef,-20.357311248779297,-43.211326599121094,https://www.tripadvisor.com.br/Hotel_Review-g303386-d5558411-Reviews-Pousada_Do_Toco-Mariana_State_of_Minas_Gerais.html
3377468,Galeria 12 Hotel Fazenda,"Praia da Encantadas S/N  - Encantadas Centro, Mariana, Minas Gerais 35420-000 Brasil",Mariana ,indef,Hotel,39,26,3.5,indef,indef,indef,indef,-20.38710594177246,-43.37980651855469,https://www.tripadvisor.com.br/Hotel_Review-g303386-d3377468-Reviews-Galeria_12_Hotel_Fazenda-Mariana_State_of_Minas_Gerais.html
5600052,Hotel-Fazenda Aconchego Do Campo,"Rua Santa Rita, 49, Mariana, Minas Gerais 35420-000 Brasil",Mariana ,indef,Hotel,indef,0,indef,3.0,indef,indef,indef,-20.400060653686523,-43.42127990722656,https://www.tripadvisor.com.br/Hotel_Review-g303386-d5600052-Reviews-Hotel_Fazenda_Aconchego_Do_Campo-Mariana_State_of_Minas_Gerais.html
2437944,Pousada da Serrinha,"Rua do Hospital 370 Passagem, Mariana, Minas Gerais 35420-000 Brasil",Mariana ,indef,Pousada,15,105,4.5,indef,37,436,151,-20.399131774902344,-43.43830871582031,https://www.tripadvisor.com.br/Hotel_Review-g303386-d2437944-Reviews-Pousada_da_Serrinha-Mariana_State_of_Minas_Gerais.html
8705026,Pousada Ouro Real,"Rua Direita 31, Mariana, Minas Gerais 35420-000 Brasil",Mariana ,indef,Pousada,8,43,4.5,indef,100,58,32,-20.378190994262695,-43.41678237915039,https://www.tripadvisor.com.br/Hotel_Review-g303386-d8705026-Reviews-Pousada_Ouro_Real-Mariana_State_of_Minas_Gerais.html
2501033,Hotel Providência,"Rua Dom Silverio 233 Centro, Mariana, Minas Gerais 35420-000 Brasil",Mariana ,indef,Hotel,27,67,3.5,1.0,100,56,36,-20.380577087402344,-43.41823959350586,https://www.tripadvisor.com.br/Hotel_Review-g303386-d2501033-Reviews-Hotel_Providencia-Mariana_State_of_Minas_Gerais.html
12614039,Pousada Fazenda Polyanna,"Avenida Nossa Senhora do Carmo Distrito de Claudio Manoel, Mariana, Minas Gerais 35420-000 Brasil",Mariana ,indef,Pousada,6,6,5.0,indef,indef,indef,indef,-20.236724853515625,-43.22498321533203,https://www.tripadvisor.com.br/Hotel_Review-g303386-d12614039-Reviews-Pousada_Fazenda_Polyanna-Mariana_State_of_Minas_Gerais.html
13000097,Hotel Sinha Olimpia,"Rua do Boqueirao 2 Passagem de Mariana, Mariana, Minas Gerais 35420-000 Brasil",Mariana ,indef,Hotel,indef,4,5.0,3.0,38,436,151,-20.392803192138672,-43.44392395019531,https://www.tripadvisor.com.br/Hotel_Review-g303386-d13000097-Reviews-Hotel_Sinha_Olimpia-Mariana_State_of_Minas_Gerais.html
5565304,Hotel Águas Claras,"Rodovia Dos Inconfidentes, 550 Km 108 São José, Mariana, Minas Gerais 35420-000 Brasil",Mariana ,indef,Hotel,indef,6,4.5,indef,79,39,16,-20.38713836669922,-43.42134475708008,https://www.tripadvisor.com.br/Hotel_Review-g303386-d5565304-Reviews-Hotel_Aguas_Claras-Mariana_State_of_Minas_Gerais.html
5540451,Hotel Faisca,"Rua Antonio Olinto 48, Mariana, Minas Gerais 35420-000 Brasil",Mariana ,indef,Hotel,indef,14,3.0,2.0,100,67,32,-20.376089096069336,-43.41865921020508,https://www.tripadvisor.com.br/Hotel_Review-g303386-d5540451-Reviews-Hotel_Faisca-Mariana_State_of_Minas_Gerais.html
